     2.11           OBSERVATION DATA    G (GPS)             RINEX VERSION / TYPE
teqc  2015Jun23     UNAVCO Archive Ops  20150918 09:23:42UTCPGM / RUN BY / DATE
Solaris x86 5.10|AMD64|cc SC5.8 -xarch=amd64|=+|=+          COMMENT
BIT 2 OF LLI FLAGS DATA COLLECTED UNDER A/S CONDITION       COMMENT
AHUP                                                        MARKER NAME
                                                            MARKER NUMBER
Miklius, Asta       Stanford/HVO                            OBSERVER / AGENCY
4542260456          TRIMBLE NETRS       1.1-2               REC # / TYPE / VERS
60121031            TRM41249.00     NONE                    ANT # / TYPE
 -5467762.7837 -2518810.5051  2103349.5793                  APPROX POSITION XYZ
        0.1110        0.0000        0.0000                  ANTENNA: DELTA H/E/N
     1     1                                                WAVELENGTH FACT L1/2
     7    L1    L2    C1    P2    P1    S1    S2            # / TYPES OF OBSERV
    30.0000                                                 INTERVAL
input file: ahup20150917.bnx                                COMMENT
RINEX file created by UNAVCO GPS Archive.                   COMMENT
For more information contact archive@unavco.org             COMMENT
Monument ID: 13922                                          COMMENT
UNAVCO 4-char name:   AHUP                                  COMMENT
4-char name from Log or data file: AHUP                     COMMENT
Monument location: 19.379109962 -155.266099499 1104.8471    COMMENT
Visit ID: 88461                                             COMMENT
                                                            COMMENT
NOTICE: If using these data for scientific purposes,        COMMENT
please acknowledge the source as Stanford University        COMMENT
and the USGS Hawaii Volcano Observatory.                    COMMENT
                                                            COMMENT
End of DB comments                                          COMMENT
 SNR is mapped to RINEX snr flag value [0-9]                COMMENT
  L1 & L2: min(max(int(snr_dBHz/6), 0), 9)                  COMMENT
  2015     9    17     0     0    0.0000000     GPS         TIME OF FIRST OBS
                                                            END OF HEADER
 15  9 17  0  0  0.0000000  0 10G14G04G22G29G18G16G27G26G21G31
 123087847.152 6  95912589.32643  23422838.570    23422833.9184
        40.800          22.6004
 132989147.567 5                  25306993.402
        35.000
 106340645.633 8  82862797.33947  20235952.092    20235941.4624
        50.000          43.0004
 126156070.776 7  98303423.16344  24006702.001    24006699.8694
        42.100          27.1004
 113503366.243 8  88444145.02846  21598972.476    21598963.5464
        49.600          36.1004
 111030721.158 8  86517412.44846  21128443.658    21128435.7824
        49.100          38.1004
 118963334.801 7  92698683.53945  22637969.946    22637965.1774
        45.500          32.5004
 109860699.985 8  85605721.49946  20905796.105    20905791.5704
        50.200          39.5004
 123297776.472 7  96076154.29144  23462786.722    23462778.2604
        44.300          26.4004
 131683321.682 5                  25058502.965
        34.900
 15  9 17  0  0 30.0000000  0 10G14G04G22G29G18G16G27G26G21G31
 123020686.872 6  95860256.74643  23410058.372    23410054.1304
        41.000          23.0004
 132930139.630 5                  25295763.141
        33.800
 106337725.632 8  82860522.01747  20235396.150    20235386.0474
        49.200          43.0004
 126220021.510 6  98353254.75744  24018871.297    24018869.2234
        39.700          26.0004
 113567875.210 8  88494411.71546  21611248.392    21611239.8134
        50.200          36.1004
 111020962.776 8  86509808.49646  21126587.216    21126579.3994
        49.900          38.5004
 118886040.885 7  92638454.56145  22623261.210    22623256.5584
        45.900          32.3004
 109907000.144 8  85641799.49146  20914606.697    20914602.5144
        50.700          40.1004
 123334888.137 7  96105072.42144  23469849.096    23469840.6344
        43.300          25.7004
 131721398.983 5                  25065749.475
        34.300
 15  9 17  0  1  0.0000000  0 10G14G04G22G29G18G16G27G26G21G31
 122953536.274 6  95807931.72943  23397279.099    23397275.2674
        40.600          23.9004
 132871191.357 5                  25284551.367
        31.300
 106335297.881 8  82858630.27547  20234934.215    20234923.3514
        49.700          43.2004
 126284224.854 6  98403283.20644  24031089.779    24031087.6484
        39.700          26.6004
 113632673.748 7  88544904.05046  21623579.367    21623570.1434
        47.600          36.6004
 111011771.038 8  86502646.09646  21124838.601    21124830.3744
        49.400          38.4004
 118808776.361 7  92578248.50945  22608559.101    22608553.6874
        45.800          32.2004
 109953785.509 8  85678255.56846  20923509.855    20923505.3794
        49.900          40.5004
 123371915.643 6  96133924.95744  23476894.687    23476886.3424
        41.400          24.8004
 131759179.973 5                  25072937.213
        31.200
 15  9 17  0  1 30.0000000  0 10G14G04G22G29G18G16G27G26G21G31
 122886417.937 6  95755631.80844  23384506.900    23384502.8344
        40.600          24.1004
                                  25273360.385
        29.100
 106333381.788 8  82857137.21847  20234569.841    20234559.0354
        50.200          43.3004
 126348700.561 6  98453523.89544  24043359.039    24043356.2634
        40.500          26.8004
 113697779.050 7  88595635.42846  21635968.256    21635959.2084
        47.000          36.1004
 111003165.798 8  86495940.70846  21123200.666    21123192.2054
        49.400          38.2004
 118731563.044 7  92518082.32645  22593865.185    22593860.1824
        45.700          32.6004
 110001073.935 8  85715103.63746  20932508.175    20932504.0514
        50.500          40.3004
 123408877.712 7  96162726.52244  23483928.143    23483920.5024
        42.400          25.1004
 131796717.613 5                  25080081.604
        32.500
 15  9 17  0  2  0.0000000  0 10G14G04G22G29G18G16G27G26G21G31
 122819284.997 6  95703320.53543  23371731.617    23371727.8444
        40.300          22.6004
 132753648.038 5                  25262182.884
        34.100
 106331926.450 8  82856003.19447  20234292.788    20234282.0404
        50.300          43.9004
 126413399.050 6  98503938.14544  24055670.727    24055667.8334
        41.400          27.2004
 113763139.897 8  88646565.92846  21648406.404    21648397.1804
        48.800          36.1004
 110995097.503 8  86489653.71446  21121665.402    21121656.9404
        49.700          38.5004
 118654353.132 7  92457918.80745  22579172.147    22579167.6124
        46.100          31.6004
 110048813.604 8  85752303.32546  20941593.435    20941588.7254
        50.500          40.7004
 123445725.593 7  96191439.09644  23490940.352    23490931.8904
        43.000          25.0004
 131833922.750 5                  25087160.818
        33.200
 15  9 17  0  2 30.0000000  0 10G14G04G22G29G18G16G27G26G21G31
 122752183.075 6  95651033.44543  23358963.044    23358958.6264
        40.900          23.2004
 132695003.563 4                  25251021.925
        28.000
 106330974.390 8  82855261.32847  20234111.701    20234100.7784
        50.000          43.3004
 126478363.026 6  98554559.27344  24068032.838    24068030.7074
        40.900          26.4004
 113828796.773 8  88697727.08946  21660900.082    21660891.5624
        48.500          36.0004
 110987609.217 8  86483818.68646  21120240.407    21120232.2974
        49.800          38.2004
 118577191.429 7  92397792.85345  22564488.773    22564483.5354
        46.700          33.3004
 110097045.325 8  85789886.43446  20950771.119    20950767.1714
        50.400          39.8004
 123482502.297 6  96220096.19344  23497938.826    23497930.1304
        41.400          24.2004
 131870850.941 5                  25094191.483
        32.500
 15  9 17  0  3  0.0000000  0 10G14G04G22G29G18G16G27G26G21G31
 122685099.535 6  95598760.67043  23346197.875    23346193.0474
        41.000          23.4004
 132636460.052 5                  25239882.050
        30.100
 106330509.639 8  82854899.18647  20234023.109    20234012.5374
        49.600          43.1004
 126543576.510 6  98605374.80844  24080442.831    24080440.5244
        40.800          25.1004
 113894732.240 8  88749105.33845  21673447.456    21673438.5254
        50.000          35.7004
 110980685.376 8  86478423.47046  21118922.822    21118914.7124
        50.200          38.1004
 118500064.409 7  92337693.91845  22549812.658    22549807.2444
        46.000          32.3004
 110145751.488 8  85827839.21546  20960039.728    20960035.6034
        50.300          39.8004
 123519192.817 7  96248686.17244  23504920.704    23504912.3604
        43.300          24.7004
                                  25101161.017
        30.500
 15  9 17  0  3 30.0000000  0 10G14G04G22G29G18G16G27G26G21G31
 122618041.400 6  95546507.66144  23333437.286    23333432.2234
        41.800          24.2004
 132577993.163 5                  25228757.925
        31.000
 106330535.876 8  82854919.63947  20234028.310    20234017.8564
        49.900          43.2004
 126609044.205 6  98656388.47343  24092901.328    24092898.0824
        39.700          22.9004
 113960948.095 8  88800702.07245  21686047.919    21686038.8714
        49.200          35.1004
 110974330.390 8  86473471.51846  21117713.502    21117705.5684
        48.200          38.2004
 118422978.413 7  92277626.96545  22535143.348    22535138.6964
        46.500          32.6004
 110194934.340 8  85866163.45946  20969398.698    20969395.0424
        49.900          40.2004
 123555801.568 7  96277212.40944  23511886.806    23511879.1654
        42.600          26.1004
                                  25108077.553
        32.000
 15  9 17  0  4  0.0000000  0 10G14G04G22G29G18G16G27G26G21G31
 122551011.276 6  95494276.47543  23320681.183    23320676.2384
        41.100          22.9004
 132519625.058 5                  25217651.424
        31.500
 106331051.952 8  82855321.78347  20234126.430    20234115.1554
        50.500          43.2004
 126674765.322 6  98707599.58343  24105407.090    24105405.8964
        38.100          22.3004
 114027442.180 8  88852515.61045  21698701.333    21698692.3444
        49.600          35.5004
 110968544.143 8  86468962.73946  21116612.218    21116604.4594
        49.700          38.6004
 118345935.106 7  92217593.26845  22520482.237    22520478.1134
        45.800          33.2004
 110244591.489 8  85904857.28346  20978848.356    20978844.4664
        50.100          39.5004
 123592328.618 7  96305674.98744  23518837.952    23518830.1354
        43.700          26.0004
 131979905.103 5                  25114938.177
        32.200
 15  9 17  0  4 30.0000000  0 10G14G04G22G29G18G16G27G26G21G31
 122484007.809 6  95442066.06243  23307930.521    23307925.8694
        41.300          23.6004
 132461355.171 5                  25206561.940
        33.000
 106332053.158 8  82856101.94047  20234317.290    20234306.8354
        50.300          43.4004
 126740735.608 6  98759004.85243  24117961.602    24117959.3534
        39.200          22.3004
 114094208.054 8  88904540.93745  21711406.499    21711397.5684
        49.600          35.2004
 110963322.816 8  86464894.16046  21115619.224    21115610.9974
        50.300          38.6004
 118268932.409 7  92157591.19945  22505829.569    22505824.6834
        46.500          33.1004
 110294716.609 8  85943915.76746  20988387.029    20988382.9054
        49.800          39.9004
 123628769.778 7  96334070.63444  23525773.181    23525765.0124
        44.100          25.6004
 132015660.055 5                  25121742.484
        30.300
 15  9 17  0  5  0.0000000  0 10G14G04G22G29G18G16G27G26G21G31
 122417036.117 7  95389880.40544  23295186.356    23295182.4664
        42.200          26.0004
 132403161.029 5                  25195486.840
        33.400
 106333541.112 8  82857261.39547  20234600.058    20234589.6624
        51.600          43.2004
 126806957.129 6  98810605.89143  24130563.696    24130560.2164
        40.500          22.8004
 114161245.601 8  88956777.94845  21724163.254    21724154.5584
        49.700          35.3004
 110958667.869 8  86461266.91446  21114733.234    21114725.1244
        50.000          38.6004
 118191974.417 7  92097623.95945  22491184.497    22491180.1394
        45.800          32.9004
 110345309.710 8  85983338.89846  20998014.695    20998010.5124
        49.900          39.0004
 123665127.910 7  96362401.59644  23532690.887    23532683.7144
        42.400          26.9004
 132051105.878 5                  25128487.667
        30.500
 15  9 17  0  5 30.0000000  0 10G14G04G22G29G18G16G27G26G21G31
 122350098.117 6  95337721.03443  23282447.759    23282443.8694
        41.800          23.5004
 132345053.379 6                  25184430.272
        36.400
 106335514.118 8  82858798.80747  20234975.649    20234964.8434
        51.700          43.5004
 126873428.953 6  98862401.97143  24143212.351    24143209.5164
        40.500          22.8004
 114228551.764 8  89009224.27245  21736971.600    21736962.7864
        49.800          35.7004
 110954578.517 8  86458080.39146  21113954.681    21113946.6884
        48.300          38.3004
 118115062.339 7  92037692.51545  22476548.413    22476544.4054
        45.500          33.3004
 110396367.732 8  86023124.30046  21007730.583    21007726.7524
        49.400          39.5004
 123701402.074 7  96390667.10844  23539594.227    23539585.7654
        42.300          27.0004
                                  25135179.245
        27.300
 15  9 17  0  6  0.0000000  0  9G14G04G22G29G18G16G27G26G21
 122283198.407 6  95285591.46144  23269717.603    23269712.7764
        41.800          24.9004
 132287033.663 5                  25173390.252
        34.100
 106337973.350 8  82860715.10047  20235443.681    20235432.9334
        49.700          43.8004
 126940152.731 6  98914394.40543  24155910.127    24155907.1754
        40.500          22.6004
 114296126.474 8  89061879.84645  21749830.381    21749821.5094
        49.100          35.4004
 110951056.523 8  86455335.96746  21113284.990    21113276.1774
        50.800          38.5004
 118038199.930 7  91977799.77745  22461922.301    22461918.0594
        46.200          33.3004
 110447890.237 8  86063271.65046  21017535.102    21017530.8604
        49.200          39.6004
 123737594.446 7  96418868.89344  23546481.332    23546473.2224
        42.700          26.8004
 15  9 17  0  6 30.0000000  0  9G14G04G22G29G18G16G27G26G21
 122216338.818 6  95233493.18643  23256995.079    23256989.8414
        40.700          23.8004
 132229099.990 6                  25162365.050
        36.400
 106340916.573 8  82863008.52347  20236003.528    20235992.8394
        51.100          43.6004
 127007126.950 6  98966581.94643  24168654.096    24168651.7304
        40.500          22.9004
 114363966.140 8  89114741.88245  21762739.735    21762731.3324
        49.500          35.3004
 110948100.914 8  86453032.87646  21112722.409    21112714.0064
        49.300          38.8004
 117961388.287 7  91917946.58445  22447305.209    22447300.2054
        45.700          32.5004
 110499874.076 8  86103778.47346  21027427.171    21027422.8124
        49.900          39.6004
 123773704.608 7  96447006.63744  23553353.641    23553344.8274
        43.100          26.5004
 15  9 17  0  7  0.0000000  0  9G14G04G22G29G18G16G27G26G21
 122149521.913 7  95181428.15543  23244280.271    23244275.2084
        42.700          23.4004
 132171251.364 5                  25151356.800
        33.200
 106344343.177 8  82865678.60147  20236655.413    20236644.7834
        51.500          43.5004
 127074351.677 6  99018964.71043  24181447.689    24181445.2644
        40.100          23.6004
 114432068.388 8  89167808.52745  21775699.128    21775690.3154
        48.800          35.3004
 110945711.335 8  86451170.84246  21112267.765    21112258.8934
        49.800          38.0004
 117884629.293 7  91858134.42345  22432698.252    22432693.3074
        45.900          32.7004
 110552316.797 8  86144642.86546  21037406.928    21037402.9214
        49.700          39.5004
 123809732.810 7  96475080.49244  23560209.202    23560201.0924
        43.800          26.7004
 15  9 17  0  7 30.0000000  0  9G14G04G22G29G18G16G27G26G21
 122082750.645 6  95129398.69444  23231573.402    23231568.8094
        41.000          24.5004
 132113487.477 5                  25140364.029
        33.000
 106348251.987 8  82868724.43347  20237399.241    20237388.5524
        50.100          43.1004
 127141826.043 6  99071542.01744  24194287.429    24194285.0634
        39.500          24.1004
 114500431.167 8  89221078.17745  21788707.926    21788699.4654
        48.500          35.3004
 110943887.590 8  86449749.72646  21111920.585    21111912.4754
        49.600          38.6004
 117807924.752 7  91798364.69045  22418102.078    22418096.8404
        46.300          32.8004
 110605215.966 8  86185862.93446  21047473.247    21047469.8264
        49.100          38.9004
 123845679.021 6  96503090.46244  23567049.845    23567041.5004
        41.800          24.6004
 15  9 17  0  8  0.0000000  0  9G14G04G22G29G18G16G27G26G21
 122016028.020 6  95077407.13444  23218876.843    23218872.1324
        41.500          24.4004
 132055808.525 5                  25129387.778
        34.300
 106352642.923 8  82872145.94147  20238234.954    20238223.9134
        50.600          43.6004
 127209550.305 6  99124314.02844  24207174.456    24207172.5594
        39.400          24.4004
 114569052.752 8  89274549.49545  21801766.675    21801758.0374
        48.500          34.7004
 110942629.853 8  86448769.64146  21111681.662    21111673.0244
        50.700          38.6004
 117731277.221 7  91738639.37545  22403516.449    22403511.5044
        46.300          33.3004
 110658569.757 8  86227437.25246  21057626.548    21057622.5404
        49.900          39.8004
 123881543.719 7  96531036.92544  23573874.668    23573866.6754
        43.200          26.1004
 15  9 17  0  8 30.0000000  0  9G14G04G22G29G18G16G27G26G21
 121949357.041 6  95025455.79543  23206189.650    23206184.7634
        41.800          22.6004
 131998213.141 5                  25118425.950
        31.800
 106357514.908 8  82875942.29147  20239162.126    20239151.3204
        51.400          43.4004
 127277524.084 6  99177280.47643  24220107.723    24220107.7604
        36.300          22.2004
 114637931.009 8  89328220.81245  21814873.664    21814865.5544
        49.300          34.9004
 110941937.669 8  86448230.24546  21111549.490    21111541.5564
        50.300          39.3004
 117654688.691 7  91678960.03645  22388942.403    22388936.8714
        46.600          31.9004
 110712375.801 8  86269363.98246  21067865.494    21067861.1944
        49.800          39.3004
 123917327.398 6  96558920.26744  23580683.918    23580675.8084
        41.500          26.5004
 15  9 17  0  9  0.0000000  0  9G14G04G22G29G18G16G27G26G21
 121882739.741 7  94973546.29444  23193513.037    23193507.6824
        42.000          25.9004
 131940700.374 5                  25107482.662
        34.000
 106362866.399 8  82880112.28947  20240180.032    20240170.1054
        50.700          43.3004
 127345746.857 6  99230440.94743  24233091.249    24233090.2314
        36.700          21.7004
 114707062.601 8  89382089.54845  21828028.698    21828020.2364
        48.000          35.0004
 110941810.327 8  86448130.99046  21111525.199    21111517.4994
        48.800          38.8004
 117578160.599 7  91619327.79245  22374379.253    22374374.0734
        46.400          32.6004
 110766631.175 8  86311640.82646  21078189.997    21078185.6974
        50.000          39.6004
 123953030.254 6  96586740.60344  23587478.450    23587469.9884
        41.800          26.0004
 15  9 17  0  9 30.0000000  0  9G14G04G22G29G18G16G27G26G21
 121816178.461 7  94921680.44944  23180845.989    23180841.2204
        43.100          24.7004
 131883269.208 5                  25096554.969
        35.500
 106368695.870 8  82884654.73147  20241289.616    20241278.8684
        50.600          43.5004
 127414217.602 6  99283794.63343  24246121.889    24246119.3474
        37.600          21.8004
 114776444.907 7  89436153.64345  21841231.807    21841223.6394
        47.500          34.9004
 110942247.023 8  86448471.23746  21111608.429    21111600.3194
        48.800          38.4004
 117501694.401 7  91559743.78045  22359828.650    22359823.4714
        46.400          33.2004
 110821332.923 8  86354265.49846  21088599.137    21088595.1304
        48.800          38.5004
 123988651.498 7  96614497.34344  23594256.808    23594248.8734
        42.000          25.1004
 15  9 17  0 10  0.0000000  0 10G14G04G22G29G18G08G16G27G26G21
 121749676.121 7  94869860.53344  23168191.288    23168186.8704
        42.200          25.8004
 131825919.017 6                  25085639.291
        36.400
 106375002.598 8  82889569.06247  20242489.782    20242479.0934
        50.500          43.4004
 127482935.904 6  99337341.21643  24259198.897    24259196.4144
        38.300          22.2004
 114846075.738 7  89490411.38045  21854482.162    21854473.9944
        47.600          34.9004
                                  25430880.319
        34.700
 110943247.164 8  86449250.54446  21111798.577    21111790.8194
        49.200          38.6004
 117425292.256 7  91500209.68445  22345289.125    22345284.5914
        46.500          33.3004
 110876478.731 8  86397236.19446  21099093.155    21099088.9724
        49.900          39.1004
 124024191.592 7  96642190.85544  23601019.587    23601011.1254
        43.100          25.1004
 15  9 17  0 10 30.0000000  0 10G14G04G22G29G18G08G16G27G26G21
 121683240.005 7  94818092.23344  23155549.054    23155543.9924
        43.400          24.3004
 131768653.512 5                  25074742.175
        35.100
 106381789.937 8  82894857.89047  20243781.581    20243771.0104
        51.100          43.4004
 127551905.774 6  99391083.88443  24272324.121    24272320.9344
        40.700          22.5004
 114915957.605 8  89544864.72645  21867780.862    21867771.9914
        48.100          35.1004
 133551636.018 5 104066192.16042  25414031.341    25414026.9234
        34.300          15.6004
 110944815.015 8  86450472.22046  21112097.181    21112088.7784
        49.200          38.9004
 117348960.629 7  91440730.54445  22330764.150    22330759.1474
        46.300          33.7004
 110932070.644 8  86440554.50246  21109671.738    21109667.7894
        49.200          38.7004
 124059655.375 6  96669824.93444  23607767.866    23607759.6974
        41.700          26.1004
 15  9 17  0 11  0.0000000  0 10G14G04G22G29G18G08G16G27G26G21
 121616865.865 7  94766372.20544  23142918.001    23142912.6464
        42.600          24.9004
 131711465.213 5 102632326.66842  25063859.223    25063862.3664
        34.600          17.4004
 106389050.082 8  82900515.14547  20245163.154    20245152.1724
        50.600          43.5004
 127621120.040 6  99445016.93143  24285494.469    24285492.9234
        39.400          22.9004
 114986080.710 8  89599506.06145  21881124.931    21881116.1184
        48.800          35.6004
 133462939.250 5 103997090.90642  25397155.854    25397151.9644
        32.600          16.3004
 110946943.181 8  86452130.50546  21112501.905    21112493.7954
        48.200          38.4004
 117272694.716 7  91381302.58945  22316250.882    22316246.1714
        46.000          34.0004
 110988099.313 8  86484213.13446  21120333.954    21120330.2404
        48.900          38.9004
 124095036.343 7  96697394.40444  23614500.919    23614492.9264
        42.600          24.3004
 15  9 17  0 11 30.0000000  0 10G14G04G22G29G18G08G16G27G26G21
 121550559.615 7  94714705.10044  23130300.758    23130295.5794
        44.100          25.3004
 131654356.755 5 102587826.74142  25052993.142    25052995.4644
        35.800          17.4004
 106396784.754 8  82906542.15747  20246635.150    20246624.2274
        50.900          43.3004
 127690581.388 6  99499142.51743  24298713.171    24298710.7464
        39.900          22.3004
 115056445.938 8  89654336.05545  21894514.724    21894506.2044
        48.300          35.1004
 133374128.888 5 103927884.65842  25380253.048    25380250.1554
        32.500          16.9004
 110949634.379 8  86454227.51846  21113014.289    21113006.0614
        48.500          38.9004
 117196499.425 7  91321929.67245  22301751.409    22301746.4064
        46.600          34.0004
 111044565.188 8  86528212.43746  21131079.031    21131075.3174
        48.900          38.6004
 124130337.761 7  96724901.93244  23621218.510    23621209.8734
        42.600          25.3004
 15  9 17  0 12  0.0000000  0 10G14G04G22G29G18G08G16G27G26G21
 121484323.767 7  94663092.83644  23117696.289    23117691.7544
        42.600          25.3004
 131597326.822 5 102543388.00642  25042140.918    25042142.4214
        35.200          16.3004
 106404992.747 8  82912937.99347  20248196.685    20248185.9974
        50.800          43.3004
 127760288.947 6  99553459.94543  24311977.742    24311974.5554
        38.800          21.7004
 115127051.155 8  89709353.06545  21907951.072    21907941.9664
        48.600          35.7004
 133285176.820 5 103858571.31042  25363326.649    25363322.7594
        32.800          15.6004
 110952887.606 8  86456762.46946  21113633.194    21113625.3774
        49.700          38.7004
 117120376.600 7  91262613.22145  22287266.447    22287260.9164
        46.600          33.2004
 111101465.556 8  86572550.31046  21141907.414    21141902.7624
        49.300          39.2004
 124165560.188 6  96752347.91544  23627920.754    23627913.5234
        41.500          26.4004
 15  9 17  0 12 30.0000000  0 11G14G04G22G29G18G08G16G27G26G21G31
 121418161.428 7  94611537.85344  23105105.293    23105100.8174
        42.100          24.0004
 131540375.187 5 102499010.28642  25031303.534    25031305.5634
        34.600          17.4004
 106413673.374 8  82919702.11247  20249848.619    20249837.6374
        51.000          43.6004
 127830242.690 6  99607969.24143  24325289.162    24325286.5024
        37.600          21.7004
 115197893.986 7  89764555.22645  21921431.211    21921422.8664
        47.500          35.0004
 133196092.477 6 103789154.81742  25346376.284    25346369.7574
        36.800          16.9004
 110956702.790 8  86459735.32046  21114359.418    21114351.7184
        49.100          38.5004
 117044328.723 7  91203355.17945  22272794.072    22272789.5374
        46.300          34.0004
 111158798.331 8  86617225.12746  21152816.809    21152813.0364
        49.100          38.6004
 124200703.544 6  96779732.24544  23634608.024    23634600.7934
        40.900          26.3004
 132546614.661 5                  25222781.282
        33.700
 15  9 17  0 13  0.0000000  0 11G14G04G22G29G18G08G16G27G26G21G31
 121352075.911 7  94560042.74444  23092529.644    23092525.4024
        43.300          25.2004
 131483501.433 6 102454693.24442  25020480.291    25020482.3794
        36.000          17.4004
 106422825.801 8  82926833.86647  20251590.359    20251579.7294
        50.700          42.9004
 127900442.531 6  99662670.27643  24338647.922    24338645.2634
        38.200          20.6004
 115268972.712 8  89819941.20545  21934957.730    21934948.4484
        48.200          34.6004
 133106877.175 5 103719636.32042  25329398.303    25329393.3584
        34.900          13.9004
 110961079.665 8  86463145.84346  21115192.596    21115184.3104
        49.300          38.9004
 116968358.046 7  91144157.30845  22258337.399    22258332.6304
        47.100          34.5004
 111216561.203 8  86662235.08246  21163809.415    21163805.1734
        48.800          38.8004
 124235768.807 7  96807055.77844  23641281.075    23641274.0784
        42.800          25.6004
 132577170.774 5                  25228595.357
        33.300
 15  9 17  0 13 30.0000000  0 10G14G04G22G29G18G08G16G27G26G21
 121286068.671 7  94508608.60144  23079968.880    23079965.1664
        43.300          26.7004
 131426703.967 5 102410435.68142  25009670.515    25009673.5414
        35.900          17.8004
 106432447.644 8  82934331.40947  20253421.333    20253410.4684
        49.400          42.8004
 127970886.926 6  99717561.89943  24352053.177    24352051.5734
        38.400          20.6004
 115340283.934 7  89875508.33845  21948528.240    21948518.5484
        47.100          35.5004
 133017530.652 5 103650015.67742  25312395.178    25312390.7024
        31.800          16.9004
 110966016.636 8  86466992.80446  21116131.957    21116123.9644
        50.000          39.1004
 116892465.626 7  91085020.39545  22243895.750    22243890.2774
        47.200          34.7004
 111274750.574 8  86707577.36946  21174882.304    21174878.1804
        48.000          38.2004
 124270755.125 7  96834317.77744  23647939.354    23647931.7724
        42.200          26.1004
 15  9 17  0 14  0.0000000  0 10G14G04G22G29G18G08G16G27G26G21
 121220144.040 7  94457238.86944  23067424.686    23067419.0384
        42.900          26.7004
 131369983.455 6 102366238.02942  24998879.612    24998880.7044
        36.700          17.4004
 106442539.524 8  82942195.21047  20255341.489    20255331.2694
        50.300          42.8004
 128041576.844 6  99772644.77643  24365504.815    24365503.9734
        37.900          21.8004
 115411826.467 8  89931255.72145  21962142.214    21962133.0494
        48.300          34.8004
 132928054.719 5 103580291.88342  25295367.336    25295365.6144
        33.200          16.3004
 110971514.565 8  86471276.86646  21117177.912    21117170.1544
        49.200          38.8004
 116816655.007 7  91025947.23345  22229469.166    22229464.5724
        47.400          34.9004
 111333365.431 7  86753251.21546  21186036.240    21186031.9984
        47.500          38.7004
 124305664.432 6  96861519.74344  23654582.095    23654574.8644
        40.400          24.3004
 15  9 17  0 14 30.0000000  0 10G14G04G22G29G18G08G16G27G26G21
 121154304.656 7  94405935.53844  23054895.276    23054890.2734
        42.600          25.6004
 131313339.025 5 102322099.75842  24988099.137    24988101.6944
        35.800          17.4004
 106453099.962 8  82950424.11747  20257351.339    20257340.7094
        49.100          43.0004
 128112511.215 6  99827918.18643  24379003.595    24379002.4594
        38.300          21.3004
 115483598.211 7  89987181.71645  21975799.813    21975790.8824
        47.000          34.4004
 132838447.288 5 103510475.78042  25278318.443    25278315.2574
        34.100          16.3004
 110977572.704 8  86475997.46546  21118330.908    21118323.1504
        48.300          38.6004
 116740928.088 7  90966939.29745  22215059.224    22215053.9864
        47.300          35.1004
 111392403.026 8  86799254.46146  21197271.109    21197266.8674
        48.300          38.8004
 124340497.034 6  96888661.94744  23661210.540    23661203.1924
        41.400          25.0004
 15  9 17  0 15  0.0000000  0 11G14G04G22G29G18G08G16G27G26G21G31
 121088552.024 7  94354699.81144  23042382.943    23042377.5294
        43.100          25.3004
 131256768.781 6 102278019.21243  24977334.543    24977336.1034
        38.400          18.3004
 106464126.455 8  82959016.17847  20259449.463    20259438.8334
        50.200          43.1004
 128183688.626 6  99883380.92643  24392547.380    24392546.8314
        38.200          19.3004
 115555595.449 7  90043283.41945  21989499.716    21989491.3714
        46.800          35.3004
 132748717.343 5 103440556.27742  25261242.976    25261240.0824
        33.800          15.6004
 110984189.062 8  86481153.04046  21119590.026    21119582.0924
        49.100          38.4004
 116665285.640 7  90907997.17145  22200665.022    22200659.4324
        47.800          34.7004
 111451859.402 7  86845584.03646  21208585.078    21208581.0714
        47.600          38.0004
 124375251.942 6  96915743.60944  23667824.716    23667817.1334
        41.000          24.7004
 132696232.409 5                  25251252.405
        31.900
 15  9 17  0 15 30.0000000  0 11G14G04G22G29G18G08G16G27G26G21G31
 121022890.645 7  94303535.18144  23029887.962    23029882.9584
        44.300          26.5004
 131200273.048 6 102233996.80142  24966583.562    24966585.2404
        37.500          17.8004
 106475619.130 8  82967971.50547  20261636.457    20261625.5344
        50.500          42.9004
 128255109.693 6  99939033.54743  24406138.533    24406137.9254
        38.300          20.4004
 115627817.205 7  90099560.08645  22003243.301    22003234.8394
        47.900          35.3004
 132658861.935 6 103370539.06643  25244143.400    25244141.2104
        36.700          18.6004
 110991364.101 8  86486743.94546  21120955.367    21120947.0814
        48.300          38.3004
 116589731.023 7  90849123.48645  22186287.464    22186282.3434
        46.200          35.5004
 111511733.188 8  86892238.86746  21219978.779    21219974.4204
        48.800          37.8004
 124409930.629 6  96942765.86944  23674423.966    23674415.9154
        41.600          25.7004
 132725202.189 5                  25256764.582
        32.500
 15  9 17  0 16  0.0000000  0 11G14G04G22G29G18G08G16G27G26G21G31
 120957322.497 7  94252443.22544  23017409.958    23017406.1864
        43.900          25.5004
 131143850.959 6 102190031.65943  24955845.933    24955848.4314
        36.800          18.6004
 106487576.397 8  82977288.84747  20263912.090    20263901.1674
        50.800          43.0004
 128326773.923 6  99994875.65543  24419776.568    24419774.7304
        37.800          19.0004
 115700260.371 8  90156009.26345  22017029.051    22017020.5894
        48.700          35.5004
 132568882.351 6 103300425.06342  25227024.929    25227018.9294
        38.300          16.9004
 110999097.325 8  86492769.79746  21122427.031    21122418.6284
        48.400          38.7004
 116514266.016 7  90790319.63945  22171926.136    22171921.5424
        46.300          34.7004
 111572021.549 7  86939216.74246  21231451.126    21231447.4124
        47.900          38.2004
 124444533.433 6  96969729.00844  23681009.296    23681001.0694
        41.900          25.8004
 132753846.821 4                  25262213.575
        28.300
 15  9 17  0 16 30.0000000  0 10G14G04G22G29G18G08G16G27G26G21
 120891851.441 7  94201426.90944  23004951.333    23004947.1504
        43.100          25.8004
 131087502.944 6 102146124.33042  24945123.922    24945125.0144
        37.900          16.9004
 106499998.283 8  82986968.22647  20266276.066    20266265.3194
        50.900          42.9004
 128398681.514 6 100050907.40643  24433460.350    24433458.6294
        38.400          18.6004
 115772924.301 8  90212630.47045  22030856.445    22030847.7484
        48.500          34.5004
 132478780.829 6 103230215.99742  25209877.044    25209872.4514
        36.500          16.9004
 111007388.625 8  86499230.51846  21124004.312    21123996.2614
        49.300          38.4004
 116438894.023 7  90731588.26545  22157584.097    22157578.6244
        45.400          34.8004
 111632723.042 8  86986516.53846  21243002.635    21242998.3354
        48.000          38.0004
 124479061.584 7  96996633.95144  23687579.590    23687571.9494
        42.500          25.7004
 15  9 17  0 17  0.0000000  0 10G14G04G22G29G18G08G16G27G26G21
 120826479.021 7  94150487.44044  22992512.177    22992506.6464
        43.800          26.7004
 131031226.713 6 102102272.97142  24934413.613    24934416.1714
        36.700          17.4004
 106512881.908 8  82997007.41547  20268727.580    20268717.0674
        50.700          43.1004
 128470830.432 6 100107127.21143  24447190.385    24447187.4334
        39.800          19.9004
 115845804.924 7  90269420.51645  22044725.276    22044716.8154
        47.500          35.1004
 132388556.651 5 103159911.43443  25192707.364    25192703.0054
        35.900          18.3004
 111016235.367 8  86506124.04546  21125688.453    21125680.5774
        49.900          39.1004
 116363615.408 7  90672929.65945  22143258.984    22143253.1604
        45.400          35.8004
 111693833.364 7  87034134.89846  21254631.251    21254627.6544
        47.900          38.0004
 124513514.005 7  97023479.92444  23694134.997    23694127.2394
        42.900          24.8004
 15  9 17  0 17 30.0000000  0 11G14G04G22G29G18G08G16G27G26G21G31
 120761208.247 7  94099627.17644  22980090.716    22980085.7714
        42.900          27.7004
 130975022.019 5 102058477.27142  24923718.680    24923721.4134
        35.800          17.4004
 106526226.342 8  83007405.66747  20271266.902    20271256.1554
        50.100          43.5004
 128543220.699 6 100163535.06343  24460966.296    24460963.7544
        40.300          19.6004
 115918900.362 7  90326377.96245  22058634.580    22058626.3524
        47.600          35.0004
 132298211.601 6 103089512.65642  25175514.620    25175510.7894
        36.300          16.9004
 111025637.629 8  86513450.45246  21127477.429    21127469.2614
        50.000          38.8004
 116288432.763 7  90614345.82045  22128951.904    22128946.7834
        45.200          35.5004
 111755350.225 7  87082070.03346  21266337.961    21266334.0714
        47.800          38.2004
 124547891.748 7  97050267.68644  23700676.956    23700669.6084
        42.000          24.7004
 132837840.303 5                  25278197.536
        31.300
 15  9 17  0 18  0.0000000  0 11G14G04G22G29G18G08G16G27G26G21G31
 120696042.546 7  94048848.79044  22967690.432    22967685.4874
        43.400          27.1004
 130918888.679 5 102014737.16442  24913035.717    24913038.0984
        35.900          16.3004
 106540030.901 8  83018162.46047  20273893.778    20273883.2074
        50.300          43.2004
 128615851.862 6 100220130.62643  24474787.917    24474785.3754
        37.700          20.9004
 115992209.207 7  90383501.69545  22072585.030    22072577.2724
        47.300          34.7004
 132207747.432 5 103019021.04142  25158301.155    25158297.3244
        34.900          16.9004
 111035595.422 8  86521209.73146  21129372.287    21129364.4704
        50.300          38.9004
 116213348.840 7  90555838.92646  22114663.724    22114658.7214
        45.100          36.3004
 111817271.615 8  87130320.38946  21278120.940    21278117.2254
        48.600          38.8004
 124582195.943 7  97076998.14643  23707204.828    23707197.3634
        42.200          23.4004
 132865191.952 5                  25283405.446
        33.000
 15  9 17  0 18 30.0000000  0 11G14G04G22G29G18G08G16G27G26G21G31
 120630984.428 7  93998154.23844  22955310.182    22955305.2964
        43.700          26.5004
 130862825.719 6 101971051.96643  24902366.261    24902369.4634
        36.200          19.3004
 106554293.755 8  83029276.37247  20276608.001    20276597.3124
        49.500          43.4004
 128688723.315 6 100276913.40943  24488654.271    24488653.1364
        36.900          21.1004
 116065728.374 7  90440789.31845  22086575.028    22086566.5074
        46.700          34.6004
 132117165.103 6 102948437.33243  25141065.799    25141059.7994
        38.200          18.3004
 111046106.961 8  86529400.51146  21131372.973    21131364.9224
        49.400          38.6004
 116138365.261 7  90497410.21045  22100394.974    22100389.9704
        45.100          35.8004
 111879594.400 8  87178883.51946  21289980.855    21289976.9654
        48.300          38.2004
 124616426.262 6  97103671.03143  23713719.213    23713711.8064
        41.800          23.0004
                                  25288544.712
        27.300
 15  9 17  0 19  0.0000000  0 11G14G04G22G29G18G08G16G27G26G21G31
 120566036.870 7  93947545.83944  22942951.207    22942945.6764
        44.100          25.1004
 130806832.538 6 101927421.15143  24891712.648    24891715.0884
        38.800          18.6004
 106569013.767 8  83040746.51047  20279409.565    20279398.2904
        50.000          42.8004
 128761834.596 5 100333883.14643  24502566.781    24502565.0014
        35.900          20.4004
 116139455.627 7  90498239.08945  22100605.045    22100596.7594
        46.700          34.2004
 132026465.798 6 102877762.53843  25123805.029    25123799.9084
        36.800          19.0004
 111057171.554 8  86538022.23146  21133478.261    21133470.0924
        49.500          38.9004
 116063484.376 7  90439061.51446  22086145.716    22086140.5364
        45.800          36.0004
 111942315.935 8  87227757.36846  21301916.275    21301912.5024
        49.000          37.8004
 124650583.277 6  97130286.77743  23720218.501    23720211.2704
        41.700          23.8004
 132918914.982 5                  25293627.346
        30.800
 15  9 17  0 19 30.0000000  0 11G14G04G22G29G18G08G16G27G26G21G31
 120501202.443 7  93897025.57544  22930613.919    22930608.0364
        43.500          25.8004
 130750907.527 6 101883843.47242  24881071.968    24881073.0024
        37.500          17.8004
 106584189.230 8  83052571.53947  20282296.902    20282286.3314
        49.400          42.7004
 128835184.692 5 100391038.89643  24516524.316    24516523.2394
        35.500          19.6004
 116213388.566 7  90555849.13145  22114674.221    22114665.9944
        46.400          33.3004
 131935650.305 6 102806997.25043  25106523.019    25106518.6604
        37.500          19.6004
 111068788.249 8  86547074.16846  21135688.880    21135680.8874
        50.500          38.1004
 115988707.945 7  90380794.21546  22071916.109    22071911.3984
        45.400          36.0004
 112005433.236 8  87276939.60046  21313927.595    21313923.1194
        48.200          38.3004
 124684667.022 6  97156845.45043  23726704.702    23726697.4714
        41.100          23.9004
 132945286.343 5                  25298644.320
        32.400
 15  9 17  0 20  0.0000000  0 11G14G04G22G29G18G08G16G27G26G21G31
 120436484.319 7  93846595.94844  22918297.759    22918292.7564
        43.600          25.6004
 130695051.080 5 101840319.13842  24870438.269    24870442.7604
        32.500          16.9004
 106599819.323 8  83064750.83147  20285271.130    20285261.0274
        49.100          42.9004
 128908772.926 5 100448380.20843  24530527.954    24530527.2884
        34.900          18.6004
 116287525.129 7  90613617.83545  22128781.793    22128773.5664
        46.400          33.9004
 131844720.395 5 102736142.70543  25089219.096    25089215.2654
        35.700          19.9004
 111080956.543 8  86556555.92146  21138004.788    21137996.7374
        48.700          38.3004
 115914038.677 7  90322610.41945  22057706.893    22057701.7724
        45.600          35.3004
 112068944.104 8  87326428.51046  21326012.684    21326009.4384
        48.100          38.0004
 124718678.555 7  97183347.83944  23733177.479    23733169.7794
        42.000          25.5004
 132971322.466 5                  25303599.884
        31.800
 15  9 17  0 20 30.0000000  0 11G14G04G22G29G18G08G16G27G26G21G31
 120371885.002 7  93796258.88144  22906005.178    22906000.1164
        43.400          25.6004
 130639262.014 6 101796847.43342  24859825.954    24859825.6984
        38.000          16.3004
 106615902.385 8  83077283.08847  20288331.668    20288321.1554
        49.400          42.5004
 128982598.979 5 100505906.83843  24544577.252    24544576.4684
        34.600          18.6004
 116361863.236 7  90671543.59345  22142927.788    22142919.1504
        45.900          33.6004
 131753677.210 6 102665200.00643  25071892.847    25071891.0084
        36.100          18.6004
 111093675.297 8  86566466.59146  21140424.734    21140417.0344
        48.500          39.3004
 115839478.498 7  90264511.62246  22043518.585    22043513.8154
        45.600          36.7004
 112132845.491 8  87376221.73246  21338173.251    21338169.4204
        48.800          38.3004
 124752618.527 6  97209794.47744  23739635.437    23739627.7374
        41.000          25.4004
 132997036.166 5                  25308493.025
        30.700
 15  9 17  0 21  0.0000000  0 11G14G04G22G29G18G08G16G27G26G21G31
 120307408.346 7  93746017.40244  22893735.243    22893730.2984
        43.300          25.3004
 130583540.336 6 101753428.20142  24849220.231    24849222.3784
        37.300          17.4004
 106632437.872 8  83090167.87747  20291478.219    20291467.7644
        49.400          42.8004
 129056663.344 6 100563619.16443  24558671.689    24558669.3234
        38.800          18.6004
 116436401.013 7  90729624.93745  22157112.034    22157103.5724
        45.900          32.3004
 131662522.803 6 102594170.58942  25054548.419    25054544.4704
        36.800          17.8004
 111106943.994 8  86576805.80446  21142949.705    21142941.8304
        49.200          38.6004
 115765030.458 7  90206500.20546  22029351.837    22029346.8334
        45.900          36.7004
 112197135.577 8  87426317.82446  21350407.211    21350403.5564
        49.200          37.7004
 124786487.488 7  97236185.76943  23746081.092    23746073.1584
        42.500          23.6004
 133022420.050 5                  25313323.596
        30.700
 15  9 17  0 21 30.0000000  0 11G14G04G22G29G18G08G16G27G26G21G31
 120243055.651 7  93695872.53244  22881489.692    22881484.3364
        44.500          26.8004
 130527884.337 6 101710060.15343  24838629.118    24838631.5584
        36.100          18.3004
 106649423.205 8  83103403.19147  20294710.309    20294699.9134
        50.200          42.9004
 129130963.561 6 100621515.28943  24572809.786    24572808.8264
        36.800          20.9004
 116511134.955 7  90787859.14045  22171333.678    22171325.0404
        46.300          33.5004
 131571257.147 6 102523054.50942  25037180.400    25037176.0414
        36.100          17.4004
 111120760.952 8  86587572.21846  21145579.043    21145570.7574
        48.900          38.1004
 115690695.510 7  90148576.91246  22015205.857    22015200.9124
        45.700          36.6004
 112261810.357 8  87476713.68546  21362714.394    21362710.5634
        48.800          38.2004
 124820285.126 7  97262521.47844  23752512.618    23752504.7424
        42.500          24.7004
 133047485.144 5                  25318092.819
        32.900
 15  9 17  0 22  0.0000000  0 11G14G04G22G29G18G08G16G27G26G21G31
 120178831.071 7  93645827.47944  22869267.963    22869262.7844
        44.500          26.9004
 130472294.143 6 101666743.36843  24828050.236    24828052.7934
        36.200          19.0004
 106666858.114 8  83116988.82647  20298028.456    20298017.5334
        50.300          42.7004
 129205499.873 6 100679595.40043  24586993.627    24586992.4924
        38.000          21.5004
 116586063.739 7  90846245.16445  22185592.127    22185583.4904
        46.600          32.7004
 131479882.795 5 102451853.70442  25019791.459    25019788.2724
        35.300          17.4004
 111135126.024 8  86598765.72946  21148313.064    21148304.7794
        49.300          38.2004
 115616476.927 7  90090744.29346  22001082.477    22001077.7664
        45.900          36.2004
 112326868.178 8  87527408.00346  21375094.484    21375091.0044
        48.800          37.7004
 124854013.001 6  97288802.82644  23758931.367    23758922.9644
        41.700          25.2004
 133072205.688 5                  25322795.672
        33.600
 15  9 17  0 22 30.0000000  0 11G14G04G22G29G18G08G16G27G26G21G31
 120114736.732 7  93595883.88944  22857071.557    22857066.0264
        43.500          27.3004
 130416768.434 6 101623476.84242  24817484.168    24817485.7874
        36.900          17.8004
 106684740.153 8  83130922.88047  20301431.368    20301420.9144
        51.000          43.2004
 129280271.402 6 100737858.79843  24601222.576    24601221.7924
        37.900          22.0004
 116661184.759 7  90904780.97145  22199887.683    22199878.3424
        47.300          32.7004
 131388400.287 6 102380568.67443  25002385.548    25002381.3654
        38.000          18.3004
 111150037.057 8  86610384.67946  21151150.248    21151142.6664
        50.000          38.5004
 115542376.233 7  90033003.53546  21986982.149    21986976.6174
        46.200          37.0004
 112392305.445 7  87578398.00646  21387546.642    21387543.0454
        47.600          37.6004
 124887671.012 6  97315029.76744  23765336.402    23765328.1754
        41.900          24.9004
                                  25327438.427
        26.800
 15  9 17  0 23  0.0000000  0 10G14G04G22G29G18G08G16G27G26G21
 120050776.278 7  93546044.65644  22844899.122    22844894.6464
        43.400          27.2004
 130361307.412 6 101580260.74842  24806930.451    24806931.0744
        37.400          16.9004
 106703069.044 8  83145205.12147  20304919.161    20304908.4724
        50.500          43.0004
 129355277.882 6 100796305.25143  24615495.743    24615494.6074
        38.600          22.8004
 116736496.129 7  90963465.11545  22214218.098    22214209.7544
        46.500          32.7004
 131296811.578 6 102309200.84743  24984955.279    24984951.5064
        37.500          19.0004
 111165494.197 8  86622429.16846  21154091.963    21154083.9124
        48.400          38.8004
 115468396.474 7  89975357.00946  21972903.619    21972899.2024
        46.000          37.5004
 112458120.366 8  87629682.28246  21400071.146    21400067.3734
        48.900          38.0004
 124921260.386 7  97341203.20544  23771728.093    23771720.1004
        42.800          25.6004
 15  9 17  0 23 30.0000000  0 10G14G04G22G29G18G08G16G27G26G21
 119986952.149 7  93496311.61544  22832754.077    22832748.9564
        44.100          27.1004
 130305909.774 6 101537094.01043  24796386.469    24796389.5534
        36.300          18.3004
 106721842.782 8  83159833.99947  20308491.807    20308481.1764
        52.100          43.0004
 129430518.463 6 100854934.11543  24629814.220    24629813.1434
        38.200          21.1004
 116811995.280 7  91022295.58445  22228585.292    22228576.7714
        46.300          32.0004
 131205117.684 6 102237751.02843  24967506.883    24967502.5254
        37.400          18.3004
 111181495.906 8  86634897.99246  21157136.929    21157128.6434
        49.600          38.5004
 115394539.361 7  89917806.05446  21958849.071    21958844.1264
        46.700          38.0004
 112524309.572 8  87681258.21546  21412666.935    21412663.1044
        49.500          37.6004
 124954781.328 7  97367323.32144  23778106.540    23778098.8414
        43.600          24.6004
 15  9 17  0 24  0.0000000  0 10G14G04G22G29G18G08G16G27G26G21
 119923267.165 7  93446687.01844  22820635.106    22820630.4544
        44.100          27.3004
 130250574.750 6 101493976.05243  24785859.729    24785859.9424
        40.200          19.0004
 106741059.886 8  83174808.36347  20312148.650    20312137.9034
        51.400          43.1004
 129505992.549 6 100913744.93043  24644176.457    24644174.9704
        39.400          22.6004
 116887680.049 7  91081270.70045  22242987.652    22242978.8974
        45.800          32.3004
 131113319.760 6 102166220.25642  24950038.443    24950034.2014
        36.800          16.9004
 111198041.340 8  86647790.49646  21160285.464    21160277.4714
        48.300          39.4004
 115320807.183 7  89860352.44946  21944818.369    21944813.3654
        45.700          37.8004
 112590870.312 8  87733123.62746  21425332.822    21425329.2834
        48.700          37.6004
 124988234.423 7  97393390.57244  23784473.582    23784465.1794
        43.000          25.3004
 15  9 17  0 24 30.0000000  0 10G14G04G22G29G18G08G16G27G26G21
 119859723.791 7  93397172.76644  22808543.610    22808538.4314
        44.000          26.7004
 130195301.093 6 101450905.94043  24775339.337    24775341.3084
        38.000          19.0004
 106760718.244 8  83190126.56047  20315889.107    20315878.1254
        50.900          42.4004
 129581698.560 6 100972736.48143  24658582.872    24658582.6164
        38.900          21.7004
 116963548.056 7  91140388.58345  22257424.895    22257416.6094
        46.000          32.4004
 131021418.997 6 102094609.18942  24932549.191    24932545.4184
        37.000          17.8004
 111215128.714 8  86661105.28746  21163536.977    21163528.9844
        48.900          38.8004
 115247201.801 7  89802997.64746  21930811.970    21930806.2044
        46.300          37.7004
 112657799.372 8  87785276.06246  21438068.977    21438065.5564
        48.600          37.4004
 125021619.515 7  97419404.85044  23790826.029    23790818.8574
        43.200          25.9004
 15  9 17  0 25  0.0000000  0 10G14G04G22G29G18G08G16G27G26G21
 119796325.404 7  93347771.48744  22796478.958    22796473.6034
        44.400          27.2004
 130140088.960 6 101407883.72243  24764833.222    24764834.1384
        39.100          18.6004
 106780817.275 8  83205788.13047  20319713.825    20319703.3124
        49.300          42.3004
 129657636.571 6 101031908.79743  24673033.177    24673032.8034
        38.300          21.5004
 117039597.000 7  91199647.43745  22271896.086    22271888.3864
        45.100          32.4004
 130929417.438 6 102022919.76343  24915044.224    24915038.5754
        39.900          19.0004
 111232757.207 8  86674841.73946  21166891.680    21166883.1594
        48.500          39.2004
 115173726.106 7  89745743.90246  21916830.179    21916824.5314
        46.400          37.6004
 112725094.560 8  87837713.78246  21450875.098    21450871.4424
        48.700          37.2004
 125054937.659 7  97445366.93144  23797166.010    23797159.2484
        42.900          25.4004
 15  9 17  0 25 30.0000000  0 10G14G04G22G29G18G08G16G27G26G21
 119733074.940 7  93298485.48344  22784443.326    22784438.3814
        44.500          27.9004
 130084937.652 6 101364908.91743  24754338.299    24754339.0394
        40.600          19.3004
 106801355.373 8  83221791.84647  20323622.006    20323611.4344
        51.000          42.0004
 129733805.644 6 101091261.16143  24687528.825    24687527.6894
        40.800          22.5004
 117115824.917 7  91259045.77845  22286401.951    22286394.2514
        45.600          32.1004
 130837316.423 6 101951152.72343  24897518.049    24897511.7564
        40.100          18.3004
 111250926.301 8  86688999.43546  21170349.192    21170340.8484
        48.700          38.4004
 115100382.350 7  89688592.96546  21902873.340    21902867.3404
        46.700          37.2004
 112792753.095 8  87890434.63246  21463750.177    21463746.4634
        48.600          37.6004
 125088189.972 7  97471277.71244  23803493.882    23803487.0624
        42.800          24.7004
 15  9 17  0 26  0.0000000  0 11G14G04G22G29G18G08G16G27G26G21G31
 119669973.853 7  93249315.86944  22772435.328    22772429.9724
        44.200          27.5004
 130029844.635 6 101321979.52243  24743854.818    24743855.5594
        40.000          19.3004
 106822329.436 8  83238135.26046  20327613.499    20327602.6934
        51.100          41.9004
 129810203.668 6 101150791.92843  24702067.347    24702065.8024
        40.600          23.8004
 117192227.590 7  91318580.28045  22300940.940    22300933.2404
        46.300          31.5004
 130745115.630 6 101879307.94642  24879969.976    24879967.7854
        36.000          16.3004
 111269632.559 8  86703575.69646  21173908.587    21173900.7114
        49.800          38.8004
 115027171.220 7  89631545.37146  21888941.574    21888936.1024
        46.400          37.8004
 112860770.458 8  87943435.07546  21476693.270    21476689.6144
        48.800          37.1004
 125121375.205 7  97497136.23544  23809809.086    23809802.2074
        42.500          26.0004
 133257931.168 5                  25358137.661
        31.200
 15  9 17  0 26 30.0000000  0 10G14G04G22G29G18G08G16G27G26G21
 119607029.306 7  93200268.23144  22760457.131    22760452.0104
        44.000          26.4004
 129974813.999 6 101279098.75942  24733383.250    24733383.4044
        39.900          17.4004
 106843742.971 8  83254821.14547  20331688.369    20331677.0364
        49.300          42.0004
 129886834.916 6 101210504.38943  24716649.000    24716649.0954
        39.600          22.6004
 117268807.682 7  91378253.03845  22315514.114    22315505.9464
        47.300          32.4004
 130652821.320 6 101807390.35542  24862409.006    24862404.4714
        39.900          17.8004
 111288879.610 8  86718573.35746  21177571.782    21177563.6134
        48.800          38.9004
 114954099.709 7  89574606.56546  21875036.680    21875030.9734
        47.300          37.8004
 112929148.608 8  87996716.66946  21489704.980    21489701.2074
        49.300          37.2004
 125154498.230 7  97522946.29343  23816112.425    23816105.3124
        42.100          23.5004
 15  9 17  0 27  0.0000000  0 10G14G04G22G29G18G08G16G27G26G21
 119544239.977 7  93151341.55844  22748508.355    22748503.1764
        43.700          26.7004
 129919841.023 6 101236262.89443  24722919.748    24722922.5984
        38.700          19.3004
 106865589.431 8  83271844.35347  20335845.407    20335835.0114
        49.100          42.2004
 129963693.999 6 101270394.38843  24731274.996    24731274.3884
        39.400          22.8004
 117345559.242 7  91438059.40945  22330119.726    22330110.8544
        47.000          32.4004
 130560430.670 6 101735397.63243  24844826.762    24844823.9864
        39.200          19.3004
 111308662.299 8  86733988.39146  21181335.949    21181328.0154
        48.200          38.8004
 114881165.913 7  89517775.07546  21861157.558    21861152.0854
        47.100          37.1004
 112997880.507 8  88050273.90546  21502784.600    21502781.0034
        49.800          37.6004
 125187555.865 6  97548705.38643  23822402.551    23822395.3204
        41.800          22.3004
 15  9 17  0 27 30.0000000  0 10G14G04G22G29G18G08G16G27G26G21
 119481610.141 7  93102539.16344  22736590.451    22736585.3894
        44.300          26.9004
 129864925.818 6 101193472.05943  24712470.758    24712471.3224
        40.100          19.3004
 106887868.692 8  83289204.81646  20340085.001    20340074.2544
        50.900          41.8004
 130040781.344 6 101330462.25643  24745943.941    24745943.4504
        38.100          21.5004
 117422480.667 7  91497998.13745  22344757.163    22344748.9364
        47.200          32.6004
 130467945.835 6 101663331.59143  24827226.367    24827223.8254
        37.200          18.3004
 111328980.247 8  86749820.52046  21185202.369    21185194.3184
        50.900          38.9004
 114808373.207 8  89461053.52546  21847305.897    21847300.1904
        48.700          37.2004
 113066964.312 8  88104105.37046  21515930.902    21515927.0124
        49.600          36.6004
 125220549.857 7  97574414.87643  23828681.684    23828674.5124
        43.000          22.8004
 15  9 17  0 28  0.0000000  0 11G14G04G22G29G18G08G16G27G26G21G31
 119419140.391 7  93053861.50844  22724702.744    22724697.6234
        43.200          26.7004
 129810065.488 6 101150723.95643  24702031.858    24702032.1294
        39.700          19.3004
 106910577.112 8  83306899.68547  20344406.362    20344395.7324
        51.000          42.4004
 130118093.911 6 101390705.62443  24760656.992    24760656.1504
        37.300          20.9004
 117499567.420 7  91558065.69445  22359426.076    22359418.3764
        45.800          32.2004
 130375366.649 6 101591191.97843  24809608.860    24809606.4354
        38.600          18.6004
 111349830.094 8  86766067.11446  21189170.100    21189162.3424
        50.900          39.3004
 114735721.724 8  89404442.01146  21833480.225    21833474.9284
        48.300          37.6004
 113136395.034 8  88158207.14546  21529142.882    21529139.3434
        49.300          36.8004
 125253478.486 7  97600073.45043  23834947.365    23834939.9594
        42.600          22.8004
 133342687.506 5                  25374266.673
        32.300
 15  9 17  0 28 30.0000000  0 11G14G04G22G29G18G08G16G27G26G21G31
 119356838.493 7  93005314.64744  22712846.463    22712841.7524
        43.500          27.5004
 129755264.700 6 101108022.27843  24691602.522    24691604.3764
        38.500          19.9004
 106933718.434 8  83324931.88347  20348809.812    20348799.8854
        51.300          42.2004
 130195636.227 6 101451127.99143  24775412.892    24775411.0544
        38.900          21.1004
 117576822.781 7  91618264.62445  22374127.221    22374119.3464
        45.300          32.0004
 130282699.725 6 101518984.07243  24791976.126    24791972.2954
        38.300          18.3004
 111371215.642 8  86782731.13246  21193239.741    21193232.0414
        50.400          38.8004
 114663219.033 7  89347946.44846  21819683.235    21819678.1144
        47.800          37.6004
 113206175.083 8  88212581.12246  21542422.121    21542418.1734
        48.700          36.9004
 125286347.613 7  97625685.65643  23841202.279    23841194.5204
        42.600          22.9004
                                  25378136.924
        28.300
 15  9 17  0 29  0.0000000  0 11G14G04G22G29G18G08G16G27G26G21G31
 119294702.451 7  92956897.04644  22701023.292    22701017.9954
        43.900          28.2004
 129700517.224 6 101065362.14543  24681182.847    24681185.5224
        38.600          18.6004
 106957285.388 8  83343295.73747  20353294.417    20353284.1384
        51.500          42.1004
 130273401.926 6 101511724.44643  24790211.339    24790210.8494
        38.100          21.1004
 117654239.058 7  91678588.95045  22388859.100    22388851.5764
        46.600          32.3004
 130189940.924 6 101446704.51543  24774325.014    24774320.1274
        38.300          18.3004
 111393129.996 8  86799807.19746  21197410.186    21197401.9004
        50.900          38.6004
 114590861.984 8  89291564.37446  21805914.466    21805908.8764
        48.200          37.7004
 113276296.045 8  88267220.74346  21555765.534    21555762.4064
        49.500          36.7004
 125319152.448 7  97651247.77144  23847445.813    23847437.9384
        43.900          24.9004
 133383013.602 5                  25381941.786
        32.800
 15  9 17  0 29 30.0000000  0 11G14G04G22G29G18G08G16G27G26G21G31
 119232739.348 7  92908614.17444  22689232.023    22689226.0824
        43.100          29.7004
 129645826.937 6 101022746.53443  24670775.574    24670776.7834
        37.700          18.6004
 106981281.246 8  83361993.80447  20357861.128    20357850.4404
        48.400          42.2004
 130351394.959 6 101572498.00943  24805052.469    24805052.7414
        37.600          19.6004
 117731818.407 7  91739040.34145  22403622.519    22403614.6444
        46.700          31.8004
 130097096.489 6 101374358.31043  24756656.845    24756653.0144
        36.900          18.6004
 111415576.546 8  86817297.96346  21201680.960    21201673.0854
        48.200          38.8004
 114518657.605 7  89235301.25246  21792174.411    21792168.8214
        47.900          37.3004
 113346759.793 8  88322127.47546  21569174.034    21569171.1404
        48.600          36.8004
 125351898.224 7  97676763.85144  23853676.549    23853669.3184
        43.600          24.1004
                                  25385677.607
        26.800
 15  9 17  0 30  0.0000000  0 10G14G04G22G29G18G08G16G27G26G21
 119170948.001 7  92860465.15844  22677473.131    22677467.8344
        43.100          27.6004
 129591189.023 6 100980171.75243  24660380.541    24660379.8744
        40.800          20.4004
 107005699.811 8  83381021.24646  20362507.712    20362497.3754
        50.200          41.9004
 130429610.734 6 101633445.11943  24819936.501    24819936.8904
        36.700          18.3004
 117809554.667 7  91799614.01045  22418415.108    22418406.9984
        47.400          31.4004
 130004163.596 6 101301943.09443  24738973.343    24738969.0424
        39.600          20.1004
 111438549.755 8  86835199.12646  21206053.030    21206044.9204
        50.700          39.1004
 114446603.969 8  89179155.60446  21778463.160    21778457.4534
        48.700          37.1004
 113417559.085 8  88377295.67146  21582646.905    21582644.3044
        48.700          37.5004
 125384581.455 7  97702231.20244  23859896.524    23859888.7664
        43.600          25.0004
 15  9 17  0 30 30.0000000  0 10G14G04G22G29G18G08G16G27G26G21
 119109333.864 7  92812454.20844  22665748.828    22665742.5944
        43.400          27.7004
 129536605.305 6 100937639.20843  24649992.116    24649993.0914
        40.600          19.0004
 107030542.211 8  83400378.94847  20367235.206    20367224.5184
        48.900          42.2004
 130508050.096 6 101694566.48643  24834863.879    24834863.3304
        37.400          19.3004
 117887447.842 7  91860309.94445  22433237.657    22433229.4304
        47.700          31.9004
 129911146.407 6 101229462.20343  24721271.063    24721268.4044
        37.200          18.6004
 111462051.041 8  86853511.77646  21210524.666    21210517.6704
        48.300          38.5004
 114374705.946 8  89123131.21246  21764781.286    21764775.2864
        48.000          37.0004
 113488693.657 8  88432725.11346  21596183.750    21596180.5054
        48.700          37.0004
 125417205.359 6  97727652.34143  23866103.590    23866096.8284
        41.100          23.6004
 15  9 17  0 31  0.0000000  0 10G14G04G22G29G18G08G16G27G26G21
 119047899.403 7  92764583.28744  22654058.076    22654052.3104
        43.400          27.2004
 129482074.568 6 100895148.01443  24639613.960    24639615.3454
        37.400          20.1004
 107055806.375 8  83420065.29946  20372042.799    20372032.1104
        50.700          41.9004
 130586711.922 6 101755861.18743  24849831.723    24849830.9394
        37.900          18.3004
 117965495.660 7  91921126.38045  22448089.964    22448081.4444
        47.300          31.2004
 129818045.945 6 101156916.48642  24703554.837    24703552.2954
        37.500          17.4004
 111486078.142 8  86872234.14246  21215097.360    21215089.5434
        50.900          39.0004
 114302965.717 8  89067229.77346  21751129.567    21751123.5674
        48.200          37.7004
 113560160.326 8  88488413.33446  21609783.418    21609780.3484
        49.100          37.1004
 125449770.759 6  97753027.87943  23872301.302    23872293.6614
        41.300          22.3004
 15  9 17  0 31 30.0000000  0 10G14G04G22G29G18G08G16G27G26G21
 118986647.120 7  92716854.29144  22642401.579    22642396.3414
        43.200          27.7004
 129427596.056 6 100852697.47643  24629247.645    24629249.3824
        39.800          20.9004
 107081490.325 8  83440078.75547  20376930.401    20376919.1264
        50.800          42.0004
 130665595.195 6 101817328.44643  24864843.990    24864843.3244
        37.300          19.3004
 118043695.450 7  91982061.23445  22462970.706    22462962.3614
        47.100          31.1004
 129724863.654 6 101084307.01643  24685824.159    24685819.5664
        38.900          20.1004
 111510629.798 8  86891365.24846  21219769.363    21219761.5464
        51.000          39.0004
 114231385.126 7  89011452.72646  21737508.016    21737502.2504
        47.300          37.1004
 113631955.778 8  88544357.74946  21623446.045    21623441.9794
        49.700          37.3004
 125482277.319 7  97778357.59243  23878487.664    23878479.8474
        42.300          22.5004
 15  9 17  0 32  0.0000000  0 10G14G04G22G29G18G08G16G27G26G21
 118925579.523 7  92669269.23644  22630780.650    22630776.0564
        42.400          27.5004
 129373168.539 6 100810286.63343  24618891.321    24618891.1824
        40.200          19.9004
 107107592.336 8  83460417.96747  20381897.563    20381886.6984
        50.800          42.1004
 130744699.134 6 101878967.60743  24879897.491    24879897.3524
        37.900          19.6004
 118122044.672 7  92043112.53645  22477880.259    22477871.9154
        47.200          32.1004
 129631600.804 6 101011634.72943  24668075.068    24668072.3514
        36.500          18.6004
 111535703.788 8  86910903.37646  21224540.794    21224532.7434
        51.300          38.5004
 114159966.386 8  88955801.79746  21723917.378    21723911.6134
        48.400          37.4004
 113704076.849 8  88600555.88546  21637169.657    21637166.4704
        49.500          36.7004
 125514725.722 6  97803641.95743  23884661.714    23884654.9534
        41.300          22.9004
 15  9 17  0 32 30.0000000  0 10G14G04G22G29G18G08G16G27G26G21
 118864699.867 7  92621830.62344  22619195.819    22619191.1674
        42.600          28.5004
 129318791.756 6 100767915.35443  24608541.710    24608542.4504
        39.200          19.3004
 107134110.755 8  83481081.65647  20386943.598    20386932.9684
        50.400          42.2004
 130824023.112 6 101940778.22543  24894992.505    24894991.6044
        38.100          19.6004
 118200541.675 7  92104278.96445  22492817.694    22492809.7014
        47.600          32.3004
 129538258.947 6 100938900.91743  24650313.006    24650309.6444
        36.900          19.6004
 111561299.041 8  86930847.68046  21229411.386    21229403.5104
        50.000          38.3004
 114088712.051 7  88900278.97346  21710358.211    21710352.2694
        47.900          37.7004
 113776520.817 8  88657005.63946  21650955.821    21650952.2244
        49.500          36.8004
 125547116.731 6  97828881.60543  23890825.450    23890819.5684
        40.800          21.8004
 15  9 17  0 33  0.0000000  0 10G14G04G22G29G18G08G16G27G26G21
 118804011.620 7  92574541.15644  22607646.611    22607641.9014
        42.100          28.4004
 129264465.313 6 100725583.23643  24598202.803    24598204.5984
        38.900          18.3004
 107161044.641 8  83502069.08647  20392069.041    20392058.4694
        51.600          42.7004
 130903566.424 6 102002759.76143  24910129.459    24910128.6754
        38.700          19.0004
 118279184.658 7  92165559.15845  22507783.689    22507774.9934
        47.900          33.1004
 129444840.332 6 100866107.27443  24632535.723    24632531.8924
        37.200          19.0004
 111587415.139 8  86951197.84246  21234381.289    21234373.6484
        50.400          39.1004
 114017625.157 8  88844886.61246  21696830.773    21696825.0084
        48.300          38.3004
 113849285.471 8  88713705.27246  21664802.804    21664799.2664
        48.300          36.6004
 125579451.837 6  97854077.67743  23896977.586    23896971.8794
        40.000          21.7004
 15  9 17  0 33 30.0000000  0 10G14G04G22G29G18G08G16G27G26G21
 118743516.960 7  92527402.54844  22596135.379    22596130.1404
        42.600          29.1004
 129210188.090 6 100683289.52143  24587876.512    24587876.3144
        40.600          19.3004
 107188391.418 8  83523378.25247  20397272.633    20397262.3544
        50.900          42.4004
 130983327.808 6 102064911.21343  24925307.017    24925307.6404
        37.900          18.3004
 118357970.747 7  92226950.86545  22522775.637    22522767.5854
        47.600          32.1004
 129351345.989 6 100793254.63243  24614743.875    24614740.0434
        37.100          19.3004
 111614049.464 8  86971951.81746  21239449.855    21239441.2764
        50.100          38.6004
 113946707.482 7  88789626.13046  21683335.278    21683330.2754
        47.500          38.2004
 113922367.192 8  88770651.96845  21678709.513    21678706.1504
        49.200          35.8004
 125611731.208 6  97879230.33243  23903121.572    23903114.1664
        41.200          22.0004
 15  9 17  0 34  0.0000000  0 10G14G04G22G29G18G08G16G27G26G21
 118683219.242 7  92480417.38344  22584660.679    22584656.0864
        42.400          28.5004
 129155959.577 6 100641033.72243  24577557.555    24577556.9474
        39.500          18.3004
 107216149.781 8  83545008.12846  20402554.994    20402544.7164
        50.200          41.9004
 131063306.940 6 102127232.34943  24940526.651    24940527.9774
        36.900          19.6004
 118436898.017 7  92288452.58145  22537795.063    22537786.8364
        47.200          32.8004
 129257777.812 6 100720344.47743  24596938.919    24596934.7364
        37.900          18.3004
 111641200.476 8  86993108.39646  21244616.378    21244608.3274
        50.100          38.2004
 113875961.610 8  88734499.51246  21669873.034    21669867.3274
        48.200          38.2004
 113995763.296 8  88827843.64546  21692676.435    21692672.9564
        48.800          36.2004
 125643955.592 6  97904340.12943  23909253.342    23909246.9324
        40.300          21.7004
 15  9 17  0 34 30.0000000  0 10G14G04G22G29G18G08G16G27G26G21
 118623120.675 7  92433587.42944  22573224.081    22573219.4294
        42.100          28.3004
 129101778.897 6 100598815.15943  24567245.727    24567246.5264
        39.000          18.3004
 107244317.642 8  83566957.09846  20407915.443    20407904.8714
        51.100          41.8004
 131143502.108 6 102189721.85243  24955786.933    24955788.1424
        37.300          19.3004
 118515964.126 7  92350062.48545  22552840.371    22552832.1434
        47.000          32.6004
 129164137.190 6 100647377.82043  24579119.099    24579115.8544
        38.300          19.3004
 111668866.333 8  87014666.16446  21249880.829    21249873.3054
        48.700          38.2004
 113805389.771 8  88679508.49746  21656443.457    21656437.9844
        48.400          38.0004
 114069470.571 8  88885277.78346  21706702.470    21706699.2834
        49.100          36.3004
 125676125.722 6  97929407.63543  23915374.655    23915368.8314
        39.900          20.9004
 15  9 17  0 35  0.0000000  0 10G14G04G22G29G18G08G16G27G26G21
 118563224.235 7  92386914.96144  22561826.675    22561820.7924
        42.300          27.7004
 129047645.076 6 100556633.19143  24556946.266    24556944.5454
        40.900          18.6004
 107272893.218 8  83589223.75747  20413353.256    20413342.6844
        48.900          42.1004
 131223912.048 5 102252378.71342  24971089.248    24971089.8124
        35.200          17.8004
 118595166.483 7  92411778.55145  22567912.050    22567904.7024
        47.300          32.3004
 129070425.359 6 100574355.66843  24561285.974    24561282.2604
        38.800          19.3004
 111697045.410 8  87036623.83446  21255243.144    21255235.4454
        48.700          38.4004
 113734994.169 8  88624654.81546  21643047.832    21643042.1254
        48.100          38.2004
 114143485.897 8  88942951.96146  21720787.702    21720784.0474
        48.800          36.4004
 125708241.804 6  97954433.06143  23921486.626    23921479.6894
        40.600          22.2004
 15  9 17  0 35 30.0000000  0 11G14G04G22G29G18G08G16G27G26G21G31
 118503532.172 7  92340401.72444  22550467.787    22550462.0814
        42.300          28.5004
 128993556.988 6 100514486.77842  24546652.208    24546651.3654
        38.400          16.9004
 107301874.074 8  83611806.22747  20418867.858    20418857.0524
        50.100          42.2004
 131304535.900 6 102315202.15242  24986431.331    24986431.8364
        36.200          17.4004
 118674502.788 7  92473598.98945  22583009.641    22583001.5894
        46.400          31.9004
 128976643.527 6 100501278.97543  24543441.011    24543437.0044
        40.700          21.1004
 111725736.104 8  87058980.16746  21260702.973    21260695.3904
        49.100          37.7004
 113664776.717 8  88569939.95446  21629685.877    21629680.4054
        48.500          37.7004
 114217805.843 8  89000863.51146  21734930.190    21734926.5944
        48.800          37.1004
 125740304.326 6  97979416.73443  23927589.194    23927582.1394
        41.100          22.0004
 133611627.985 5                  25425422.830
        30.300
 15  9 17  0 36  0.0000000  0 11G14G04G22G29G18G08G16G27G26G21G31
 118444049.760 7  92294051.87744  22539148.733    22539143.4954
        42.500          28.8004
 128939515.950 6 100472377.08442  24536368.552    24536366.5964
        38.900          16.9004
 107331260.731 8  83634704.89647  20424460.238    20424449.6674
        50.200          42.2004
 131385374.722 6 102378193.12942  25001815.610    25001815.2374
        37.500          17.4004
 118753972.849 7  92535523.64945  22598132.005    22598123.8954
        47.200          31.5004
 128882795.613 6 100428150.78943  24525581.758    24525578.6304
        39.500          21.1004
 111754938.576 8  87081735.28846  21266259.886    21266252.2444
        49.600          37.7004
 113594741.990 8  88515367.47546  21616358.485    21616353.0714
        48.900          38.3004
 114292429.630 8  89059011.81746  21749129.993    21749127.8034
        48.300          36.7004
 125772316.359 6  98004361.10643  23933680.684    23933673.3954
        39.900          22.9004
                                  25428303.631
        30.100
 15  9 17  0 36 30.0000000  0 11G14G04G22G29G18G08G16G27G26G21G31
 118384777.620 7  92247865.88344  22527869.126    22527863.9474
        42.100          29.0004
 128885519.773 6 100430302.32143  24526093.408    24526092.3324
        38.100          18.3004
 107361049.609 8  83657916.99546  20430128.968    20430117.6934
        48.800          41.9004
 131466425.457 5 102441349.25343  25017238.084    25017238.7074
        33.400          18.3004
 118833572.561 7  92597549.33245  22613279.563    22613271.3364
        46.200          31.8004
 128788881.138 6 100354970.74343  24507710.300    24507707.5824
        39.700          21.5004
 111784649.214 8  87104886.38146  21271913.655    21271905.6634
        49.000          38.2004
 113524890.456 8  88460937.73946  21603066.236    21603060.8224
        48.200          38.0004
 114367352.336 8  89117393.04246  21763388.013    21763385.1784
        48.100          36.4004
 125804276.567 6  98029265.03643  23939762.536    23939755.8924
        40.700          22.8004
                                  25431117.865
        27.600
 15  9 17  0 37  0.0000000  0 10G14G04G22G29G18G08G16G27G26G21
 118325719.129 7  92201846.34344  22516630.746    22516625.1564
        42.500          28.4004
 128831567.683 6 100388261.90043  24515826.855    24515826.4824
        39.400          19.0004
 107391239.290 8  83681441.40847  20435874.028    20435863.3984
        49.800          42.3004
 131547687.693 5 102504670.10042  25032702.224    25032702.9644
        34.800          17.8004
 118913300.056 7  92659674.59845  22628451.515    22628442.9954
        45.500          30.4004
 128694902.634 6 100281740.75043  24489828.194    24489823.7764
        40.800          19.6004
 111814866.799 8  87128432.50346  21277663.991    21277656.0574
        49.200          38.3004
 113455225.037 7  88406653.03146  21589809.323    21589804.0264
        47.400          37.5004
 114442571.430 8  89176005.21246  21777701.523    21777698.5714
        48.000          36.8004
 125836186.073 6  98054129.49944  23945834.561    23945827.8584
        40.000          24.2004
 15  9 17  0 37 30.0000000  0 10G14G04G22G29G18G08G16G27G26G21
 118266877.094 7  92155995.46644  22505432.750    22505427.1604
        42.600          28.4004
 128777658.960 6 100346255.29143  24505565.923    24505567.9534
        38.700          18.3004
 107421827.817 8  83705276.61346  20441694.421    20441683.9084
        49.800          41.9004
 131629160.405 5 102568155.04443  25048206.563    25048206.7174
        35.400          18.3004
 118993153.458 7  92721897.95845  22643647.265    22643638.5694
        46.600          30.2004
 128600861.455 7 100208461.93743  24471932.825    24471928.4664
        42.100          20.9004
 111845589.484 8  87152372.20946  21283510.771    21283502.9544
        48.500          38.4004
 113385748.117 8  88352515.20646  21576588.484    21576582.9534
        48.000          38.2004
 114518083.881 7  89234845.97445  21792071.176    21792068.1064
        47.800          35.3004
 125868046.159 6  98078955.43243  23951896.994    23951890.4664
        39.500          22.9004
 15  9 17  0 38  0.0000000  0 11G14G04G22G29G18G08G16G27G26G21G31
 118208254.071 7  92110315.26944  22494277.214    22494271.9764
        42.500          28.9004
 128723792.902 6 100304281.88943  24495316.055    24495316.9134
        37.800          19.0004
 107452813.160 8  83729421.02347  20447590.909    20447580.2204
        48.900          42.3004
 131710842.297 5 102631802.85442  25063750.554    25063750.9434
        32.900          16.3004
 119073130.204 7  92784217.44245  22658866.056    22658858.1224
        45.900          31.1004
 128506758.937 6 100135135.33543  24454025.073    24454023.1764
        40.900          22.6004
 111876815.191 8  87176703.88146  21289452.563    21289445.0394
        48.300          38.6004
 113316461.810 8  88298525.89646  21563403.508    21563397.7424
        48.700          37.9004
 114593886.493 8  89293912.83446  21806496.134    21806493.1244
        48.300          36.1004
 125899856.655 6  98103742.71243  23957950.814    23957943.9944
        40.000          22.8004
 133683692.919 5                  25439160.160
        34.100
 15  9 17  0 38 30.0000000  0 11G14G04G22G29G18G08G16G27G26G21G31
 118149853.527 7  92064808.42244  22483164.433    22483159.4884
        43.700          29.1004
 128669969.148 6 100262341.48343  24485073.131    24485074.5744
        37.100          18.6004
 107484194.060 8  83753873.65946  20453562.395    20453551.9404
        49.500          41.7004
 131792732.985 5 102695613.60642  25079334.342    25079334.9654
        33.000          15.6004
 119153228.664 7  92846631.77345  22674108.357    22674100.1884
        45.500          31.4004
 128412597.512 6 100061762.81143  24436106.001    24436104.6314
        41.600          22.5004
 111908542.954 8  87201426.75646  21295490.419    21295482.3094
        48.500          38.5004
 113247369.150 8  88244687.49146  21550255.591    21550250.0604
        48.300          38.6004
 114669976.779 8  89353203.86446  21820975.635    21820972.6824
        48.000          36.2004
 125931619.139 6  98128492.57843  23963996.259    23963988.2664
        39.500          22.5004
 133697075.828 5                  25441707.261
        35.700
 15  9 17  0 39  0.0000000  0 11G14G04G22G29G18G08G16G27G26G21G31
 118091678.529 7  92019477.33045  22472094.568    22472088.5684
        43.400          30.2004
 128616187.194 6 100220433.68042  24474840.976    24474840.6614
        39.200          17.8004
 107515968.598 8  83778633.02646  20459608.733    20459598.4544
        49.100          41.4004
 131874831.772 5 102759586.16642  25094957.814    25094957.9094
        34.100          14.8004
 119233446.689 7  92909139.25045  22689373.703    22689365.8864
        45.900          31.0004
 128318378.717 6  99988345.60543  24418177.403    24418174.3934
        41.600          22.5004
 111940770.988 8  87226539.46246  21301623.166    21301615.5834
        48.700          38.2004
 113178472.568 7  88191001.86846  21537144.745    21537138.9794
        47.800          38.4004
 114746351.727 8  89412716.70346  21835509.130    21835506.5884
        48.100          36.3004
 125963334.342 6  98153205.65743  23970029.698    23970023.5814
        39.000          22.8004
 133710106.042 5                  25444186.165
        33.500
 15  9 17  0 39 30.0000000  0 11G14G04G22G29G18G08G16G27G26G21G31
 118033731.091 7  91974323.52545  22461067.489    22461061.7244
        43.500          30.4004
 128562445.805 6 100178557.45042  24464612.163    24464613.0204
        37.600          17.8004
 107548134.652 8  83803697.48046  20465729.983    20465719.5284
        49.600          41.6004
 131957137.049 5 102823719.81942  25110619.485    25110619.8154
        32.300          16.3004
 119313781.919 7  92971738.07745  22704660.459    22704652.7594
        44.900          30.3004
 128224104.048 6  99914884.84043  24400238.099    24400234.6194
        41.900          22.3004
 111973496.971 8  87252040.17446  21307850.339    21307843.2254
        48.400          38.4004
 113109774.080 7  88137470.60446  21524071.625    21524066.2114
        47.600          38.5004
 114823007.930 7  89472448.69746  21850096.738    21850093.9624
        47.800          36.3004
 125995002.883 6  98177882.36843  23976056.072    23976050.6584
        39.400          22.9004
 133722782.842 5                  25446598.090
        34.600
 15  9 17  0 40  0.0000000  0 11G14G04G22G29G18G08G16G27G26G21G31
 117976014.044 7  91929349.27344  22450083.764    22450078.0574
        43.200          29.8004
 128508744.445 6 100136712.37843  24454395.940    24454393.6914
        40.400          19.6004
 107580690.262 8  83829065.47046  20471925.029    20471914.5744
        50.400          41.4004
 132039866.539 4 102888277.20442  25126320.182    25126321.6264
        29.900          13.9004
 119394231.944 7  93034426.34845  22719969.472    22719962.2414
        45.000          31.4004
 128129775.234 7  99841381.90243  24382287.367    24382283.7704
        42.100          22.6004
 112006719.147 8  87277927.53146  21314172.332    21314164.8664
        49.300          38.3004
 113041276.231 8  88084095.67346  21511037.235    21511031.6454
        48.600          38.3004
 114899942.552 8  89532397.64245  21864737.078    21864734.7124
        48.100          35.9004
 126026625.665 6  98202523.40243  23982074.220    23982068.0444
        39.700          22.8004
 133735106.396 5                  25448944.546
        30.100
 15  9 17  0 40 30.0000000  0 11G14G04G22G29G18G08G16G27G26G21G31
 117918530.545 7  91884556.99944  22439145.118    22439139.5874
        43.000          28.5004
 128455082.555 6 100094898.10243  24444183.261    24444182.3014
        41.600          19.6004
 107613634.048 8  83854735.93146  20478194.220    20478183.5314
        49.300          41.3004
 132122584.620 5                  25142061.658
        30.700
 119474795.068 7  93097202.73845  22735300.481    22735292.7814
        45.300          31.0004
 128035394.141 6  99767838.20143  24364326.285    24364323.9194
        40.600          21.5004
 112040435.927 8  87304200.29146  21320588.884    21320581.3014
        49.900          38.3004
 112972981.711 7  88030879.17446  21498041.361    21498035.5954
        47.800          38.0004
 114977152.656 7  89592561.26045  21879429.352    21879427.6304
        47.500          35.4004
 126058203.495 6  98227129.38843  23988083.711    23988076.8324
        38.700          22.5004
 133747075.801 5                  25451221.259
        35.500
 15  9 17  0 41  0.0000000  0 11G14G04G22G29G18G08G16G27G26G21G31
 117861286.883 7  91839951.59844  22428251.532    22428246.4114
        43.100          29.5004
 128401462.534 6 100053116.47342  24433979.078    24433978.2364
        38.800          17.8004
 107646967.107 8  83880709.74446  20484536.746    20484526.2914
        50.700          41.3004
                                  25157841.940
        28.000
 119555472.200 7  93160067.98945  22750652.913    22750645.0374
        45.500          30.4004
 127940965.752 6  99694257.65543  24346357.225    24346353.9214
        40.300          21.3004
 112074648.972 8  87330859.76346  21327099.275    21327092.1034
        49.600          38.2004
 112904896.187 8  87977825.54346  21485084.527    21485079.3474
        48.500          37.7004
 115054638.595 7  89652939.80545  21894174.552    21894171.9524
        47.900          35.3004
 126089740.129 6  98251703.32943  23994085.127    23994078.7174
        38.700          22.8004
 133758694.458 5                  25453432.585
        34.600
 15  9 17  0 41 30.0000000  0 11G14G04G22G29G18G08G16G27G26G21G31
 117804276.323 7  91795527.83444  22417402.834    22417396.9514
        42.800          28.7004
 128347874.472 6 100011359.69242  24423780.685    24423779.0814
        37.300          17.4004
 107680678.271 8  83906978.17946  20490952.336    20490941.5304
        50.100          41.9004
 132288618.217 5                  25173657.943
        31.600
 119636252.311 7  93223013.46145  22766024.871    22766016.6444
        45.900          30.2004
 127846482.295 6  99620634.21143  24328377.575    24328374.3884
        41.400          22.6004
 112109346.791 8  87357896.97746  21333702.046    21333694.4644
        49.700          38.1004
 112837012.680 8  87924929.32846  21472166.759    21472160.9934
        48.200          38.3004
 115132387.828 7  89713523.51545  21908969.832    21908967.4664
        47.300          35.7004
 126121227.510 6  98276238.86543  24000076.319    24000070.2024
        38.600          23.2004
 133769952.544 5                  25455574.588
        34.400
 15  9 17  0 42  0.0000000  0 11G14G04G22G29G18G08G16G27G26G21G31
 117747511.061 7  91751295.23044  22406600.710    22406594.5934
        43.000          28.2004
 128294327.169 6  99969634.69343  24413591.935    24413590.6244
        37.800          18.3004
 107714775.061 8  83933547.09746  20497440.739    20497429.5224
        49.600          41.5004
 132371949.471 5                  25189515.675
        32.500
 119717142.469 7  93286044.70544  22781417.910    22781409.8004
        45.000          29.3004
 127751955.543 6  99546977.05043  24310390.865    24310387.2684
        41.600          22.6004
 112144537.243 8  87385318.04946  21340398.755    21340391.7004
        49.800          38.5004
 112769343.311 8  87872199.96446  21459289.862    21459284.3314
        48.000          37.6004
 115210407.004 7  89774317.56145  21923816.534    21923814.4034
        47.600          35.0004
 126152676.073 6  98300744.14443  24006061.056    24006054.4704
        39.900          21.1004
 133780859.716 5                  25457649.425
        32.600
 15  9 17  0 42 30.0000000  0 11G14G04G22G29G18G08G16G27G26G21G31
 117690989.989 7  91707252.89344  22395845.756    22395839.4044
        43.700          28.3004
 128240815.626 6  99927937.53243  24403408.695    24403407.9114
        38.500          19.0004
 107749251.245 8  83960411.63746  20504001.385    20503991.1074
        48.800          41.1004
 132455472.222 5                  25205410.689
        31.600
 119798135.905 7  93349156.42044  22796830.290    22796822.5324
        43.700          29.5004
 127657382.682 6  99473283.93743  24292392.997    24292390.4554
        40.200          22.9004
 112180213.544 8  87413117.71646  21347187.686    21347180.6904
        49.900          38.7004
 112701886.148 8  87819635.96046  21446453.822    21446447.7634
        48.700          38.3004
 115288688.718 7  89835316.18646  21938713.076    21938710.6524
        47.700          36.0004
 126184081.875 6  98325216.09443  24012037.266    24012030.9154
        38.700          22.2004
 133791410.882 5                  25459658.296
        32.300
 15  9 17  0 43  0.0000000  0 11G14G04G22G29G18G08G16G27G26G21G31
 117634721.860 7  91663407.65044  22385138.031    22385131.5034
        44.300          29.6004
 128187345.190 6  99886272.45143  24393233.200    24393233.4714
        36.200          19.3004
 107784111.155 8  83987575.19346  20510635.096    20510623.9384
        48.600          41.7004
                                  25221339.732
        25.900
 119879237.081 7  93412352.10244  22812263.531    22812255.2454
        45.100          29.6004
 127562771.765 6  99399561.21343  24274389.266    24274385.4944
        40.700          21.8004
 112216380.096 8  87441299.38646  21354070.412    21354062.2444
        48.600          38.6004
 112634649.811 8  87767244.03146  21433659.038    21433653.2724
        48.300          39.2004
 115367236.062 7  89896521.79545  21953660.293    21953657.9864
        47.600          35.5004
 126215452.108 6  98349660.33043  24018007.117    24018000.9414
        39.300          21.7004
 133801612.008 5                  25461598.820
        32.800
 15  9 17  0 43 30.0000000  0 10G14G04G22G18G08G16G27G26G21G31
 117578699.255 7  91619753.73544  22374476.649    22374471.5874
        43.200          29.2004
 128133905.254 6  99844631.13542  24383063.043    24383061.8504
        36.900          17.8004
 107819342.656 8  84015028.29546  20517339.225    20517328.5364
        48.500          41.0004
 119960433.817 7  93475622.22844  22827714.917    22827706.6894
        44.200          28.3004
 127468114.298 6  99325802.17343  24256376.584    24256372.5184
        41.300          22.3004
 112253025.112 8  87469853.89646  21361043.141    21361036.0274
        48.100          37.4004
 112567626.759 8  87715018.29446  21420904.608    21420898.9604
        48.600          39.2004
 115446035.961 8  89957924.19845  21968655.733    21968653.0154
        48.300          35.3004
 126246777.847 6  98374069.90643  24023967.929    24023961.6944
        38.300          22.0004
 133811452.898 5                  25463472.435
        34.200
 15  9 17  0 44  0.0000000  0 10G14G04G22G18G08G16G27G26G21G31
 117522930.346 7  91576297.48744  22363864.594    22363858.4774
        44.100          29.3004
 128080500.047 6  99803016.87842  24372900.527    24372899.2164
        36.600          17.8004
 107854949.352 8  84042773.77146  20524114.949    20524104.2604
        49.600          41.0004
 120041729.414 7  93538969.39744  22843184.703    22843177.3554
        43.800          28.7004
 127373417.608 6  99252012.59843  24238355.923    24238352.2674
        39.000          22.6004
 112290152.042 8  87498783.91146  21368108.061    21368101.2404
        50.000          38.3004
 112500824.678 8  87662964.74746  21408192.603    21408187.1304
        48.500          39.1004
 115525090.627 7  90019525.11945  21983699.388    21983696.7284
        47.700          35.3004
 126278065.108 6  98398449.51043  24029922.546    24029915.6084
        40.100          22.3004
 133820938.211 4                  25465277.080
        28.900
 15  9 17  0 44 30.0000000  0 10G14G04G22G29G18G08G16G27G26G21
 117467417.778 7  91533040.97844  22353300.592    22353294.3584
        45.200          29.8004
 128027129.321 6  99761429.53243  24362745.680    24362741.6154
        38.200          18.3004
 107890929.033 8  84070809.87646  20530961.533    20530951.6654
        50.700          41.2004
                                  25269363.391
        34.200
 120123121.297 7  93602391.59144  22858673.114    22858665.5904
        43.200          29.4004
 127278683.517 6  99178193.88443  24220328.516    24220325.8574
        38.100          22.3004
 112327758.562 8  87528087.63046  21375264.703    21375257.1214
        50.500          38.3004
 112434245.999 8  87611085.27546  21395523.408    21395517.4674
        48.900          39.3004
 115604396.996 7  90081322.16645  21998790.802    21998788.3784
        45.400          34.7004
 126309314.621 6  98422799.67043  24035868.706    24035862.4134
        41.100          22.6004
 15  9 17  0 45  0.0000000  0 10G14G04G22G29G18G08G16G27G26G21
 117412156.869 7  91489980.58545  22342785.501    22342778.6224
        43.600          30.2004
 127973784.527 6  99719862.37343  24352592.759    24352592.7964
        39.100          20.4004
 107927272.284 8  84099129.27446  20537876.986    20537866.7074
        49.900          40.9004
 132876063.077 5                  25285444.100
        31.200
 120204600.200 7  93665881.58744  22874177.917    22874170.2764
        43.900          28.7004
 127183906.037 6  99104341.34243  24202294.381    24202289.7884
        40.600          22.0004
 112365834.707 8  87557757.29646  21382510.410    21382502.5344
        50.500          37.8004
 112367885.637 8  87559375.92746  21382895.301    21382889.8884
        48.800          39.8004
 115683944.475 7  90143307.09545  22013927.989    22013925.7404
        45.700          34.6004
 126340519.800 6  98447115.29843  24041807.088    24041800.4434
        38.900          21.8004
 15  9 17  0 45 30.0000000  0 10G14G04G22G29G18G08G16G27G26G21
 117357163.592 7  91447128.73645  22332319.989    22332314.2244
        43.700          30.6004
 127920478.281 6  99678325.18643  24342448.860    24342448.6634
        39.500          20.9004
 107963990.137 8  84127740.57346  20544864.715    20544854.5544
        49.900          40.8004
 132960768.742 5                  25301562.986
        32.500
 120286177.015 7  93729447.88344  22889701.989    22889693.5864
        43.800          27.6004
 127089100.202 6  99030466.72743  24184252.585    24184249.5164
        38.700          22.5004
 112404391.894 8  87587801.79746  21389847.601    21389840.1354
        50.100          38.0004
 112301759.260 8  87507848.89646  21370312.291    21370305.6464
        49.300          39.6004
 115763743.128 7  90205487.74445  22029113.576    22029111.4454
        45.600          34.9004
 126371694.811 6  98471407.41343  24047739.371    24047733.6644
        40.200          22.6004
 15  9 17  0 46  0.0000000  0 10G14G04G22G29G18G08G16G27G26G21
 117302441.399 7  91404488.13245  22321906.023    22321900.9024
        45.200          30.4004
 127867210.595 6  99636818.06643  24332312.113    24332312.2094
        39.000          20.6004
 108001081.677 8  84156643.05046  20551923.134    20551912.5624
        48.500          41.0004
                                  25317719.542
        31.800
 120367850.446 7  93793089.46844  22905243.723    22905235.3204
        43.000          27.7004
 126994268.731 6  98956572.10543  24166206.681    24166202.9084
        40.000          21.8004
 112443429.056 8  87618220.30346  21397276.150    21397268.3924
        48.200          37.9004
 112235870.141 8  87456506.74346  21357773.685    21357767.8614
        49.500          39.4004
 115843790.744 7  90267862.39145  22044346.192    22044343.8264
        44.800          34.9004
 126402840.759 6  98495676.89143  24053665.565    24053660.2684
        38.700          22.2004
 15  9 17  0 46 30.0000000  0 10G14G04G22G29G18G08G16G27G26G21
 117247973.757 7  91362045.86544  22311541.004    22311535.7664
        43.400          29.6004
 127813961.096 6  99595325.17443  24322179.275    24322178.4334
        40.200          20.6004
 108038525.211 8  84185819.81346  20559048.316    20559037.5694
        49.800          40.4004
 133130755.806 5                  25333910.195
        34.300
 120449599.057 7  93856789.62844  22920800.404    22920791.8254
        44.300          28.4004
 126899393.974 6  98882643.78143  24148152.270    24148150.1974
        38.700          21.5004
 112482924.564 8  87648995.96246  21404791.985    21404784.2274
        50.600          38.6004
 112170201.294 8  87405336.23946  21345277.584    21345271.1154
        49.100          39.5004
 115924064.782 7  90330413.46145  22059622.167    22059619.4494
        46.300          34.8004
 126433939.404 6  98519909.52843  24059584.752    24059578.0484
        39.700          22.3004
 15  9 17  0 47  0.0000000  0 10G14G04G22G18G08G16G27G26G21G31
 117193787.721 7  91319823.02944  22301230.509    22301224.3914
        45.600          29.6004
 127760753.638 6  99553865.02343  24312054.696    24312053.0334
        40.900          20.6004
 108076343.180 8  84215288.33846  20566244.861    20566234.1734
        49.100          41.3004
 120531445.299 7  93920565.87644  22936374.531    22936366.7144
        44.100          28.7004
 126804502.326 6  98808702.25243  24130095.369    24130092.0654
        39.600          23.6004
 112522900.651 8  87680146.09846  21412399.601    21412391.9024
        48.800          37.8004
 112104779.534 8  87354358.26846  21332828.185    21332821.9504
        48.600          39.6004
 116004586.519 7  90393157.55145  22074944.936    22074941.6324
        46.300          34.5004
 126465015.773 6  98544124.76843  24065498.749    24065491.5184
        39.700          21.1004
 133870366.942 5                  25474681.938
        30.700
 15  9 17  0 47 30.0000000  0 11G14G04G22G29G18G08G16G27G26G21G31
 117139862.722 7  91277803.62745  22290968.911    22290962.8524
        45.300          30.6004
 127707564.444 6  99512419.06743  24301930.829    24301931.6284
        37.500          19.3004
 108114510.325 8  84245028.95746  20573507.790    20573496.8664
        50.800          40.9004
 133301489.931 5                  25366400.531
        31.900
 120613364.273 7  93984398.79344  22951963.735    22951955.5674
        43.700          28.2004
 126709572.215 6  98734730.76843  24112030.559    24112027.4314
        39.400          22.6004
 112563331.878 8  87711650.89846  21420093.400    21420085.7004
        51.100          38.0004
 112039584.104 8  87303556.66146  21320421.716    21320415.8924
        49.800          39.9004
 116085329.629 7  90456074.13945  22090309.714    22090307.5824
        45.400          34.5004
 126496047.832 6  98568305.52143  24071403.408    24071396.8814
        39.900          22.5004
 133877352.637 4                  25476010.844
        28.600
 15  9 17  0 48  0.0000000  0  9G14G04G22G18G08G16G27G26G21
 117086225.259 7  91236008.25644  22280762.104    22280755.5774
        45.400          29.0004
 127654416.385 6  99471005.14043  24291819.592    24291817.6954
        38.600          18.6004
 108153048.476 8  84275058.66246  20580841.466    20580830.9534
        50.200          40.8004
 120695376.678 7  94048304.50644  22967570.061    22967562.3614
        43.300          28.6004
 126614629.548 6  98660749.52743  24093964.363    24093960.4734
        39.200          23.2004
 112604240.157 8  87743527.42346  21427877.615    21427870.7944
        50.300          38.2004
 111974641.312 8  87252951.90946  21308063.660    21308057.6014
        49.200          39.7004
 116166314.890 7  90519179.40645  22105721.137    22105718.7714
        45.000          34.7004
 126527060.394 6  98592471.04843  24077305.491    24077299.3154
        41.100          21.5004
 15  9 17  0 48 30.0000000  0 10G14G04G22G29G18G08G16G27G26G21
 117032859.550 7  91194424.64045  22270607.005    22270600.0674
        45.800          30.6004
 127601290.249 6  99429608.32843  24281707.659    24281707.6964
        36.800          19.3004
 108191937.118 8  84305361.48546  20588241.536    20588231.0824
        50.300          40.6004
                                  25399036.762
        29.400
 120777462.198 7  94112267.19144  22983190.948    22983182.7214
        43.800          27.4004
 126519657.339 6  98586745.27243  24075891.566    24075888.0874
        39.200          22.0004
 112645604.693 8  87775759.46146  21435749.060    21435742.1224
        50.500          37.9004
 111909935.086 8  87202531.48646  21295750.556    21295743.8524
        49.800          39.7004
 116247520.728 7  90582456.56145  22121173.895    22121171.5874
        45.900          35.8004
 126558035.539 6  98616607.44143  24083199.543    24083194.1884
        40.300          22.6004
 15  9 17  0 49  0.0000000  0 10G14G04G22G29G18G08G16G27G26G21
 116979768.586 7  91153055.11944  22260503.976    22260497.8004
        45.700          29.8004
 127548185.700 6  99388228.36142  24271603.409    24271602.9774
        37.900          17.8004
 108231174.255 8  84335935.85946  20595708.144    20595697.9244
        50.200          40.9004
 133559014.300 5                  25415406.071
        30.700
 120859619.121 7  94176285.51444  22998824.653    22998816.3084
        45.300          27.9004
 126424658.213 6  98512720.01143  24057814.665    24057810.0134
        38.500          22.3004
 112687423.427 8  87808345.43346  21443706.817    21443700.1144
        50.000          38.3004
 111845468.138 8  87152297.51446  21283482.755    21283476.6374
        50.000          40.2004
 116328944.289 7  90645903.35845  22136668.225    22136666.2694
        46.500          34.2004
 126588974.486 6  98640715.63643  24089086.962    24089081.0204
        39.200          22.0004
 15  9 17  0 49 30.0000000  0  9G14G04G22G18G08G16G27G26G21
 116926973.700 7  91111916.30145  22250457.653    22250451.1844
        44.900          30.7004
 127495120.568 6  99346879.05943  24261504.584    24261504.6804
        39.100          20.1004
 108270776.317 8  84366794.58846  20603244.540    20603234.2614
        49.600          40.9004
 120941864.067 7  94240372.43144  23014475.157    23014467.3984
        45.400          28.7004
 126329652.309 6  98438689.48943  24039734.483    24039731.0034
        37.600          22.0004
 112729712.499 8  87841297.88946  21451754.578    21451747.4064
        50.100          38.6004
 111781261.528 8  87102266.40946  21271264.405    21271258.7564
        49.600          40.8004
 116410600.993 7  90709531.82645  22152207.261    22152204.8954
        47.200          34.3004
 126619896.811 6  98664810.86043  24094970.964    24094965.5504
        39.400          21.8004
 15  9 17  0 50  0.0000000  0 10G14G04G22G29G18G08G16G27G26G21
 116874458.680 7  91070995.57945  22240463.444    22240457.9724
        46.100          30.8004
 127442075.339 6  99305545.26443  24251411.421    24251408.8214
        41.400          19.3004
 108310722.616 8  84397921.55446  20610845.763    20610835.4854
        50.100          40.5004
                                  25448253.205
        30.100
 121024176.574 7  94304512.00444  23030139.055    23030130.8864
        44.800          27.7004
 126234622.699 6  98364640.52143  24021651.463    24021647.9844
        38.400          22.2004
 112772451.288 8  87874600.77946  21459887.655    21459880.0144
        49.900          37.8004
 111717298.925 8  87052425.43546  21259092.267    21259087.0884
        49.500          40.3004
 116492468.947 7  90773324.91145  22167786.590    22167784.2824
        46.700          34.3004
 126650784.469 6  98688879.07543  24100849.312    24100842.7254
        39.400          22.3004
 15  9 17  0 50 30.0000000  0  9G14G04G22G18G08G16G27G26G21
 116822232.725 7  91030300.09045  22230524.951    22230519.7714
        45.700          30.5004
 127389055.941 7  99264231.58743  24241321.355    24241319.8684
        42.100          19.9004
 108351017.777 8  84429320.35146  20618514.067    20618503.3194
        51.000          40.6004
 121106560.614 7  94368707.30644  23045816.171    23045808.3544
        44.900          27.3004
 126139578.066 6  98290579.79243  24003563.696    24003560.5684
        38.100          20.9004
 112815644.087 8  87908257.44746  21468106.753    21468099.7574
        50.300          38.0004
 111653589.376 8  87002781.66046  21246968.830    21246963.7684
        49.000          40.3004
 116574551.713 7  90837285.37445  22183406.312    22183403.7704
        47.000          34.4004
 126681645.026 6  98712926.17443  24106721.176    24106715.8794
        37.300          20.9004
 15  9 17  0 51  0.0000000  0  9G14G04G22G18G08G16G27G26G21
 116770298.507 7  90989831.93745  22220642.623    22220636.7404
        46.400          31.1004
 127336061.595 7  99222937.44043  24231237.074    24231235.6454
        42.200          21.3004
 108391659.667 8  84460989.33846  20626247.816    20626237.3034
        50.700          41.1004
 121189014.102 7  94432956.70344  23061506.968    23061499.4444
        46.100          27.9004
 126044520.214 6  98216508.77843  23985475.565    23985470.6794
        37.700          20.9004
 112859288.392 8  87942265.93346  21476412.005    21476404.7154
        50.300          37.8004
 111590135.358 8  86953336.98646  21234894.204    21234888.5554
        49.300          40.8004
 116656846.169 7  90901410.79345  22199066.831    22199064.0554
        46.800          33.4004
 126712479.462 6  98736952.88943  24112589.298    24112583.5324
        37.900          19.6004
 15  9 17  0 51 30.0000000  0 10G14G04G22G29G18G08G16G27G26G21
 116718658.626 7  90949593.12245  22210815.992    22210809.6994
        46.300          31.2004
 127283091.450 6  99181662.16443  24221157.080    24221154.7734
        40.900          19.3004
 108432646.038 8  84492926.75046  20634047.139    20634036.6854
        50.300          40.3004
                                  25497781.448
        29.600
 121271534.900 7  94497258.56344  23077210.152    23077201.9244
        45.500          27.7004
 125949451.157 6  98142429.01343  23967384.420    23967380.5884
        38.700          22.5004
 112903382.010 8  87976624.53846  21484803.023    21484795.6164
        49.600          37.6004
 111526939.153 8  86904093.20846  21222868.040    21222862.2754
        50.300          40.4004
 116739349.013 7  90965698.58245  22214766.299    22214763.8154
        46.500          34.6004
 126743288.411 6  98760959.79543  24118451.823    24118446.5264
        38.200          20.6004
 15  9 17  0 52  0.0000000  0  9G14G04G22G18G08G16G27G26G21
 116667315.162 7  90909585.28745  22201046.150    22201039.3294
        46.500          30.6004
 127230144.507 6  99140404.91343  24211080.130    24211078.5844
        39.600          19.0004
 108473974.169 8  84525130.47046  20641911.557    20641900.9864
        50.900          40.4004
 121354120.796 7  94561611.14444  23092925.743    23092917.8674
        46.300          28.2004
 125854372.248 6  98068341.60543  23949291.237    23949287.9334
        39.100          22.5004
 112947922.286 8  88011331.18646  21493278.358    21493271.5964
        50.400          37.0004
 111464002.852 8  86855051.94346  21210891.912    21210886.3224
        50.000          40.1004
 116822056.829 7  91030146.09145  22230505.746    22230502.7944
        46.000          33.1004
 126774072.481 6  98784947.27443  24124310.593    24124304.4764
        38.500          21.1004
 15  9 17  0 52 30.0000000  0 10G14G04G22G31G18G08G16G27G26G21
 116616271.199 7  90869810.83945  22191332.515    22191326.6914
        46.600          30.9004
 127177220.294 6  99099165.47443  24201009.611    24201007.4214
        40.300          19.6004
 108515642.329 8  84557599.15046  20649840.598    20649829.9094
        50.300          40.5004
                                  25485560.828
        31.200
 121436770.374 7  94626013.35344  23108653.308    23108645.5504
        46.300          29.2004
 125759285.549 6  97994248.10644  23931196.590    23931193.6964
        39.600          24.3004
 112992906.860 8  88046384.03546  21501839.048    21501831.4074
        49.800          37.4004
 111401329.272 8  86806215.41146  21198965.431    21198959.7244
        50.300          41.2004
 116904966.756 7  91094751.09145  22246282.449    22246279.8494
        46.200          33.8004
 126804832.590 6  98808916.09943  24130164.330    24130158.5064
        37.400          20.9004
 15  9 17  0 53  0.0000000  0  9G14G04G22G18G08G16G27G26G21
 116565530.239 7  90830272.49345  22181676.497    22181670.2034
        46.700          30.6004
 127124318.913 6  99057943.77543  24190942.225    24190942.0864
        39.400          20.1004
 108557649.316 8  84590331.84746  20657834.518    20657824.0054
        50.400          39.8004
 121519481.807 7  94690463.76344  23124392.417    23124385.0104
        46.100          27.6004
 125664194.362 6  97920151.10343  23913102.263    23913098.4324
        40.400          23.2004
 113038334.272 8  88081781.95246  21510483.264    21510475.9744
        50.700          36.9004
 111338921.594 8  86757586.06046  21187089.599    21187084.1854
        50.200          40.6004
 116988076.484 7  91159511.78445  22262097.562    22262095.6654
        46.100          33.3004
 126835571.121 6  98832868.13043  24136013.389    24136007.1544
        36.800          19.9004
 15  9 17  0 53 30.0000000  0 10G14G04G22G31G18G08G16G27G26G21
 116515094.134 7  90790971.70344  22172079.028    22172072.3834
        47.000          29.9004
 127071438.215 6  99016738.21143  24180879.710    24180878.5744
        40.900          20.6004
 108599992.255 8  84623326.33546  20665891.962    20665881.9774
        50.800          39.7004
 133933285.728 5                  25486655.428
        33.700
 121602251.935 7  94754959.91044  23140143.404    23140135.4124
        46.000          28.5004
 125569098.783 6  97846050.67643  23895007.066    23895002.6494
        41.400          22.8004
 113084200.958 8  88117522.15946  21519211.874    21519204.3514
        50.000          36.9004
 111276780.974 8  86709164.81746  21175264.565    21175259.3854
        48.400          40.6004
 117071381.604 7  91224424.72945  22277950.286    22277948.4484
        46.000          33.2004
 126866287.558 6  98856802.87343  24141858.743    24141852.8604
        38.100          20.4004
 15  9 17  0 54  0.0000000  0 10G14G04G22G31G18G08G16G27G26G21
 116464966.355 7  90751911.16345  22162539.358    22162533.2414
        46.300          30.5004
 127018579.247 6  98975549.57043  24170821.269    24170819.4894
        41.400          20.6004
 108642669.475 8  84656581.28746  20674012.967    20674003.0994
        50.900          40.5004
 133935617.890 6                  25487098.410
        37.500
 121685080.032 7  94819501.22244  23155905.207    23155897.4494
        45.800          28.7004
 125474002.645 6  97771949.83143  23876909.956    23876906.0664
        39.900          23.9004
 113130506.009 8  88153603.95446  21528023.202    21528016.0294
        50.700          37.0004
 111214911.375 8  86660954.76346  21163491.437    21163485.8484
        49.200          40.7004
 117154880.476 7  91289488.65545  22293840.256    22293838.1824
        46.000          33.7004
 126896983.829 6  98880721.94943  24147698.821    24147694.3454
        37.400          19.3004
 15  9 17  0 54 30.0000000  0 10G14G04G22G31G18G08G16G27G26G21
 116415148.772 7  90713092.32945  22153059.676    22153053.2074
        47.400          30.8004
 126965740.740 6  98934376.84843  24160766.025    24160765.0074
        41.800          21.1004
 108685678.722 8  84690094.96246  20682197.324    20682187.2214
        50.500          40.0004
 133937591.636 6 104366941.58543  25487474.822    25487473.1594
        38.300          21.5004
 121767964.047 7  94884086.09444  23171677.432    23171669.3814
        44.500          28.9004
 125378907.265 6  97697849.58143  23858813.092    23858809.9054
        38.800          23.0004
 113177246.714 8  88190025.22246  21536917.754    21536910.8754
        50.300          36.7004
 111153314.872 8  86612957.50346  21151769.918    21151764.5044
        49.100          40.7004
 117238569.628 7  91354700.85145  22309765.563    22309763.3734
        43.900          33.3004
 126927660.932 6  98904626.08643  24153536.789    24153531.4934
        36.500          18.6004
 15  9 17  0 55  0.0000000  0 10G14G04G22G31G18G08G16G27G26G21
 116365644.009 7  90674517.25745  22143639.459    22143632.7554
        47.100          31.4004
 126912921.570 6  98893219.22843  24150714.204    24150713.7724
        41.400          22.2004
 108729017.485 8  84723865.41746  20690444.895    20690434.4414
        50.800          40.6004
 133939206.834 6 104368200.18143  25487779.797    25487779.9514
        36.900          19.3004
 121850901.505 7  94948712.62944  23187460.083    23187452.3834
        47.100          29.4004
 125283814.379 6  97623751.22943  23840718.550    23840714.7184
        41.100          22.6004
 113224420.103 8  88226783.63646  21545894.482    21545887.6034
        50.500          36.4004
 111091993.492 8  86565174.63646  21140100.523    21140094.8744
        48.500          40.6004
 117322445.468 7  91420058.50445  22325726.372    22325724.7684
        45.200          32.5004
 126958319.267 6  98928515.62843  24159370.849    24159364.6734
        37.100          18.6004
 15  9 17  0 55 30.0000000  0 10G14G04G22G31G18G08G16G27G26G21
 116316454.838 7  90636188.09245  22134278.846    22134272.4364
        47.300          30.4004
 126860121.392 6  98852076.37543  24140667.696    24140666.1504
        40.300          19.6004
 108772684.163 8  84757891.38446  20698754.212    20698743.8164
        51.000          40.0004
 133940463.408 6 104369179.38242  25488020.430    25488019.2364
        36.900          16.3004
 121933890.623 7  95013379.40944  23203252.223    23203244.5824
        44.300          29.3004
 125188726.090 6  97549656.46544  23822623.317    23822619.4854
        40.900          25.2004
 113272024.193 8  88263877.67346  21554953.730    21554946.7334
        50.200          37.6004
 111030950.110 8  86517608.37946  21128484.770    21128478.5354
        48.900          40.8004
 117406505.315 7  91485559.54845  22341722.229    22341720.4494
        43.500          32.3004
 126988959.988 6  98952391.39943  24165202.585    24165197.6404
        37.200          19.9004
 15  9 17  0 56  0.0000000  0 10G14G04G22G31G18G08G16G27G26G21
 116267584.277 7  90598107.20645  22124978.910    22124972.7924
        47.200          30.7004
 126807340.115 6  98810948.24743  24130622.504    24130621.9554
        40.000          18.6004
 108816676.855 8  84792171.38546  20707125.787    20707115.3914
        50.700          39.6004
 133941362.005 5 104369879.59942  25488189.664    25488189.0564
        34.800          15.6004
 122016930.008 7  95078085.35944  23219054.659    23219046.6084
        45.700          29.1004
 125093645.264 6  97475567.54043  23804529.729    23804526.1914
        40.600          22.8004
 113320056.798 8  88301305.60146  21564093.722    21564087.0774
        49.200          38.0004
 110970187.483 8  86470260.90246  21116922.411    21116916.0014
        48.700          40.8004
 117490746.386 7  91551201.79845  22357753.245    22357751.8754
        45.600          32.8004
 127019584.294 6  98976254.42643  24171030.846    24171025.0224
        37.300          19.0004
 15  9 17  0 56 30.0000000  0 10G14G04G22G31G18G08G16G27G26G21
 116219034.509 7  90560276.27845  22115740.483    22115734.1314
        47.300          30.5004
 126754576.252 7  98769833.70843  24120582.712    24120580.8154
        42.400          18.6004
 108860992.804 8  84826703.28246  20715559.090    20715548.0504
        51.300          39.2004
 133941902.582 6 104370300.82743  25488294.243    25488292.1704
        36.700          19.3004
 122100017.312 7  95142828.65244  23234865.303    23234857.4864
        43.500          29.0004
 124998573.127 6  97401485.38744  23786438.662    23786434.7134
        41.300          24.5004
 113368515.005 8  88339065.16446  21573315.099    21573308.1614
        50.300          36.8004
 110909707.481 8  86423133.64646  21105413.087    21105407.1454
        49.300          40.4004
 117575164.977 7  91616982.37145  22373818.163    22373815.9144
        44.400          33.1004
 127050192.816 6  99000105.14442  24176854.336    24176849.8014
        36.300          17.8004
 15  9 17  0 57  0.0000000  0 10G14G04G22G31G18G08G16G27G26G21
 116170808.366 7  90522697.53445  22106562.761    22106556.8784
        46.500          30.6004
 126701829.571 7  98728732.55743  24110545.450    24110542.4394
        43.300          19.3004
 108905630.198 8  84861485.65146  20724053.124    20724042.2014
        51.200          39.8004
 133942084.993 5 104370442.98742  25488329.285    25488327.3884
        33.700          17.4004
 122183150.281 7  95207607.52344  23250684.647    23250677.0064
        43.700          27.8004
 124903512.002 6  97327411.79044  23768348.852    23768345.2554
        41.700          25.3004
 113417396.653 8  88377154.70646  21582617.449    21582610.2184
        49.800          36.6004
 110849513.077 8  86376228.93246  21093958.056    21093952.5834
        49.500          41.2004
 117659758.498 7  91682899.24845  22389915.637    22389912.9784
        43.800          32.6004
 127080787.023 6  99023944.67542  24182676.286    24182670.6384
        36.900          17.8004
 15  9 17  0 57 30.0000000  0 10G14G04G22G31G18G08G16G27G26G21
 116122908.343 7  90485372.89245  22097447.500    22097441.4414
        46.800          31.1004
 126649099.460 7  98687644.31343  24100511.271    24100507.4404
        42.500          19.3004
 108950586.974 8  84896516.88446  20732608.032    20732597.8124
        50.400          39.8004
                 104370301.43452  25488293.586
        25.900          14.8004
 122266327.336 7  95272420.72844  23266513.013    23266505.5484
        43.600          28.5004
 124808464.124 6  97253348.52943  23750261.742    23750258.3794
        40.100          22.8004
 113466699.541 8  88415572.47946  21591999.367    21591992.1374
        49.100          36.9004
 110789606.742 8  86329548.69546  21082558.576    21082552.5764
        49.600          41.0004
 117744523.811 7  91748949.96945  22406046.142    22406044.0694
        45.300          32.2004
 127111367.995 6  99047773.93142  24188495.800    24188490.0344
        36.500          17.4004
 15  9 17  0 58  0.0000000  0  9G14G04G22G18G08G16G27G26G21
 116075337.086 7  90448304.44245  22088395.256    22088388.7284
        47.200          31.3004
 126596385.424 7  98646568.61443  24090479.891    24090477.0564
        42.900          21.1004
 108995861.239 8  84931795.51346  20741223.597    20741213.0844
        50.600          39.9004
 122349546.709 7  95337266.92344  23282349.834    23282341.6064
        43.200          29.3004
 124713431.741 6  97179297.31843  23732176.592    23732173.7574
        40.400          23.6004
 113516420.973 8  88454316.37446  21601461.388    21601454.3914
        49.900          36.8004
 110729990.970 8  86283094.87046  21071213.840    21071208.3684
        48.400          41.2004
 117829457.903 7  91815132.23245  22422208.586    22422206.8654
        44.200          33.7004
 127141936.481 6  99071593.46942  24194312.293    24194306.7624
        37.000          17.4004
 15  9 17  0 58 30.0000000  0 10G14G04G22G31G18G08G16G27G26G21
 116028097.027 7  90411494.06145  22079405.651    22079399.7694
        47.300          31.7004
 126543686.545 6  98605504.66443  24080451.458    24080449.0924
        41.000          20.4004
 109041450.345 8  84967319.47546  20749898.751    20749888.6484
        50.700          40.0004
 133940471.922 4                  25488023.741
        28.000
 122432806.050 7  95402144.25344  23298193.221    23298186.0494
        43.000          28.1004
 124618416.667 6  97105259.68044  23714096.573    23714092.6244
        40.800          24.4004
 113566558.265 8  88493384.33746  21611001.957    21610995.3124
        49.500          37.5004
 110670668.063 8  86236869.25046  21059925.243    21059919.2434
        49.200          41.2004
 117914557.443 7  91881443.41045  22438402.628    22438400.6144
        44.400          32.7004
 127172493.521 6  99095404.07342  24200127.564    24200122.3264
        36.300          16.9004
 15  9 17  0 59  0.0000000  0 10G14G04G22G31G18G08G16G27G26G21
 115981190.627 7  90374943.67245  22070479.772    22070473.4794
        47.200          31.8004
 126491001.920 6  98564451.88743  24070425.201    24070422.8944
        41.900          20.6004
 109087352.159 8  85003087.09846  20758633.649    20758622.9024
        50.900          40.1004
 133939222.564 5                  25487786.171
        33.700
 122516103.270 7  95467051.10844  23314044.856    23314036.8054
        44.400          28.5004
 124523420.877 6  97031237.00044  23696019.974    23696015.6744
        41.800          26.4004
 113617108.963 8  88532774.41046  21620621.502    21620614.7404
        50.000          36.8004
 110611640.352 8  86190873.64946  21048692.628    21048687.0974
        49.800          41.0004
 117999819.335 7  91947881.09845  22454626.763    22454625.9214
        45.300          32.5004
 127203039.965 6  99119206.43643  24205941.824    24205934.8864
        36.900          18.6004
 15  9 17  0 59 30.0000000  0 11G14G04G22G31G18G08G16G27G26G21G19
 115934620.294 7  90338655.15245  22061617.857    22061611.5644
        47.200          32.3004
 126438331.258 7  98523409.91343  24060403.287    24060401.0974
        42.400          21.8004
 109133564.648 8  85039096.81646  20767427.921    20767416.9394
        50.900          39.5004
 133937615.967 6                  25487481.229
        36.200
 122599436.794 7  95531986.24744  23329902.465    23329894.8244
        43.800          27.3004
 124428446.373 7  96957230.93644  23677946.287    23677943.1594
        42.100          26.5004
 113668070.724 8  88572484.79946  21630319.086    21630311.5634
        49.500          36.6004
 110552910.411 8  86145110.07746  21037516.619    21037511.0884
        48.700          41.2004
 118085240.510 7  92014442.90045  22470882.850    22470881.0124
        45.000          32.6004
 127233577.023 6  99143001.51642  24211751.490    24211745.5484
        36.200          17.8004
 133065938.782 6                  25321606.152
        38.000
 15  9 17  1  0  0.0000000  0 11G14G04G22G31G18G08G16G27G26G21G19
 115888390.940 7  90302632.32745  22052820.616    22052814.4994
        46.700          31.9004
 126385675.920 7  98482379.94043  24050384.717    24050381.2964
        43.700          21.5004
 109180087.922 8  85075348.70346  20776281.023    20776269.8654
        50.200          40.1004
 133935654.156 6 104365435.26742  25487107.349    25487105.2754
        36.100          17.4004
 122682806.981 7  95596949.97344  23345767.078    23345759.4954
        43.900          27.9004
 124333497.546 6  96883244.86544  23659878.471    23659875.4604
        41.900          26.7004
 113719442.823 8  88612514.92446  21640095.000    21640088.1214
        49.300          36.4004
 110494482.839 8  86099582.11946  21026398.546    21026392.5464
        49.100          41.6004
 118170820.050 7  92081128.10245  22487168.607    22487166.6514
        44.700          31.8004
 127264107.906 5  99166791.72743  24217561.295    24217555.4124
        35.300          18.3004
 132972096.214 5 103614597.87243  25303747.926    25303742.9814
        35.400          20.1004
 15  9 17  1  0 30.0000000  0 11G14G04G22G31G18G08G16G27G26G21G19
 115842501.233 7  90266874.16745  22044087.561    22044081.6784
        46.900          31.4004
 126333031.453 7  98441358.43843  24040366.082    24040362.6024
        43.200          20.9004
 109226915.401 8  85111837.64546  20785191.679    20785181.2834
        50.500          40.1004
 133933333.058 5 104363626.62542  25486666.111    25486663.9794
        34.800          15.6004
 122766208.035 7  95661937.72844  23361637.687    23361629.9874
        43.000          28.1004
 124238572.749 7  96809277.53044  23641815.305    23641811.5324
        42.400          27.2004
 113771219.088 8  88652860.00246  21649947.966    21649940.6774
        49.400          36.8004
 110436356.259 8  86054288.70646  21015337.157    21015331.1574
        50.100          41.4004
 118256550.958 7  92147931.24745  22503482.315    22503480.4774
        45.000          31.3004
 127294629.426 6  99190574.64742  24223370.587    24223363.4744
        36.800          16.3004
 132878169.382 6 103541408.12742  25285875.553    25285868.5564
        36.900          17.8004
 15  9 17  1  1  0.0000000  0 11G14G04G22G31G18G08G16G27G26G21G19
 115796955.343 7  90231383.91645  22035420.750    22035414.1644
        47.300          31.3004
 126280399.023 6  98400346.30343  24030348.628    24030346.5554
        41.600          20.9004
 109274047.023 8  85148563.57046  20794160.719    20794150.2644
        51.200          39.8004
 133930655.002 5 104361539.82942  25486156.825    25486154.5764
        32.300          16.3004
 122849639.747 7  95726949.38144  23377514.711    23377507.0704
        44.200          28.3004
 124143675.900 7  96735331.95344  23623756.681    23623753.6124
        42.300          27.2004
 113823398.581 8  88693519.27446  21659876.827    21659870.0074
        48.800          36.7004
 110378535.004 8  86009233.20446  21004334.209    21004328.6784
        50.900          41.9004
 118342432.133 7  92214851.48945  22519825.015    22519823.9974
        44.600          31.8004
 127325144.385 6  99214352.46542  24229177.145    24229170.7934
        36.700          17.8004
 132784161.700 6 103468155.41242  25267986.893    25267979.1934
        36.400          16.3004
 15  9 17  1  1 30.0000000  0 11G14G04G22G31G18G08G16G27G26G21G19
 115751755.867 7  90196163.59845  22026820.036    22026813.5674
        47.600          31.8004
 126227778.212 6  98359343.22443  24020333.916    24020333.3674
        39.300          20.4004
 109321480.722 8  85185524.88646  20803186.888    20803177.0204
        50.700          39.7004
 133927627.195 5 104359176.91542  25485578.650    25485577.1044
        30.500          15.6004
 122933100.324 7  95791983.53844  23393396.322    23393389.0334
        44.000          26.5004
 124048809.371 6  96661410.03344  23605704.380    23605701.1944
        41.700          26.4004
 113875979.053 8  88734490.99146  21669883.077    21669876.1394
        48.400          36.9004
 110321021.627 8  85964417.60146  20993389.830    20993383.5954
        50.000          41.4004
 118428460.636 7  92281886.52045  22536195.584    22536194.0974
        44.100          31.4004
 127355654.213 6  99238126.28342  24234983.290    24234976.5284
        37.000          17.8004
 132690074.563 6 103394840.67243  25250082.860    25250075.2194
        36.100          21.5004
 15  9 17  1  2  0.0000000  0 11G14G04G22G31G18G08G16G27G26G21G19
 115706905.534 7  90161215.34845  22018284.661    22018278.9544
        47.500          32.4004
 126175168.566 6  98318348.81943  24010322.107    24010321.6754
        40.000          20.1004
 109369214.583 8  85222720.08846  20812269.916    20812260.4004
        50.700          39.8004
 133924233.881 5 104356535.46342  25484933.131    25484930.9414
        31.500          14.8004
 123016588.103 7  95857038.89844  23409283.853    23409276.1544
        42.800          26.9004
 123953975.465 6  96587513.51144  23587657.597    23587654.4104
        41.100          26.8004
 113928958.028 7  88775773.23546  21679965.156    21679957.6914
        47.900          36.8004
 110263818.782 8  85919843.97946  20982504.303    20982498.4784
        50.300          41.2004
 118514633.409 7  92349033.97345  22552594.159    22552592.7894
        43.900          31.4004
 127386160.355 6  99261897.23642  24240788.465    24240782.4064
        36.500          17.4004
 132595909.548 6 103321465.36243  25232164.962    25232155.2114
        38.400          19.3004
 15  9 17  1  2 30.0000000  0 11G14G04G22G31G18G08G16G27G26G21G19
 115662406.689 7  90126540.98245  22009817.267    22009810.8574
        47.800          32.6004
 126122568.982 6  98277362.25943  24000313.164    24000311.7944
        40.300          19.6004
 109417246.154 8  85260147.27346  20821410.207    20821400.2214
        50.700          39.7004
 133920486.121 5 104353615.13242  25484220.803    25484218.3204
        35.800          16.3004
 123100101.224 7  95922113.98244  23425175.799    23425168.8034
        43.000          26.3004
 123859176.145 6  96513643.97044  23569617.728    23569614.9514
        40.900          26.5004
 113982332.754 8  88817363.86146  21690121.379    21690114.2654
        48.000          36.5004
 110206928.610 8  85875513.98846  20971678.425    20971672.4844
        49.900          41.4004
 118600947.265 7  92416291.35045  22569019.006    22569017.8714
        43.900          32.1004
 127416663.222 6  99285665.71142  24246593.369    24246587.3114
        39.000          17.4004
 132501668.171 6 103248030.47943  25214231.395    25214221.6444
        37.700          19.6004
 15  9 17  1  3  0.0000000  0 11G14G04G22G31G18G08G16G27G26G21G19
 115618261.934 7  90092142.52045  22001416.687    22001409.8084
        47.600          32.3004
 126069979.303 6  98236383.43343  23990305.782    23990304.8814
        40.900          20.4004
 109465573.276 8  85297804.75346  20830606.699    20830596.5974
        50.600          39.9004
 133916382.433 5 104350417.54742  25483440.283    25483437.9164
        35.400          16.9004
 123183637.890 7  95987207.42144  23441071.443    23441065.0334
        42.800          27.0004
 123764413.636 7  96439803.09644  23551585.436    23551582.3084
        42.300          26.7004
 114036100.663 8  88859260.86146  21700352.794    21700346.1494
        48.500          36.0004
 110150353.914 8  85831429.83046  20960912.684    20960906.7424
        50.500          41.0004
 118687399.320 7  92483656.42245  22585470.201    22585469.7694
        43.400          31.9004
 127447164.130 6  99309432.56042  24252396.333    24252390.8614
        36.300          17.4004
 132407351.769 6 103174537.13543  25196283.290    25196274.6524
        37.700          18.6004
 15  9 17  1  3 30.0000000  0 11G14G04G22G31G18G08G16G27G26G21G19
 115574473.718 7  90058021.88145  21993083.653    21993077.3024
        46.100          32.1004
 126017399.070 7  98195411.96143  23980300.587    23980298.6904
        42.700          21.1004
 109514194.301 8  85335691.26346  20839858.973    20839848.2844
        50.300          39.7004
 133911923.187 5 104346942.79142  25482590.094    25482589.6624
        34.600          15.6004
 123267196.104 6  96052317.64744  23456972.395    23456965.6334
        41.700          26.6004
 123669690.222 7  96365992.69844  23533560.152    23533556.4374
        42.000          26.5004
 114090259.552 8  88901462.51546  21710659.469    21710652.4734
        48.700          36.3004
 110094097.301 8  85787593.51946  20950206.625    20950200.6834
        49.900          41.0004
 118773986.740 7  92551126.97345  22601947.739    22601946.8974
        43.800          33.0004
 127477664.548 6  99333199.05742  24258201.074    24258195.0164
        36.100          16.3004
 132312962.576 6 103100987.07943  25178321.680    25178312.6324
        37.500          18.6004
 15  9 17  1  4  0.0000000  0 11G14G04G22G31G18G08G16G27G26G21G19
 115531044.108 7  90024180.69545  21984819.174    21984813.0574
        46.900          33.1004
 125964826.960 7  98154446.83443  23970295.811    23970294.8514
        42.500          22.5004
 109563106.229 8  85373804.44846  20849166.793    20849156.0454
        50.900          39.8004
 133907108.053 5 104343190.75942  25481674.420    25481672.9334
        32.600          13.9004
 123350773.984 7  96117443.21544  23472877.455    23472870.1074
        42.600          28.3004
 123575007.993 7  96292214.37944  23515542.494    23515538.9564
        42.100          26.5004
 114144806.075 7  88943966.22046  21721039.526    21721032.4124
        47.600          36.4004
 110038160.661 8  85744006.54346  20939562.842    20939556.7254
        49.300          41.1004
 118860705.912 7  92618700.17345  22618449.523    22618449.3264
        42.600          31.5004
 127508164.850 6  99356965.40142  24264004.946    24263998.7704
        36.200          15.6004
 132218501.401 6 103027380.99743  25160347.087    25160338.2154
        39.000          21.3004
 15  9 17  1  4 30.0000000  0 11G14G04G22G31G18G08G16G27G26G21G19
 115487975.884 7  89990621.08545  21976623.775    21976617.5994
        47.500          33.7004
 125912262.936 7  98113487.98743  23960293.895    23960291.7054
        43.100          21.7004
 109612307.097 8  85412142.78046  20858529.175    20858518.8974
        50.100          39.6004
 133901940.682 5 104339164.05142  25480691.629    25480688.9114
        34.100          13.9004
 123434369.641 7  96182582.62444  23488785.901    23488777.0294
        43.300          28.9004
 123480369.132 7  96218469.84844  23497533.307    23497529.8284
        42.600          27.6004
 114199737.839 7  88986770.12145  21731492.420    21731485.8344
        47.900          35.9004
 109982546.742 8  85700671.03546  20928979.801    20928973.9184
        50.700          40.9004
 118947554.044 7  92686373.88345  22634976.822    22634976.2724
        43.900          31.5004
 127538666.496 6  99380732.86742  24269809.657    24269803.5404
        36.300          16.3004
 132123970.104 6 102953720.18443  25142358.392    25142349.4034
        38.900          18.3004
 15  9 17  1  5  0.0000000  0 11G14G04G22G31G18G08G16G27G26G21G19
 115445271.254 7  89957344.80445  21968496.741    21968491.2104
        46.700          33.9004
 125859706.066 7  98072534.72043  23950291.944    23950290.5154
        42.600          21.1004
 109661794.942 8  85450704.71846  20867946.925    20867936.0014
        49.800          39.3004
 133896415.194 6 104334858.47243  25479639.138    25479637.5344
        37.100          18.6004
 123517981.261 7  96247734.46244  23504696.723    23504688.7304
        44.100          26.4004
 123385775.600 7  96144760.68544  23479532.788    23479529.1324
        42.100          25.9004
 114255052.083 7  89029872.04746  21742018.509    21742011.4544
        47.200          36.4004
 109927257.868 8  85657588.80846  20918458.323    20918452.6164
        50.900          41.8004
 119034527.978 7  92754145.60245  22651527.410    22651527.0364
        42.500          31.2004
 127569170.503 5  99404502.13442  24275614.018    24275608.0184
        35.700          17.8004
 132029370.002 6 102880005.84543  25124355.017    25124347.4344
        36.500          19.9004
 15  9 17  1  5 30.0000000  0 11G14G04G22G31G18G08G16G27G26G21G19
 115402932.688 7  89924353.76445  21960439.918    21960434.2704
        46.200          33.4004
 125807156.149 7  98031586.88343  23940292.601    23940290.2354
        42.400          22.3004
 109711567.270 8  85489488.34046  20877417.953    20877407.6164
        49.800          39.8004
 133890535.022 6 104330276.54242  25478520.127    25478519.5784
        37.300          17.8004
 123601607.080 7  96312897.36344  23520609.873    23520601.9984
        44.700          27.0004
 123291230.157 7  96071088.96544  23461541.081    23461538.0114
        42.700          28.2004
 114310746.247 8  89073270.02746  21752616.830    21752609.8934
        48.400          36.2004
 109872296.534 8  85614761.80446  20907999.748    20907993.5724
        50.000          41.3004
 119121624.704 7  92822013.00145  22668101.255    22668100.9404
        43.700          31.2004
 127599677.604 6  99428273.79442  24281419.417    24281413.0654
        37.500          16.3004
 131934702.977 5 102806239.26243  25106340.354    25106332.9474
        35.500          19.9004
 15  9 17  1  6  0.0000000  0 11G14G04G22G31G18G08G16G27G26G21G19
 115360962.969 7  89891650.14445  21952453.749    21952447.5734
        45.900          32.7004
 125754612.568 7  97990643.97843  23930293.798    23930291.4324
        43.000          21.7004
 109761622.282 8  85528492.22846  20886943.127    20886932.6144
        50.000          39.8004
 133884300.479 6 104325418.48842  25477333.895    25477332.1154
        37.900          16.3004
 123685245.563 7  96378070.12944  23536525.938    23536517.4184
        44.100          26.7004
 123196734.887 6  95997456.36444  23443559.320    23443556.6024
        41.300          26.8004
 114366817.954 7  89116962.17645  21763286.298    21763279.7124
        47.200          35.5004
 109817665.559 8  85572192.21946  20897603.911    20897598.2044
        50.500          41.3004
 119208841.551 7  92889974.00445  22684698.555    22684697.3614
        42.900          30.6004
 127630189.311 6  99452049.03742  24287226.304    24287220.1284
        36.000          15.6004
 131839970.825 6 102732421.93843  25088314.756    25088306.4704
        38.700          20.6004
 15  9 17  1  6 30.0000000  0 11G14G04G22G31G18G08G16G27G26G21G19
 115319364.604 7  89859235.87845  21944537.701    21944531.6434
        45.300          32.2004
 125702075.188 7  97949705.91443  23920296.519    23920293.3904
        43.100          21.5004
 109811958.242 8  85567715.03946  20896521.911    20896511.5164
        49.600          39.6004
 133877712.464 5 104320284.95042  25476079.410    25476079.2124
        32.000          16.9004
 123768895.149 7  96443251.57644  23552443.649    23552435.7144
        43.700          26.2004
 123102292.442 7  95923864.91944  23425586.779    23425584.1794
        42.000          28.2004
 114423264.694 8  89160946.57846  21774028.871    21774021.9924
        48.500          36.3004
 109763367.568 8  85529882.10646  20887270.998    20887265.3504
        50.200          41.6004
 119296175.719 7  92958026.42945  22701317.774    22701316.5804
        43.400          31.1004
 127660706.940 6  99475828.97242  24293033.084    24293026.2644
        36.100          14.8004
 131745175.345 6 102658555.32343  25070275.030    25070267.7414
        38.100          21.7004
 15  9 17  1  7  0.0000000  0 11G14G04G22G31G18G08G16G27G26G21G19
 115278139.824 7  89827112.73045  21936693.031    21936686.6804
        45.800          32.3004
 125649542.989 7  97908771.83643  23910299.144    23910296.3674
        42.100          20.9004
 109862572.341 8  85607154.60046  20906153.459    20906143.0644
        49.100          39.2004
 133870771.083 5 104314876.05242  25474759.523    25474757.5674
        35.000          16.9004
 123852553.976 7  96508440.18044  23568363.040    23568355.6344
        43.700          25.8004
 123007904.901 6  95850316.24944  23407625.692    23407622.5644
        41.100          27.8004
 114480083.671 8  89205221.03145  21784840.996    21784834.1164
        48.300          35.9004
 109709404.746 8  85487833.16546  20877002.612    20876996.7884
        50.100          41.9004
 119383623.885 7  93026167.67945  22717958.836    22717957.8184
        43.400          30.2004
 127691231.580 6  99499614.31942  24298841.875    24298835.5814
        37.300          15.6004
 131650318.201 6 102584640.68143  25052222.817    25052216.8764
        37.800          21.3004
 15  9 17  1  7 30.0000000  0 11G14G04G22G31G18G08G16G27G26G21G19
 115237290.317 7  89795281.98545  21928919.482    21928913.4244
        45.900          32.5004
 125597015.453 6  97867841.40043  23900303.894    23900300.0044
        40.600          20.6004
 109913462.151 8  85646808.97446  20915837.383    20915827.3394
        50.600          39.2004
 133863476.126 6 104309191.66543  25473371.787    25473369.8314
        37.200          18.6004
 123936219.851 7  96573634.28644  23584283.284    23584276.7564
        42.600          25.8004
 122913573.921 7  95776811.66444  23389674.843    23389672.0674
        42.100          26.0004
 114537271.691 8  89249783.04446  21795723.175    21795716.4134
        49.100          36.3004
 109655779.238 8  85446047.05446  20866797.791    20866792.4364
        50.600          41.9004
 119471182.749 7  93094395.17445  22734621.010    22734619.9924
        43.800          30.8004
 127721763.901 6  99523405.72342  24304651.754    24304645.7544
        37.500          16.3004
 131555400.445 6 102510678.72243  25034163.018    25034155.4944
        39.500          22.8004
 15  9 17  1  8  0.0000000  0 11G14G04G22G31G18G08G16G27G26G21G19
 115196818.892 7  89763745.86845  21921218.001    21921212.0604
        45.900          33.0004
 125544491.834 6  97826914.03943  23890309.005    23890305.8774
        40.300          21.5004
 109964625.576 8  85686676.56746  20925573.120    20925562.6664
        48.800          39.0004
 133855828.162 5 104303233.20942  25471916.036    25471914.0804
        32.400          14.8004
 124019891.448 7  96638832.87744  23600206.288    23600199.2914
        43.000          25.8004
 122819302.283 6  95703353.30844  23371736.324    23371732.0824
        41.800          26.9004
 114594826.235 8  89294630.65045  21806675.734    21806669.0894
        48.700          35.7004
 109602493.656 8  85404525.82846  20856657.744    20856652.2134
        49.600          41.7004
 119558849.450 7  93162706.69945  22751303.437    22751302.9464
        44.500          31.9004
 127752305.108 6  99547203.94042  24310464.165    24310457.6374
        37.700          17.8004
 131460423.657 6 102436670.79143  25016088.884    25016081.4184
        38.700          23.4004
 15  9 17  1  8 30.0000000  0 10G14G04G22G18G08G16G27G26G21G19
 115156728.562 7  89732506.68545  21913589.133    21913582.5464
        45.900          33.1004
 125491972.274 6  97785989.83043  23880314.050    23880311.1574
        40.400          22.8004
 110016061.205 8  85726756.26246  20935361.107    20935350.5364
        48.700          39.2004
 124103566.937 7  96704034.47244  23616129.540    23616122.4854
        43.700          26.7004
 122725092.938 6  95629943.51644  23353808.656    23353804.6484
        41.900          26.6004
 114652744.979 8  89339762.06045  21817697.515    21817690.5194
        48.900          35.7004
 109549550.883 8  85363271.71947  20846583.196    20846577.6064
        49.900          42.4004
 119646621.461 7  93231100.29545  22768005.823    22768005.3914
        43.600          31.3004
 127782857.062 6  99571010.56742  24316277.763    24316271.8804
        37.400          15.6004
 131365390.452 6 102362618.94643  24998003.566    24997996.8044
        38.100          22.6004
 15  9 17  1  9  0.0000000  0 11G14G04G22G31G18G08G16G27G26G21G19
 115117019.763 7  89701564.81845  21906033.204    21906025.9734
        46.800          32.7004
 125439454.022 6  97745066.70643  23870320.430    23870318.8854
        40.500          23.0004
 110067764.607 8  85767044.61746  20945200.340    20945189.7094
        49.400          39.5004
 133839474.606 5                  25468803.778
        34.300
 124187242.767 7  96769236.35444  23632052.275    23632045.5134
        42.500          25.3004
 122630945.908 7  95556582.27244  23335893.428    23335888.9524
        43.500          27.7004
 114711023.566 7  89385173.86945  21828787.836    21828780.5474
        47.800          35.3004
 109496951.426 8  85322285.13546  20836574.044    20836568.1614
        49.500          41.7004
 119734493.844 7  93299572.10045  22784727.633    22784727.3184
        43.200          31.4004
 127813418.592 6  99594824.65742  24322093.633    24322086.9304
        36.600          15.6004
 131270300.300 6 102288522.74443  24979909.436    24979901.0334
        39.700          21.7004
 15  9 17  1  9 30.0000000  0 11G14G04G22G31G18G08G16G27G26G21G19
 115077696.558 7  89670923.40845  21898550.110    21898543.0554
        45.700          33.4004
 125386938.907 6  97704145.93843  23860327.420    23860324.9374
        39.500          23.0004
 110119735.843 8  85807541.66046  20955090.089    20955079.4584
        48.600          38.8004
 133830770.003 6 104283699.43643  25467147.321    25467146.7724
        38.700          20.6004
 124270919.650 7  96834439.04344  23647975.962    23647968.4384
        42.000          24.1004
 122536865.743 7  95483273.11944  23317990.718    23317986.8864
        42.800          28.6004
 114769661.127 7  89430865.38545  21839946.194    21839939.5504
        47.600          35.7004
 109444699.826 8  85281569.59346  20826631.150    20826624.7404
        49.800          41.8004
 119822465.717 7  93368121.40545  22801468.392    22801468.2534
        42.300          30.9004
 127843993.163 6  99618648.91242  24327911.511    24327904.8664
        36.400          15.6004
 131175156.920 6 102214385.02343  24961802.609    24961797.0204
        38.800          22.0004
 15  9 17  1 10  0.0000000  0 11G14G04G22G31G18G08G16G27G26G21G19
 115038761.060 7  89640584.10345  21891140.650    21891134.4744
        46.800          34.2004
 125334426.135 6  97663227.05543  23850334.031    23850331.5474
        39.500          21.1004
 110171972.327 8  85848245.40146  20965030.524    20965019.7184
        49.800          39.4004
 133821714.558 6 104276643.26243  25465423.491    25465423.1174
        39.500          22.2004
 124354595.779 7  96899641.13744  23663898.489    23663891.6104
        42.000          26.1004
 122442854.495 7  95410017.68444  23300100.754    23300097.0394
        43.400          27.0004
 114828654.850 8  89476834.43645  21851172.563    21851165.3324
        48.500          34.9004
 109392798.355 8  85241126.89747  20816754.442    20816748.6774
        49.900          42.5004
 119910533.863 7  93436745.73245  22818227.425    22818226.9934
        42.500          30.7004
 127874581.726 5  99642484.13642  24333732.570    24333725.8084
        35.400          16.3004
 131079962.069 6 102140207.22343  24943689.893    24943681.0804
        39.400          20.4004
 15  9 17  1 10 30.0000000  0 11G14G04G22G31G18G08G16G27G26G21G19
 115000215.009 7  89610548.27445  21883805.591    21883799.0054
        46.100          33.4004
 125281914.532 7  97622309.06443  23840341.669    23840338.6004
        42.100          21.7004
 110224471.467 8  85889153.80846  20975020.559    20975010.2224
        48.300          39.0004
 133812308.321 6 104269313.69543  25463632.957    25463632.8184
        38.100          20.9004
 124438268.443 6  96964840.55944  23679820.044    23679814.2784
        40.500          26.1004
 122348913.871 7  95336817.25044  23282223.877    23282220.4564
        43.400          28.7004
 114888001.193 7  89523078.25145  21862465.341    21862458.3444
        46.700          35.1004
 109341248.790 8  85200958.41247  20806944.955    20806939.1894
        51.300          42.4004
 119998694.757 7  93505442.33144  22835003.608    22835003.4104
        42.300          29.7004
 127905184.703 6  99666330.49642  24339557.355    24339550.6514
        36.000          15.6004
 130984717.004 6 102065990.37243  24925565.228    24925555.1844
        39.200          19.0004
 15  9 17  1 11  0.0000000  0 11G14G04G22G31G18G08G16G27G26G21G19
 114962061.114 7  89580818.00445  21876545.103    21876537.9314
        45.900          33.8004
 125229404.051 6  97581391.93343  23830348.952    23830346.1764
        41.600          22.5004
 110277231.314 8  85930265.35646  20985060.443    20985049.5194
        48.100          39.4004
 133802551.863 6 104261711.28843  25461777.863    25461775.9074
        41.600          19.9004
 124521936.522 6  97030036.37344  23695742.680    23695735.6844
        41.300          25.3004
 122255046.719 7  95263674.08344  23264360.594    23264357.9354
        42.200          27.0004
 114947697.789 7  89569594.99645  21873825.053    21873818.4084
        47.500          34.7004
 109290053.917 8  85161066.31047  20797202.720    20797197.0724
        50.800          42.1004
 120086945.742 7  93574209.13545  22851797.793    22851797.5964
        42.300          31.5004
 127935803.385 5  99690189.09942  24345382.850    24345377.2614
        33.100          13.9004
 130889423.463 6 101991735.58443  24907431.521    24907421.3594
        37.500          19.3004
 15  9 17  1 11 30.0000000  0 11G14G04G22G31G18G08G16G27G26G21G19
 114924301.560 7  89551395.01845  21869359.648    21869353.1204
        46.000          33.8004
 125176893.886 7  97540475.06843  23820356.550    23820354.2424
        42.800          22.3004
 110330249.461 8  85971578.16946  20995149.297    20995139.1944
        49.000          39.8004
 133792445.308 6 104253836.08043  25459853.402    25459853.3224
        39.700          19.0004
 124605597.792 6  97095226.91344  23711662.583    23711655.7034
        40.900          26.9004
 122161255.044 7  95190589.72044  23246512.687    23246510.1454
        42.200          27.9004
 115007741.669 7  89616382.35045  21885251.577    21885244.2884
        47.900          34.7004
 109239215.752 8  85121452.15747  20787528.387    20787522.3284
        51.200          42.3004
 120175283.434 7  93643043.48945  22868608.221    22868607.4964
        42.600          30.7004
 127966486.120 5  99714137.07042  24351212.041    24351206.4524
        31.900          13.9004
 130794083.117 5 101917444.44243  24889288.697    24889279.3564
        35.900          18.3004
 15  9 17  1 12  0.0000000  0 11G14G04G22G31G18G08G16G27G26G21G19
 114886937.765 7  89522280.42145  21862249.468    21862242.9994
        45.800          33.4004
 125124383.016 7  97499557.65243  23810363.399    23810360.7984
        42.700          22.5004
 110383523.307 8  86013090.24346  21005287.130    21005277.2614
        49.500          39.6004
 133781989.175 6 104245688.47143  25457865.025    25457864.8284
        39.900          18.6004
 124689250.263 6  97160410.57844  23727582.485    23727574.5514
        41.400          24.7004
 122067540.709 7  95117565.63544  23228679.618    23228676.7834
        42.200          26.8004
 115068129.779 7  89663437.94845  21896743.130    21896736.4854
        47.300          35.2004
 109188736.467 8  85082117.66247  20777922.982    20777916.7484
        51.500          42.1004
 120263704.666 7  93711942.94945  22885434.451    22885433.7264
        43.200          31.4004
 127997139.592 5                  24357045.600
        32.400
 130698697.309 6 101843117.91743  24871135.943    24871127.4234
        36.200          18.6004
 15  9 17  1 12 30.0000000  0 11G14G04G22G31G18G08G16G27G26G21G19
 114849978.211 7  89493480.81545  21855215.739    21855209.6224
        45.600          32.7004
 125071876.876 7  97458643.93143  23800372.468    23800368.1684
        42.000          21.7004
 110437056.825 8  86054804.64846  21015473.918    21015464.2254
        48.600          39.5004
                                  25455809.840
        30.100
 124772898.344 7  97225590.82543  23743499.728    23743492.6154
        42.900          23.0004
 121973912.348 7  95044608.53744  23210863.621    23210859.7894
        43.000          28.6004
 115128864.663 7  89710763.75245  21908300.516    21908294.1654
        47.200          34.7004
 109138624.298 8  85043069.22546  20768386.586    20768380.6454
        51.500          41.6004
 120352212.257 7  93780909.69245  22902276.893    22902276.5784
        42.600          30.6004
                                  24362882.697
        31.800
 130603273.532 6 101768761.84142  24852977.054    24852968.6514
        36.800          17.8004
 15  9 17  1 13  0.0000000  0 10G14G04G22G18G08G16G27G26G21G19
 114813409.701 7  89464985.91545  21848257.035    21848250.8604
        45.900          33.5004
 125019359.600 6  97417721.55143  23790378.056    23790374.7524
        41.400          21.1004
 110490831.908 8  86096707.29046  21025707.103    21025697.5864
        49.800          38.9004
 124856524.902 7  97290754.30344  23759412.317    23759406.4934
        42.300          24.4004
 121880356.271 7  94971707.75944  23193059.756    23193056.7454
        42.300          28.3004
 115189928.872 7  89758346.16545  21919920.496    21919913.9694
        46.800          35.1004
 109088866.261 8  85004296.72847  20758917.825    20758912.0004
        50.700          42.4004
 120440787.899 7  93849929.46345  22919132.227    22919131.5614
        42.900          30.5004
 128058509.114 5                  24368724.076
        33.100
 130507798.041 6 101694365.35843  24834810.992    24834801.2994
        39.400          20.6004
 15  9 17  1 13 30.0000000  0 10G14G04G22G18G08G16G27G26G21G19
 114777248.831 7  89436808.65145  21841376.224    21841369.9894
        46.700          33.0004
 124966845.234 6  97376801.42043  23780384.414    23780382.6344
        41.300          21.7004
 110544860.924 8  86138807.78346  21035988.542    21035978.8494
        49.300          39.6004
 124940142.607 6  97355910.89444  23775324.636    23775318.2844
        41.400          25.3004
 121786889.847 7  94898876.84144  23175274.193    23175270.5974
        43.500          28.1004
 115251333.799 7  89806194.08145  21931605.837    21931598.9584
        47.100          35.0004
 109039479.178 8  84965813.28947  20749519.942    20749513.4734
        51.400          42.3004
 120529443.091 7  93919011.24245  22936003.506    22936002.6644
        42.900          30.8004
 128089222.863 5                  24374568.615
        34.300
 130412287.416 6 101619941.51443  24816633.921    24816626.2804
        37.000          20.4004
 15  9 17  1 14  0.0000000  0 10G14G04G22G18G08G16G27G26G21G19
 114741493.375 7  89408947.30045  21834572.084    21834565.5574
        47.100          33.3004
 124914329.170 6  97335879.96643  23770390.387    23770388.3734
        41.600          21.8004
 110599137.651 8  86181101.30046  21046317.125    21046307.0804
        49.300          39.1004
 125023745.541 6  97421055.97444  23791233.982    23791227.1614
        41.400          24.2004
 121693511.302 7  94826114.40444  23157504.824    23157500.9924
        43.700          28.1004
 115313071.999 7  89854301.69145  21943353.967    21943347.3224
        47.500          35.3004
 108990461.217 8  84927617.48647  20740192.174    20740186.3504
        50.700          42.0004
 120618170.674 6  93988149.40844  22952887.395    22952887.1974
        41.800          29.4004
 128119961.617 5                  24380417.197
        33.000
 130316739.181 6 101545488.35343  24798452.692    24798445.5204
        38.100          22.5004
 15  9 17  1 14 30.0000000  0 10G14G04G22G18G08G16G27G26G21G19
 114706144.919 7  89381403.09645  21827845.391    21827838.9224
        46.400          33.6004
 124861809.753 6  97294955.84443  23760397.306    23760394.2964
        41.200          21.7004
 110653658.817 8  86223585.29646  21056691.771    21056681.9624
        49.200          39.7004
 125107331.692 7  97486187.98044  23807139.846    23807133.2014
        42.700          25.2004
 121600222.025 7  94753421.52144  23139752.218    23139748.8564
        42.300          28.6004
 115375139.896 8  89902666.21945  21955165.287    21955159.2294
        48.300          34.9004
 108941813.784 8  84889710.40446  20730934.542    20730928.8934
        50.900          41.7004
 120706966.678 7  94057340.88645  22969784.662    22969784.8754
        42.500          30.3004
 128150721.237 5                  24386270.570
        32.300
 130221154.033 6 101471006.50143  24780263.018    24780255.6704
        37.300          22.0004
 15  9 17  1 15  0.0000000  0 10G14G04G22G18G08G16G27G26G21G19
 114671205.693 7  89354177.76345  21821197.025    21821190.0284
        45.800          33.3004
 124809287.086 6  97254029.21643  23750401.564    23750400.2524
        41.300          22.5004
 110708422.908 8  86266258.58646  21067113.188    21067103.2614
        48.600          38.9004
 125190899.746 7  97551305.91044  23823042.685    23823035.8064
        42.300          24.0004
 121507024.896 7  94680800.44444  23122017.487    23122013.3634
        42.500          27.8004
 115437535.620 8  89951286.16945  21967038.918    21967032.9184
        48.800          35.6004
 108893539.936 8  84852094.42547  20721748.627    20721742.8034
        50.200          42.2004
 120795828.932 6  94126584.00345  22986695.013    22986694.8164
        41.800          30.4004
 128181506.052 5                  24392128.726
        34.600
 130125534.706 6 101396497.99443  24762068.523    24762059.8274
        38.400          22.2004
 15  9 17  1 15 30.0000000  0 10G14G04G22G18G08G16G27G26G21G19
 114636678.493 7  89327273.48745  21814626.541    21814619.9554
        45.800          33.8004
 124756760.768 6  97213099.79743  23740405.471    23740404.0434
        40.100          21.1004
 110763427.542 8  86309119.30446  21077580.678    21077570.5754
        48.700          38.6004
 125274448.156 7  97616408.50244  23838941.124    23838934.4794
        42.800          24.3004
 121413922.174 7  94608252.92844  23104300.493    23104297.1314
        42.200          29.7004
 115500255.973 8  90000159.08945  21978974.558    21978968.0904
        48.700          35.5004
 108845641.842 8  84814771.23647  20712633.643    20712628.2294
        50.300          42.3004
 120884754.269 7  94195876.23144  23003617.338    23003616.3204
        42.900          29.6004
 128212316.591 5                  24397992.638
        34.500
 130029882.584 6 101321963.93243  24743866.760    24743857.8304
        37.500          22.0004
 15  9 17  1 16  0.0000000  0 11G14G04G22G31G18G08G16G27G26G21G19
 114602564.456 7  89300691.17345  21808134.823    21808128.4714
        47.000          34.1004
 124704229.517 6  97172166.53443  23730409.813    23730407.2714
        41.000          22.0004
 110818669.910 8  86352165.26646  21088092.954    21088082.8524
        48.300          38.8004
 133685828.408 5                  25439564.696
        35.500
 125357973.872 6  97681493.42644  23854835.726    23854828.6124
        41.400          25.4004
 121320915.659 7  94535780.37944  23086601.309    23086597.9464
        43.400          28.4004
 115563297.278 8  90049282.10945  21990970.443    21990963.9744
        48.500          34.8004
 108798121.179 8  84777742.16247  20703590.827    20703585.2384
        50.200          42.0004
 120973739.055 7  94265214.82644  23020550.616    23020550.4194
        42.600          29.7004
 128243153.532 5                  24403859.455
        33.200
 129934198.915 6 101247405.25643  24725656.610    24725649.3214
        37.200          22.8004
 15  9 17  1 16 30.0000000  0 11G14G04G22G31G18G08G16G27G26G21G19
 114568868.274 7  89274434.43645  21801722.639    21801715.8184
        45.800          34.0004
 124651695.384 7  97131230.99243  23720412.962    23720409.8344
        42.700          22.5004
 110874150.301 8  86395396.70446  21098650.307    21098640.1454
        48.700          38.6004
 133672252.427 6                  25436982.174
        39.500
 125441478.205 7  97746561.68144  23870726.483    23870719.1354
        44.100          24.7004
 121228010.610 7  94463386.89244  23068922.532    23068919.4044
        43.700          29.9004
 115626659.387 7  90098655.09245  22003028.061    22003021.7684
        47.900          34.7004
 108750982.622 8  84741010.82846  20694620.716    20694615.1264
        50.300          41.8004
 121062782.795 6  94334599.34944  23037494.691    23037494.9044
        41.800          29.6004
 128274020.420 5                  24409733.407
        32.400
 129838487.791 6 101172825.23943  24707442.771    24707435.8924
        38.700          21.8004
 15  9 17  1 17  0.0000000  0 11G14G04G22G31G18G08G16G27G26G21G19
 114535589.871 7  89248503.25645  21795390.026    21795383.1474
        45.500          33.8004
 124599156.094 7  97090291.43243  23710415.410    23710412.7504
        42.800          23.8004
 110929864.535 7  86438810.35646  21109252.631    21109242.0004
        47.800          38.2004
 133658332.482 5 104149337.02642  25434333.089    25434331.6024
        34.900          16.3004
 125524957.672 7  97811610.56144  23886612.212    23886604.6894
        42.600          24.0004
 121135207.130 7  94391072.56644  23051262.254    23051258.7164
        42.700          29.6004
 115690337.467 8  90148274.29445  22015145.815    22015138.9944
        48.500          34.4004
 108704226.891 8  84704577.79546  20685723.309    20685717.6024
        50.700          41.9004
 121151880.839 7  94404026.18544  23054449.948    23054450.3964
        42.100          29.6004
 128304916.604 5                  24415612.002
        32.500
 129742749.599 6 101098224.03943  24689225.165    24689217.4074
        38.800          20.6004
 15  9 17  1 17 30.0000000  0 10G14G04G22G18G08G16G27G26G21G19
 114502732.359 7  89222900.03045  21789137.150    21789130.0954
        45.400          33.0004
 124546612.131 7  97049348.20244  23700415.623    23700413.9604
        42.500          25.0004
 110985811.712 8  86482405.52146  21119899.270    21119888.4644
        48.100          38.8004
 125608411.645 7  97876639.59344  23902492.735    23902485.7384
        43.800          24.9004
 121042508.660 7  94318840.04644  23033622.237    23033618.9334
        42.900          29.1004
 115754329.576 8  90198138.19645  22027322.540    22027316.5404
        48.800          34.9004
 108657857.180 8  84668445.56347  20676899.488    20676894.0164
        51.800          42.7004
 121241031.194 7  94473493.75344  23071415.676    23071415.5374
        42.200          28.6004
 128335844.243 5                  24421498.403
        33.500
 129646987.125 6 101023603.95443  24671003.120    24670995.3614
        39.200          21.1004
 15  9 17  1 18  0.0000000  0 11G14G04G22G31G18G08G16G27G26G21G19
 114470296.219 7  89197625.15445  21782964.520    21782958.5794
        45.500          33.8004
 124494061.553 7  97008399.83843  23690416.425    23690413.2974
        42.300          22.9004
 111041987.526 8  86526178.85346  21130589.171    21130578.5414
        48.300          38.3004
                                  25428838.590
        33.600
 125691836.990 7  97941646.30344  23918368.213    23918360.8064
        43.000          25.0004
 120949916.023 7  94246690.00444  23016002.917    23015999.2024
        43.300          29.9004
 115818630.947 8  90248243.08045  22039558.850    22039552.2064
        48.500          33.8004
 108611874.055 8  84632614.56346  20668148.885    20668143.2964
        50.600          41.8004
 121330229.222 6  94542998.48145  23088390.093    23088389.6614
        41.900          30.6004
 128366802.990 5                  24427390.255
        32.800
 129551200.215 6 100948964.83043  24652775.335    24652767.4594
        39.600          20.6004
 15  9 17  1 18 30.0000000  0 11G14G04G22G31G18G08G16G27G26G21G19
 114438282.293 7  89172679.27845  21776872.464    21776866.1124
        45.100          33.2004
 124441502.796 6  96967445.10243  23680413.898    23680410.7704
        41.200          21.7004
 111098388.902 8  86570127.94146  21141321.794    21141311.5154
        48.600          38.8004
 133614514.149 6 104115177.50343  25425995.559    25425992.0214
        39.800          21.8004
 125775231.263 7  98006628.78844  23934237.212    23934231.1534
        43.900          24.0004
 120857431.101 7  94174623.88345  22998403.273    22998399.2664
        43.000          30.2004
 115883238.068 8  90298586.21645  22051854.000    22051847.4724
        48.400          34.7004
 108566279.008 8  84597085.96647  20659472.749    20659466.6324
        51.200          42.4004
 121419471.206 7  94612537.44145  23105371.065    23105372.1574
        42.000          30.2004
 128397793.046 5                  24433286.611
        33.400
 129455390.083 6 100874307.54943  24634543.004    24634535.1874
        39.500          21.3004
 15  9 17  1 19  0.0000000  0 11G14G04G22G31G18G08G16G27G26G21G19
 114406696.465 7  89148066.97445  21770861.402    21770855.6374
        45.400          33.2004
 124388938.582 6  96926486.14943  23670411.967    23670408.4874
        41.300          21.5004
 111155016.794 8  86614253.53646  21152097.605    21152087.6204
        49.100          38.3004
 133599225.160 5 104103263.90643  25423085.294    25423084.2174
        35.500          18.6004
 125858595.813 7  98071588.15144  23950101.678    23950094.1544
        44.500          25.8004
 120765059.386 7  94102645.98644  22980825.454    22980821.9164
        42.300          29.4004
 115948151.027 8  90349167.65545  22064206.822    22064200.1774
        48.500          34.7004
 108521077.368 8  84561863.90847  20650871.362    20650865.1864
        51.000          42.3004
 121508757.217 6  94682110.73345  23122362.255    23122362.4094
        41.900          30.1004
 128428818.428 5                  24439191.872
        34.200
 129359561.635 6 100799636.04643  24616307.707    24616298.1914
        40.900          20.4004
 15  9 17  1 19 30.0000000  0 11G14G04G22G31G18G08G16G27G26G21G19
 114375539.026 7  89123788.48445  21764933.035    21764926.2144
        45.400          33.5004
 124336367.402 6  96885521.72443  23660407.894    23660403.9454
        41.600          21.8004
 111211868.293 8  86658553.37246  21162916.446    21162905.8744
        49.000          38.8004
 133583595.973 5 104091085.25642  25420111.055    25420109.6854
        34.700          16.9004
 125941928.072 7  98136522.33544  23965958.774    23965952.3054
        43.800          25.1004
 120672801.904 7  94030757.11244  22963268.943    22963265.6974
        42.500          29.5004
 116013365.971 7  90399984.39345  22076616.509    22076610.4504
        47.900          34.1004
 108476270.435 8  84526949.42847  20642344.831    20642338.6554
        51.500          42.4004
 121598083.438 6  94751715.34544  23139360.496    23139361.0614
        41.400          29.0004
 128459879.550 5                  24445102.469
        35.100
 129263715.765 6 100724950.97043  24598068.490    24598059.5604
        39.600          21.7004
 15  9 17  1 20  0.0000000  0 11G14G04G22G31G18G08G16G27G26G21G19
 114344812.049 7  89099845.42645  21759085.806    21759079.4554
        45.500          34.2004
 124283788.719 6  96844551.46643  23650402.737    23650399.4334
        41.600          22.5004
 111268940.819 8  86703025.44246  21173776.777    21173767.1434
        48.200          39.1004
 133567627.006 4 104078641.75942  25417074.055    25417071.5134
        28.900          13.9004
 126025226.754 7  98201430.33844  23981810.175    23981803.1794
        43.500          24.4004
 120580661.602 7  93958959.53744  22945735.557    22945731.7264
        42.800          29.8004
 116078879.946 8  90451034.16145  22089083.446    22089077.2114
        48.100          34.4004
 108431860.329 8  84492344.16547  20633894.165    20633887.4614
        51.900          42.9004
 121687446.788 6  94821348.88344  23156365.841    23156366.6404
        41.100          28.9004
 128490977.329 5                  24451018.446
        34.800
 129167854.550 6 100650253.96743  24579826.906    24579817.7994
        40.400          20.9004
 15  9 17  1 20 30.0000000  0 10G14G04G22G18G08G16G27G26G21G19
 114314518.465 7  89076240.06945  21753321.402    21753314.6404
        46.500          33.5004
 124231203.163 6  96803575.84843  23640395.783    23640391.6004
        40.400          22.3004
 111326233.069 8  86747668.73646  21184679.144    21184668.8664
        49.600          38.9004
 126108490.559 7  98266311.18444  23997654.815    23997648.0534
        43.300          24.9004
 120488641.485 7  93887255.60745  22928224.013    22928221.1204
        42.300          30.0004
 116144690.789 8  90502315.25545  22101606.909    22101600.4404
        48.200          33.5004
 108387850.303 8  84458050.64947  20625518.851    20625513.0854
        51.900          42.0004
 121776845.367 7  94891009.88845  23173378.397    23173378.7864
        42.000          30.0004
 128522114.001 5                  24456945.635
        34.500
 129071980.593 6 100575547.00943  24561582.766    24561573.7184
        41.100          22.2004
 15  9 17  1 21  0.0000000  0 10G14G04G22G18G08G16G27G26G21G19
 114284657.160 7  89052971.55845  21747638.505    21747632.1534
        46.600          34.4004
 124178606.905 6  96762591.87843  23630386.592    23630381.8234
        40.000          21.5004
 111383739.640 8  86792479.02146  21195622.397    21195612.5294
        48.900          38.6004
 126191715.464 7  98331161.70143  24013492.078    24013485.3754
        42.600          22.6004
 120396740.967 7  93815644.88645  22910736.300    22910732.3514
        42.700          30.0004
 116210792.449 7  90553822.95345  22114185.471    22114178.9444
        47.900          34.0004
 108344239.374 8  84424068.11647  20617219.901    20617214.0184
        51.300          42.3004
 121866273.080 6  94960693.59144  23190395.828    23190396.2164
        41.300          28.1004
 128553287.518 5                  24462878.328
        35.200
 128976092.660 6 100500829.15343  24543336.601    24543325.9714
        41.200          19.9004
 15  9 17  1 21 30.0000000  0 10G14G04G22G18G08G16G27G26G21G19
 114255232.476 7  89030043.26645  21742039.612    21742032.6744
        45.600          33.3004
 124126002.527 6  96721601.58543  23620375.649    23620372.1694
        40.400          22.5004
 111441460.999 8  86837456.69046  21206606.605    21206596.0924
        49.200          38.6004
 126274901.858 7  98395982.22444  24029321.535    24029315.2424
        42.500          25.6004
 120304964.832 7  93744131.08045  22893271.497    22893267.7834
        42.200          30.4004
 116277184.432 7  90605556.87845  22126819.616    22126812.9714
        47.600          33.7004
 108301032.280 8  84390400.25547  20608998.139    20608992.1984
        52.200          43.1004
 121955729.540 6  95030399.67944  23207419.530    23207419.9774
        41.400          28.2004
 128584501.559 6                  24468817.209
        36.000
 128880195.126 6 100426103.78743  24525086.664    24525078.0854
        41.600          22.8004
 15  9 17  1 22  0.0000000  0 10G14G04G22G18G08G16G27G26G21G19
 114226246.607 7  89007456.90145  21736523.678    21736516.7994
        46.000          33.6004
 124073389.454 7  96680604.54143  23610364.731    23610360.3144
        42.500          22.0004
 111499395.148 8  86882600.15546  21217630.977    21217621.1094
        48.400          38.3004
 126358048.779 7  98460771.98543  24045144.251    24045137.0794
        42.600          23.2004
 120213316.084 7  93672716.54345  22875831.078    22875827.8324
        43.200          30.4004
 116343864.055 8  90657514.93545  22139508.418    22139502.3004
        48.300          33.7004
 108258231.622 8  84357049.09247  20600853.551    20600847.5514
        51.900          43.1004
 122045212.211 6  95100126.18844  23224447.009    23224447.3984
        40.800          28.7004
 128615757.361 5                  24474766.134
        35.200
 128784290.425 6 100351372.85443  24506836.017    24506827.9074
        40.900          21.7004
 15  9 17  1 22 30.0000000  0 10G14G04G22G18G08G16G27G26G21G19
 114197700.562 7  88985213.27845  21731091.289    21731084.5864
        46.800          33.9004
 124020766.554 7  96639599.81843  23600351.063    23600346.5284
        42.500          23.8004
 111557539.054 8  86927907.06846  21228695.419    21228685.1994
        48.800          38.2004
 126441153.698 7  98525529.02743  24060958.850    24060951.6774
        42.000          23.2004
 120121796.433 7  93601402.63445  22858416.122    22858412.3494
        43.400          30.4004
 116410827.436 8  90709694.09245  22152251.202    22152244.6754
        48.800          33.3004
 108215838.592 8  84324015.57247  20592786.109    20592780.4604
        50.900          43.3004
 122134717.241 6  95169870.12344  23241479.121    23241480.3304
        40.900          28.3004
 128647055.266 5                  24480721.016
        35.400
 128688379.474 6 100276637.04243  24488584.914    24488576.2764
        41.100          22.0004
 15  9 17  1 23  0.0000000  0 10G14G04G22G18G08G16G27G26G21G19
 114169596.478 7  88963314.03145  21725742.736    21725736.3854
        46.900          33.3004
 123968133.688 6  96598587.27843  23590333.979    23590331.0274
        41.900          23.5004
 111615890.634 8  86973375.82446  21239799.019    21239789.2684
        48.800          38.2004
 126524215.557 7  98590252.50343  24076765.100    24076757.9864
        42.100          22.5004
 120030408.339 7  93530191.20145  22841025.244    22841021.4134
        43.000          30.4004
 116478071.959 8  90762092.33045  22165047.480    22165041.2464
        48.000          33.4004
 108173855.712 8  84291301.64047  20584796.965    20584791.3174
        51.300          42.6004
 122224242.068 6  95239629.47144  23258515.327    23258516.0084
        40.200          27.2004
 128678396.823 5                  24486684.806
        33.600
 128592464.249 6 100201897.90543  24470333.078    24470324.7344
        41.300          22.0004
 15  9 17  1 23 30.0000000  0 10G14G04G22G18G08G16G27G26G21G19
 114141936.169 7  88941760.58345  21720479.184    21720472.9504
        46.900          33.6004
 123915490.387 7  96557566.66843  23580316.657    23580313.1774
        42.200          22.8004
 111674447.841 7  87019004.78646  21250942.037    21250932.0514
        47.800          37.9004
 126607233.153 6  98654941.48243  24092562.735    24092555.1534
        41.000          22.3004
 119939154.740 7  93459084.57644  22823660.343    22823656.6874
        42.700          29.4004
 116545594.558 8  90814707.24345  22177896.452    22177890.5694
        48.000          33.6004
 108132285.255 8  84258909.08547  20576886.734    20576880.7924
        51.700          43.3004
 122313783.870 6  95309402.05344  23275555.311    23275556.5204
        40.800          28.3004
 128709783.451 5                  24492657.853
        32.000
 128496547.171 7 100127157.34743  24452081.940    24452071.8964
        42.700          22.0004
 15  9 17  1 24  0.0000000  0 10G14G04G22G18G08G16G27G26G21G19
 114114721.384 7  88920554.29945  21715301.031    21715294.2114
        47.300          34.5004
 123862836.335 6  96516537.65543  23570295.757    23570293.5084
        40.400          22.8004
 111733208.620 8  87064792.37646  21262124.341    21262114.1804
        48.600          38.0004
 126690204.471 6  98719594.41143  24108351.297    24108344.5944
        40.700          21.8004
 119848037.897 7  93388084.51344  22806321.043    22806317.5634
        42.600          29.6004
 116613392.405 8  90867536.64345  22190798.007    22190792.1834
        48.000          33.5004
 108091129.459 8  84226839.63547  20569054.787    20569048.9634
        51.100          43.3004
 122403339.928 6  95379185.73744  23292596.701    23292599.0824
        40.400          27.1004
 128741216.184 5                  24498638.701
        32.200
 128400630.225 7 100052416.89343  24433828.828    24433820.1324
        42.000          22.3004
 15  9 17  1 24 30.0000000  0 10G14G04G22G18G08G16G27G26G21G19
 114087954.220 7  88899696.82145  21710206.776    21710200.0144
        47.500          34.3004
 123810171.184 6  96475500.01043  23560274.207    23560270.9624
        41.200          22.9004
 111792170.537 7  87110736.70146  21273344.471    21273333.7244
        47.900          38.0004
 126773128.385 6  98784210.39943  24124131.367    24124123.7854
        41.400          21.5004
 119757060.328 7  93317192.97744  22789008.299    22789004.9954
        42.400          29.8004
 116681462.389 8  90920578.08245  22203751.607    22203745.1974
        48.800          33.2004
 108050390.378 8  84195094.90247  20561302.524    20561296.5244
        50.900          43.0004
 122492907.211 6  95448978.16744  23309641.483    23309642.5164
        40.400          27.6004
 128772696.149 4                  24504629.667
        29.900
 128304715.051 6  99977677.82343  24415575.398    24415566.9374
        41.700          21.5004
 15  9 17  1 25  0.0000000  0 10G14G04G22G18G08G16G27G26G21G19
 114061640.102 7  88879192.36545  21705199.887    21705193.2424
        47.700          34.5004
 123757498.161 6  96434456.21143  23550251.238    23550247.5234
        41.900          23.6004
 111851334.785 8  87156838.69146  21284602.967    21284592.6304
        48.300          38.2004
 126856006.628 6  98848790.81543  24139903.152    24139895.7454
        41.100          21.5004
 119666228.139 7  93246414.72544  22771724.260    22771720.1354
        43.200          29.6004
 116749805.017 8  90973831.99545  22216756.912    22216750.3854
        48.300          33.5004
 108010073.686 8  84163679.29247  20553630.124    20553624.5934
        50.900          42.7004
 122582486.456 6  95518779.92844  23326687.664    23326688.7564
        40.200          27.3004
                                  24510631.506
        31.200
 128208807.333 7  99902944.54143  24397325.685    24397316.6964
        42.200          22.8004
 15  9 17  1 25 30.0000000  0 10G14G04G22G18G08G16G27G26G21G19
 114035769.145 7  88859033.21845  21700276.358    21700269.7724
        46.600          34.3004
 123704804.994 6  96393396.71643  23540223.762    23540220.4594
        41.100          22.9004
 111910687.954 8  87203087.88346  21295897.209    21295886.8134
        49.000          37.9004
 126938826.225 6  98913325.52443  24155662.826    24155656.2994
        39.600          22.6004
 119575532.088 7  93175742.56145  22754465.117    22754460.8764
        43.200          30.0004
 116818405.862 8  91027287.11045  22229811.699    22229804.7614
        48.700          32.7004
 107970169.988 8  84132585.50347  20546037.150    20546031.3854
        51.000          42.7004
 122672063.223 6  95588579.75544  23343734.084    23343735.5874
        40.400          25.9004
 128835810.712 4                  24516637.809
        28.300
 128112897.393 6  99828209.53844  24379074.441    24379065.8634
        41.400          24.5004
 15  9 17  1 26  0.0000000  0 10G14G04G22G18G08G16G27G26G21G19
 114010359.011 7  88839233.16645  21695440.575    21695434.6344
        47.600          34.3004
 123652107.885 6  96352334.16443  23530196.122    23530191.9984
        40.400          22.2004
 111970243.990 8  87249495.16746  21307230.474    21307220.2544
        48.700          37.7004
 127021602.300 6  98977826.32043  24171415.624    24171407.2214
        40.600          22.5004
 119484991.162 7  93105191.26245  22737236.371    22737231.6024
        43.900          31.0004
 116887278.163 8  91080953.74545  22242916.875    22242910.9924
        48.200          32.9004
 107930697.703 8  84101827.87247  20538525.626    20538519.6264
        51.800          43.0004
 122761650.935 6  95658388.10244  23360782.024    23360784.2884
        40.900          26.2004
                                  24522657.746
        28.900
 128017003.624 6  99753487.12443  24360825.134    24360818.0794
        41.800          22.6004
 15  9 17  1 26 30.0000000  0 10G14G04G22G18G08G16G27G26G21G19
 113985395.375 8  88819781.02445  21690690.463    21690684.2284
        48.200          34.9004
 123599390.137 6  96311255.50043  23520164.050    23520159.7504
        39.900          23.0004
 112029984.412 7  87296046.11146  21318598.623    21318588.5204
        47.300          37.8004
 127104316.809 6  99042279.13043  24187154.540    24187147.6024
        39.000          22.3004
 119394591.764 7  93034750.22945  22720033.635    22720028.3974
        44.300          31.3004
 116956402.831 8  91134817.03345  22256071.078    22256065.0784
        48.300          33.6004
 107891642.670 8  84071395.38947  20531093.779    20531087.6034
        50.900          42.7004
 122851230.637 6  95728190.17844  23377828.290    23377831.0234
        39.400          26.3004
 128899127.176 4                  24528686.186
        27.600
 127921111.836 6  99678766.27743  24342578.337    24342570.9894
        41.700          22.8004
 15  9 17  1 27  0.0000000  0  9G14G04G22G18G08G16G27G26G19
 113960895.821 7  88800690.51645  21686028.428    21686021.7244
        47.800          34.1004
 123546667.413 6  96270172.96043  23510131.536    23510127.3534
        40.800          22.9004
 112089923.343 8  87342751.75146  21330004.664    21329994.9134
        48.700          37.7004
 127186984.605 6  99106695.55243  24202886.042    24202879.3394
        39.800          22.2004
 119304352.751 7  92964434.16345  22702861.512    22702856.7434
        44.800          30.0004
 117025792.828 8  91188887.06845  22269276.043    22269269.5744
        48.700          33.2004
 107853023.185 8  84041302.27847  20523744.716    20523738.7164
        51.000          42.6004
 122940815.599 6  95797996.38644  23394876.202    23394877.8804
        40.500          26.7004
 127825240.190 6  99604061.11343  24324335.025    24324326.1534
        41.900          23.2004
 15  9 17  1 27 30.0000000  0  9G14G04G22G18G08G16G27G26G19
 113936850.226 7  88781953.72545  21681452.624    21681445.6864
        47.900          34.6004
 123493927.181 6  96229076.79843  23500095.602    23500091.3604
        40.700          22.2004
 112150045.788 8  87389600.38046  21341445.687    21341435.8194
        48.600          38.4004
 127269591.603 6  99171064.59343  24218605.976    24218598.5694
        40.200          22.5004
 119214263.893 7  92894235.11645  22685717.326    22685714.0234
        43.800          31.2004
 117095432.504 8  91243151.66845  22282527.651    22282521.7104
        48.100          32.4004
 107814828.829 8  84011540.44647  20516476.442    20516470.6184
        51.200          42.9004
 123030390.521 6  95867794.76144  23411922.521    23411923.7884
        40.600          27.5004
 127729378.049 7  99529363.37443  24306094.049    24306084.4154
        42.600          21.8004
 15  9 17  1 28  0.0000000  0  9G14G04G22G18G08G16G27G26G19
 113913264.771 8  88763575.51145  21676964.350    21676957.5884
        48.400          33.8004
 123441173.529 7  96187970.18343  23490056.327    23490052.8484
        42.000          22.9004
 112210354.479 8  87436594.13446  21352922.586    21352912.0154
        48.000          38.2004
 127352141.141 6  99235388.85343  24234315.307    24234307.3724
        40.200          21.8004
 119124332.360 7  92824158.67445  22668604.031    22668600.0824
        44.300          31.1004
 117165323.583 8  91297612.14645  22295827.748    22295821.8654
        48.500          33.6004
 107777066.453 8  83982115.22647  20509290.649    20509284.7664
        50.900          42.6004
 123119957.347 6  95937586.82344  23428966.843    23428967.2904
        40.500          27.7004
 127633532.467 6  99454678.52644  24287854.505    24287846.4544
        39.600          24.4004
 15  9 17  1 28 30.0000000  0  9G14G04G22G18G08G16G27G26G19
 113890141.220 8  88745557.22445  21672563.799    21672557.5064
        48.000          33.7004
 123388406.423 6  96146853.05244  23480015.222    23480011.5084
        41.200          24.9004
 112270847.367 7  87483731.43846  21364433.460    21364423.5924
        47.500          37.8004
 127434632.175 6  99299667.53543  24250012.096    24250005.1584
        40.000          22.0004
 119034561.154 7  92754207.12545  22651521.304    22651517.2974
        44.300          30.6004
 117235463.297 8  91352266.37245  22309175.142    22309169.1424
        48.100          32.7004
 107739738.152 8  83953028.23947  20502187.564    20502181.3294
        51.200          42.7004
 123209513.320 6  96007370.42444  23446008.977    23446010.4214
        40.100          26.0004
 127537705.479 6  99380008.18043  24269619.610    24269610.6794
        40.500          23.5004
 15  9 17  1 29  0.0000000  0  9G14G04G22G18G08G16G27G26G19
 113867480.873 8  88727899.86445  21668252.360    21668245.4224
        48.300          35.2004
 123335625.258 6  96105725.01044  23469970.269    23469967.5514
        41.900          24.1004
 112331521.992 8  87531010.35046  21375980.081    21375969.3924
        48.900          37.6004
 127517062.762 6  99363899.13443  24265698.133    24265690.7854
        40.100          21.1004
 118944952.201 7  92684382.02845  22634469.597    22634465.8244
        43.900          30.2004
 117305848.188 8  91407111.63645  22322569.062    22322562.9444
        48.500          33.1004
 107702845.752 8  83924280.91747  20495166.929    20495161.1634
        50.700          43.3004
 123299055.425 6  96077143.21944  23463048.528    23463049.6784
        40.200          26.2004
 127441898.631 6  99305353.52644  24251386.629    24251379.9264
        38.400          25.3004
 15  9 17  1 29 30.0000000  0  9G14G04G22G18G08G16G27G26G19
 113845284.900 8  88710604.36345  21664027.673    21664021.3794
        48.100          34.8004
 123282829.410 7  96064585.50044  23459924.599    23459920.0654
        42.200          24.8004
 112392375.985 7  87578429.02346  21387559.785    21387549.3904
        47.500          37.8004
 127599431.531 6  99428082.57343  24281372.794    24281365.1534
        40.100          21.3004
 118855507.978 7  92614685.28645  22617448.347    22617444.3994
        42.900          30.4004
 117376475.002 8  91462145.42345  22336008.974    22336003.1504
        48.400          33.3004
 107666390.995 8  83895874.61347  20488230.029    20488223.9704
        50.700          43.1004
 123388580.484 6  96146902.74144  23480085.287    23480085.8514
        41.400          27.1004
 127346114.063 6  99230716.22343  24233160.387    24233152.2774
        41.300          23.2004
 15  9 17  1 30  0.0000000  0  9G14G04G22G18G08G16G27G26G19
 113823555.306 7  88693672.25545  21659893.276    21659886.3974
        47.700          34.6004
 123230018.833 7  96023434.50943  23449874.958    23449870.8924
        43.200          22.9004
 112453407.338 8  87625985.90246  21399173.317    21399163.8014
        48.300          37.4004
 127681737.020 6  99492216.68043  24297035.544    24297027.3174
        40.400          22.5004
 118766231.337 7  92545119.12245  22600459.929    22600456.1574
        44.500          31.9004
 117447341.268 8  91517365.78845  22349493.984    22349488.4534
        48.500          32.8004
 107630376.351 8  83867811.25047  20481376.604    20481370.8394
        51.800          43.5004
 123478086.279 6  96216647.23544  23497117.244    23497118.9224
        41.100          26.2004
 127250354.162 6  99156098.15144  24214938.220    24214929.9344
        41.900          24.9004
 15  9 17  1 30 30.0000000  0  9G14G04G22G18G08G16G27G26G19
 113802292.975 7  88677104.26545  21655847.196    21655840.6104
        47.200          34.6004
 123177192.443 7  95982271.19644  23439822.179    23439818.2894
        42.800          24.7004
 112514613.001 8  87673678.61246  21410820.573    21410810.7054
        48.000          37.3004
 127763977.500 6  99556300.12243  24312684.922    24312676.8124
        40.200          22.0004
 118677124.199 7  92475685.04245  22583503.310    22583499.5374
        43.800          31.1004
 117518442.838 7  91572769.51345  22363024.459    22363019.0454
        47.700          32.7004
 107594802.868 8  83840091.65447  20474607.038    20474601.3894
        50.500          43.5004
 123567569.066 7  96286373.81544  23514146.021    23514147.1124
        42.300          27.8004
 127154620.147 6  99081500.22944  24196721.308    24196712.0254
        41.400          25.4004
 15  9 17  1 31  0.0000000  0  9G14G04G22G18G08G16G27G26G19
 113781500.493 7  88660902.39345  21651890.150    21651884.0914
        47.000          34.6004
 123124350.986 7  95941096.15144  23429767.245    23429762.4764
        42.800          26.5004
 112575992.133 8  87721506.49846  21422500.630    21422490.5864
        48.200          37.3004
 127846152.481 6  99620332.55443  24328322.213    24328314.9244
        41.300          22.3004
 118588190.108 7  92406385.81945  22566579.333    22566575.6784
        44.000          30.7004
 117589777.774 7  91628355.06445  22376598.973    22376592.9734
        46.800          32.7004
 107559673.716 8  83812718.28447  20467922.378    20467916.3204
        51.100          43.5004
 123657027.192 6  96356081.16944  23531168.689    23531170.8364
        40.500          26.4004
 127058915.072 6  99006924.89144  24178507.649    24178500.7704
        40.300          26.7004
 15  9 17  1 31 30.0000000  0  9G14G04G22G18G08G16G27G26G19
 113761180.450 7  88645068.65745  21648023.769    21648016.9484
        47.200          35.6004
 123071494.989 7  95899909.76444  23419708.023    23419704.7784
        42.700          25.8004
 112637543.111 7  87769468.28046  21434213.428    21434203.6774
        47.200          37.3004
 127928260.981 7  99684313.17243  24343946.500    24343938.8594
        42.400          21.7004
 118499432.237 7  92337223.88945  22549690.106    22549685.1034
        44.300          31.2004
 117661343.935 7  91684120.79945  22390217.738    22390211.6214
        46.100          32.0004
 107524991.549 8  83785693.21147  20461322.749    20461316.8084
        51.600          43.7004
 123746458.579 6  96425767.67444  23548187.556    23548189.5864
        40.300          27.7004
 126963241.712 6  98932374.24244  24160301.615    24160294.0324
        40.700          26.0004
 15  9 17  1 32  0.0000000  0  9G14G04G22G18G08G16G27G26G19
 113741333.088 7  88629603.22245  21644246.351    21644240.1754
        46.900          35.1004
 123018623.430 7  95858711.26044  23409647.313    23409643.8924
        42.600          24.7004
 112699263.349 8  87817561.95346  21445958.688    21445948.1754
        48.700          37.4004
 128010301.312 6  99748240.68943  24359558.698    24359550.7054
        38.900          21.7004
 118410852.928 7  92268201.11745  22532833.586    22532829.4614
        44.200          31.3004
 117733137.559 7  91740063.77645  22403879.923    22403873.6894
        46.600          32.3004
 107490757.826 8  83759017.58847  20454807.791    20454801.7914
        51.000          43.2004
 123835860.064 6  96495430.88644  23565199.497    23565202.1134
        40.600          26.4004
 126867601.874 7  98857849.73544  24142102.807    24142094.9904
        42.000          27.1004
 15  9 17  1 32 30.0000000  0  9G14G04G22G18G08G16G27G26G19
 113721959.882 7  88614507.27345  21640559.760    21640553.6434
        47.500          34.8004
 122965735.649 7  95817500.10543  23399582.488    23399578.8324
        42.400          22.9004
 112761150.353 7  87865785.56746  21457735.503    21457725.3414
        47.800          37.1004
 128092271.864 6  99812113.81243  24375156.270    24375150.0354
        39.600          21.5004
 118322454.509 7  92199319.30045  22516011.968    22516007.7854
        44.700          32.2004
 117805155.387 7  91796181.46045  22417584.192    22417578.4854
        46.600          33.3004
 107456974.144 8  83732692.64247  20448379.104    20448373.6324
        50.800          43.5004
 123925228.362 6  96565068.21344  23582205.836    23582208.4524
        40.600          25.7004
 126771997.264 6  98783352.68543  24123908.996    24123902.3514
        39.400          22.9004
 15  9 17  1 33  0.0000000  0  9G14G04G22G18G08G16G27G26G19
 113703062.885 7  88599782.38945  21636963.697    21636956.9354
        47.500          34.9004
 122912832.091 7  95776276.65543  23389515.185    23389511.4124
        42.000          23.0004
 112823202.182 8  87914137.62246  21469543.366    21469533.6734
        48.800          37.5004
 128174171.514 6  99875931.65443  24390741.769    24390734.8324
        39.500          21.5004
 118234239.372 7  92130580.30345  22499225.281    22499220.7464
        45.500          31.5004
 117877394.710 7  91852471.72945  22431331.277    22431325.9224
        47.000          32.4004
 107423642.786 8  83706720.15647  20442036.408    20442030.5254
        50.700          43.8004
 124014561.259 6  96634677.96444  23599205.961    23599208.1674
        40.600          26.5004
 126676430.197 6  98708884.88744  24105722.757    24105715.9954
        39.400          24.1004
 15  9 17  1 33 30.0000000  0 10G14G04G22G18G08G16G27G26G21G19
 113684639.076 8  88585426.22545  21633458.128    21633451.1914
        48.500          34.9004
 122859907.759 7  95735037.02544  23379444.161    23379440.4474
        42.300          24.7004
 112885412.489 8  87962613.17446  21481381.152    21481371.7534
        48.000          37.7004
 128255994.831 6  99939690.07643  24406312.084    24406305.3224
        40.500          21.5004
 118146205.967 7  92061982.92545  22482472.958    22482468.5404
        45.200          32.4004
 117949847.711 7  91908928.48445  22445118.379    22445113.5514
        46.700          32.4004
 107390761.424 8  83681098.31147  20435779.214    20435773.2144
        51.400          43.4004
 124103851.635 6  96704254.61344  23616198.003    23616200.2674
        41.000          25.6004
 129348778.873 5                  24614253.084
        32.400
 126580898.656 6  98634444.74844  24087544.265    24087536.5664
        41.200          24.8004
 15  9 17  1 34  0.0000000  0 11G14G04G22G11G18G08G16G27G26G21G19
 113666696.549 8  88571445.08545  21630043.811    21630036.8734
        48.800          34.6004
 122806969.150 7  95693786.28443  23369370.071    23369365.3604
        42.400          23.6004
 112947785.973 8  88011215.86546  21493250.438    21493240.7464
        48.200          37.5004
 132079470.835 6                  25133887.572
        40.200
 128337747.330 6 100003393.28243  24421869.029    24421861.8574
        40.600          20.9004
 118058363.774 7  91993534.52945  22465757.345    22465752.5764
        45.800          32.4004
 118022518.322 7  91965554.82245  22458947.303    22458942.1234
        47.100          32.1004
 107358338.617 8  83655833.79947  20429609.617    20429603.3834
        50.700          43.4004
 124193103.482 6  96773801.21344  23633181.968    23633183.4704
        40.400          27.6004
 129381380.167 5                  24620459.434
        34.900
 126485411.422 6  98560039.15143  24069373.164    24069366.4024
        40.300          23.8004
 15  9 17  1 34 30.0000000  0 11G14G04G22G11G18G08G16G27G26G21G19
 113649233.446 8  88557837.51645  21626720.589    21626713.9444
        48.300          34.8004
 122754012.766 6  95652521.64643  23359292.456    23359288.4494
        41.900          22.8004
 113010316.894 7  88059941.24946  21505149.820    21505140.1874
        47.900          37.3004
 131998661.878 6 102856087.64643  25118512.015    25118507.1284
        41.400          19.6004
 128419424.127 6 100067037.49143  24437410.339    24437404.3394
        39.400          20.9004
 117970712.143 7  91925234.62745  22449077.509    22449073.3264
        45.300          31.9004
 118095400.187 8  92022345.77645  22472817.130    22472810.2514
        48.200          31.9004
 107326372.962 8  83630925.50247  20423526.607    20423520.9004
        50.500          43.8004
 124282310.845 6  96843313.16044  23650157.974    23650159.6524
        40.200          26.4004
 129414053.857 5                  24626676.316
        34.200
 126389967.071 6  98485666.95844  24051212.059    24051203.8904
        40.900          26.1004
 15  9 17  1 35  0.0000000  0 11G14G04G22G11G18G08G16G27G26G21G19
 113632252.958 8  88544606.00345  21623489.612    21623482.1474
        48.700          33.7004
 122701040.369 7  95611244.57144  23349211.604    23349208.0664
        42.600          25.3004
 113073005.106 8  88108789.17446  21517079.413    21517069.5454
        48.100          38.0004
 131917759.660 6 102793047.02942  25103115.964    25103110.3744
        39.300          16.9004
 128501025.830 6 100130623.19743  24452940.061    24452932.7134
        40.000          19.9004
 117883255.560 7  91857086.71845  22432435.039    22432430.1534
        45.500          32.6004
 118168492.166 7  92079300.45145  22486725.671    22486719.7304
        47.500          32.3004
 107294868.292 8  83606376.42447  20417531.455    20417525.3964
        49.900          43.9004
 124371472.859 6  96912789.74244  23667125.607    23667127.2854
        39.800          26.6004
 129446801.189 5                  24632906.628
        33.900
 126294570.152 6  98411331.73344  24033058.172    24033051.0004
        41.300          25.6004
 15  9 17  1 35 30.0000000  0 11G14G04G22G11G18G08G16G27G26G21G19
 113615755.641 8  88531750.99545  21620349.503    21620342.6244
        48.700          33.9004
 122648050.875 7  95569954.16444  23339128.718    23339125.2974
        42.500          25.1004
 113135847.524 8  88157757.27746  21529037.862    21529027.7014
        49.000          38.2004
 131836763.764 6 102729933.38842  25087702.581    25087697.1674
        41.300          17.8004
 128582550.433 6 100194148.83843  24468453.987    24468446.3454
        40.600          21.5004
 117795996.149 7  91789092.44945  22415830.162    22415825.9794
        46.000          32.6004
 118241790.708 7  92136416.07345  22500673.178    22500668.7024
        47.000          30.9004
 107263825.757 8  83582187.45047  20411624.201    20411618.6704
        49.800          43.8004
 124460586.143 6  96982228.37644  23684082.726    23684085.7524
        39.900          25.5004
 129479622.353 5                  24639152.108
        32.900
 126199221.712 6  98337034.28043  24014913.090    24014905.8004
        39.200          22.9004
 15  9 17  1 36  0.0000000  0 11G14G04G22G11G18G08G16G27G26G21G19
 113599743.107 8  88519273.74545  21617302.512    21617296.1024
        48.100          34.9004
 122595043.991 7  95528650.15844  23329042.536    23329038.2944
        44.000          25.8004
 113198842.137 7  88206843.95546  21541025.386    21541015.6354
        47.900          37.8004
 131755674.595 6 102666747.06942  25072269.996    25072265.8134
        36.900          17.4004
 128663996.713 6 100257613.43543  24483952.245    24483945.2494
        39.300          20.6004
 117708936.133 7  91721253.54145  22399262.908    22399259.0184
        45.400          32.6004
 118315292.360 7  92193689.97045  22514660.215    22514655.5044
        46.100          30.7004
 107233247.046 8  83558359.89047  20405805.318    20405799.0844
        50.200          43.7004
 124549647.940 6  97051626.88744  23701031.290    23701034.1404
        38.800          25.1004
 129512518.623 5                  24645412.734
        33.700
 126103924.086 6  98262776.41944  23996779.383    23996771.5074
        40.400          24.9004
 15  9 17  1 36 30.0000000  0 11G14G04G22G11G18G08G16G27G26G21G19
 113584216.207 8  88507174.89745  21614348.027    21614340.9144
        48.200          34.8004
 122542019.359 7  95487332.33744  23318950.825    23318947.6974
        42.400          25.7004
 113261986.681 8  88256047.48246  21553041.156    21553031.4634
        48.800          37.9004
 131674492.612 6 102603488.40842  25056821.923    25056817.6814
        36.800          15.6004
 128745362.656 6 100321015.43543  24499435.899    24499428.6094
        40.900          19.0004
 117622077.645 7  91653571.67245  22382734.598    22382730.4154
        46.000          33.2004
 118388993.547 7  92251119.33245  22528685.881    22528680.5854
        45.900          30.6004
 107203133.706 8  83534894.97547  20400074.896    20400069.3654
        51.000          44.0004
 124638655.172 6  97120982.86044  23717968.960    23717971.0484
        39.600          24.6004
 129545488.644 5                  24651688.041
        33.900
 126008679.277 6  98188559.71444  23978655.468    23978647.5344
        41.400          24.4004
 15  9 17  1 37  0.0000000  0 11G14G04G22G11G18G08G16G27G26G21G19
 113569176.006 8  88495455.28845  21611486.238    21611478.8904
        48.500          35.3004
 122488976.064 7  95445999.99944  23308857.526    23308854.3394
        42.600          25.7004
 113325278.789 8  88305365.97246  21565085.812    21565075.5924
        48.100          37.6004
 131593217.581 6 102540157.30542  25041357.447    25041352.4434
        40.000          17.4004
 128826646.956 6 100384353.80643  24514904.495    24514896.5024
        40.900          20.6004
 117535423.182 7  91586048.78745  22366244.455    22366240.5654
        45.700          32.6004
 118462890.967 7  92308701.61945  22542747.810    22542742.6904
        46.000          30.8004
 107173487.236 8  83511793.84647  20394433.653    20394427.2434
        50.300          44.0004
 124727604.871 6  97190294.04344  23734895.748    23734898.3644
        39.200          26.4004
 129578537.671 5                  24657975.704
        35.100
 125913489.001 6  98114385.50544  23960540.024    23960532.9114
        41.100          25.5004
 15  9 17  1 37 30.0000000  0 11G14G04G22G11G18G08G16G27G26G21G19
 113554624.414 8  88484116.42145  21608716.706    21608709.8264
        48.300          35.1004
 122435914.761 7  95404653.62644  23298759.636    23298756.2734
        42.600          24.3004
 113388716.856 7  88354798.20746  21577157.641    21577147.4214
        47.600          37.8004
 131511850.962 6 102476754.78443  25025875.440    25025869.4404
        40.000          18.3004
 128907849.060 6 100447628.19243  24530355.729    24530348.9084
        39.700          20.6004
 117448976.064 7  91518687.45545  22349793.727    22349789.5444
        45.700          33.1004
 118536982.239 7  92366434.95145  22556847.415    22556841.4744
        46.400          31.3004
 107144310.143 8  83489058.47047  20388881.036    20388875.1544
        50.900          43.7004
 124816495.132 6  97259558.91744  23751810.284    23751813.9554
        39.100          24.0004
 129611665.587 5                  24664279.860
        33.300
 125818356.185 6  98040256.06944  23942438.092    23942429.3964
        40.900          25.6004
 15  9 17  1 38  0.0000000  0 11G14G04G22G11G18G08G16G27G26G21G19
 113540562.371 7  88473159.01445  21606040.906    21606034.1444
        46.400          34.9004
 122382835.113 7  95363292.96944  23288658.776    23288655.2964
        42.000          25.1004
 113452298.425 7  88404342.26546  21589256.223    21589246.3554
        47.200          37.8004
 131430392.324 6 102413280.55443  25010373.946    25010367.9464
        38.800          19.6004
 128988967.398 6 100510837.23343  24545791.627    24545784.8654
        40.200          20.1004
 117362738.601 7  91451489.48445  22333383.374    22333379.0734
        45.300          32.7004
 118611264.241 7  92424316.89845  22570982.816    22570977.4604
        45.400          31.3004
 107115604.000 8  83466690.06347  20383418.581    20383412.7564
        50.200          43.5004
 124905323.006 6  97328775.14544  23768714.503    23768717.5294
        38.100          24.2004
 129644878.662 5                  24670599.769
        32.400
 125723282.684 6  97966172.84144  23924344.321    23924337.5014
        40.400          25.0004
 15  9 17  1 38 30.0000000  0 11G14G04G22G11G18G08G16G27G26G21G19
 113526991.480 8  88462584.33545  21603457.829    21603451.2434
        48.500          34.9004
 122329736.893 7  95321917.84244  23278555.007    23278551.7034
        42.000          25.2004
 113516021.840 7  88453996.84346  21601382.915    21601372.1684
        47.200          37.0004
 131348842.762 5 102349735.48342  24994855.045    24994849.2214
        35.400          17.8004
 129070001.149 6 100573980.41343  24561212.115    24561205.3534
        40.800          19.3004
 117276713.842 7  91384457.27645  22317013.619    22317008.9094
        45.000          33.5004
 118685734.091 7  92482345.22945  22585153.726    22585148.8984
        46.700          30.8004
 107087370.798 8  83444690.18447  20378045.931    20378039.5794
        50.000          43.9004
 124994086.178 6  97397940.93843  23785606.380    23785608.8784
        39.900          22.8004
 129678168.497 5                  24676932.787
        31.000
 125628270.938 6  97892137.75243  23906264.398    23906257.4024
        41.400          23.8004
 15  9 17  1 39  0.0000000  0 11G14G04G22G11G18G08G16G27G26G21G19
 113513912.463 8  88452392.92246  21600969.393    21600962.3974
        49.400          36.0004
 122276619.994 7  95280528.13944  23268446.961    23268443.0124
        42.700          24.7004
 113579884.739 7  88503760.12246  21613535.157    21613525.1134
        46.800          37.4004
 131267202.514 6 102286119.77742  24979318.273    24979313.5044
        36.800          17.8004
 129150948.623 6 100637056.36843  24576616.163    24576609.4594
        41.100          19.9004
 117190904.204 7  91317592.67545  22300684.412    22300679.5254
        44.900          33.6004
 118760388.617 7  92540517.45345  22599360.543    22599355.6574
        47.200          30.7004
 107059612.224 8  83423060.14547  20372763.770    20372757.4774
        49.900          43.3004
 125082781.793 6  97467054.12044  23802484.523    23802487.0214
        39.800          24.7004
 129711538.527 5                  24683284.485
        33.100
 125533323.119 6  97818152.49743  23888197.231    23888189.4144
        40.600          23.6004
 15  9 17  1 39 30.0000000  0 11G14G04G22G11G18G08G16G27G26G21G19
 113501326.984 8  88442586.09145  21598574.646    21598567.7674
        48.700          35.5004
 122223484.186 6  95239123.71644  23258335.649    23258331.3494
        41.700          25.0004
 113643884.924 7  88553630.38046  21625714.656    21625704.0264
        47.300          37.2004
 131185472.111 6 102222433.79742  24963766.151    24963759.9754
        38.800          16.9004
 129231809.082 7 100700064.49843  24592003.915    24591996.5094
        42.000          20.1004
 117105312.336 7  91250897.76345  22284397.075    22284392.4824
        45.300          33.5004
 118835224.772 7  92598831.20545  22613601.064    22613596.5304
        46.400          31.8004
 107032329.954 8  83401801.24347  20367571.854    20367566.2644
        49.700          44.2004
 125171407.311 6  97536112.66343  23819349.726    23819352.3424
        39.600          22.3004
 129745000.667 5                  24689650.554
        32.400
 125438441.363 6  97744218.67843  23870141.524    23870133.8244
        40.200          23.5004
 15  9 17  1 40  0.0000000  0 11G14G04G22G11G18G08G16G27G26G21G19
 113489239.755 8  88433167.50145  21596274.089    21596267.7964
        48.900          35.1004
 122170333.068 7  95197707.36644  23248221.142    23248216.9594
        42.500          25.5004
 113708024.259 7  88603609.06246  21637919.681    21637909.6374
        47.800          37.8004
 131103655.577 6 102158680.68742  24948196.155    24948191.9134
        36.900          14.8004
 129312584.701 7 100763006.53043  24607374.705    24607367.4164
        42.700          21.1004
 117019944.758 7  91184377.62745  22268152.067    22268147.2394
        44.800          33.1004
 118910243.050 7  92657286.86745  22627876.868    22627872.3344
        47.200          30.9004
 107005529.388 8  83380917.68847  20362471.578    20362465.8134
        49.700          43.6004
 125259963.723 6  97605117.37544  23836201.112    23836204.6074
        39.500          24.4004
                                  24696033.677
        32.800
 125343631.715 6  97670341.06143  23852100.061    23852091.9514
        40.400          23.9004
 15  9 17  1 40 30.0000000  0 11G14G04G22G11G18G08G16G27G26G21G19
 113477644.662 8  88424132.40845  21594067.667    21594060.9054
        48.300          34.8004
 122117159.100 7  95156273.18044  23238103.485    23238098.8924
        43.700          26.5004
 113772293.211 7  88653688.73646  21650149.794    21650139.1634
        47.900          37.8004
 131021746.327 5 102094855.35542  24932609.282    24932604.3374
        35.800          15.6004
 129393267.091 7 100825875.92543  24622728.072    24622721.2524
        43.300          20.9004
 116934796.465 7  91118028.34945  22251948.230    22251943.8124
        44.900          33.3004
 118985433.164 7  92715876.43745  22642185.031    22642180.4964
        47.200          30.0004
 106979204.969 8  83360405.15347  20357462.697    20357456.7564
        50.000          43.3004
 125348441.156 6  97674060.51244  23853038.814    23853042.0744
        39.900          26.4004
                                  24702432.744
        31.800
 125248889.118 6  97596515.69743  23834071.318    23834063.3844
        40.500          23.5004
 15  9 17  1 41  0.0000000  0 11G14G04G22G11G18G08G16G27G26G21G19
 113466542.421 8  88415481.34445  21591954.992    21591948.2894
        48.800          35.1004
 122063961.681 7  95114820.74644  23227979.377    23227975.1944
        42.300          25.7004
 113836689.408 7  88703867.56846  21662403.565    21662393.8134
        47.300          37.7004
 130939744.669 5 102030958.00142  24917003.309    24916999.0674
        35.000          13.9004
 129473854.659 7 100888671.42843  24638063.475    24638056.6544
        42.600          22.5004
 116849869.944 7  91051851.88945  22235787.181    22235783.5254
        44.400          33.3004
 119060791.476 7  92774597.05644  22656525.427    22656520.9514
        46.200          29.9004
 106953358.023 8  83340264.68247  20352544.282    20352537.9894
        50.000          43.8004
 125436836.638 6  97742939.81144  23869859.325    23869863.8164
        39.400          24.0004
 129845862.625 5                  24708845.279
        31.900
 125154215.449 6  97522744.06944  23816054.764    23816047.8854
        41.600          25.6004
 15  9 17  1 41 30.0000000  0 11G14G04G22G11G18G08G16G27G26G21G19
 113455946.358 8  88407224.71045  21589938.721    21589931.4914
        48.600          35.1004
 122010753.301 7  95073359.79244  23217854.951    23217850.2404
        43.400          26.2004
 113901223.264 7  88754153.66446  21674683.856    21674674.7504
        46.900          37.5004
 130857662.906 5 101966998.19442  24901382.672    24901378.7824
        33.600          13.9004
 129554358.685 7 100951401.79843  24653382.870    24653375.9914
        42.200          22.2004
 116765180.246 7  90985859.97445  22219671.612    22219667.5464
        44.900          34.2004
 119136327.283 7  92833455.98744  22670899.475    22670894.7064
        47.200          29.9004
 106928002.572 8  83320507.18547  20347719.105    20347713.5154
        49.900          43.4004
 125525159.972 6  97811762.87943  23886666.952    23886670.7404
        39.500          22.8004
                                  24715277.768
        27.300
 125059625.444 7  97449037.58944  23798056.296    23798047.6004
        42.600          25.8004
 15  9 17  1 42  0.0000000  0 10G14G04G22G11G18G08G16G27G26G19
 113445845.236 7  88399353.74845  21588016.654    21588009.9514
        47.900          34.7004
 121957521.087 6  95031880.22944  23207724.630    23207720.2124
        41.900          27.7004
 113965879.775 7  88804535.33046  21686987.891    21686978.4924
        47.200          37.9004
 130775489.137 5 101902966.77842  24885747.669    24885742.6074
        33.500          15.6004
 129634765.346 7 101014056.33643  24668684.619    24668676.8024
        42.200          21.3004
 116680717.303 7  90920044.73545  22203598.142    22203594.8974
        44.500          34.5004
 119212024.884 7  92892440.98744  22685304.477    22685299.6504
        46.800          29.6004
 106903127.679 8  83301124.14847  20342985.874    20342979.8744
        50.000          43.6004
 125613395.961 6  97880517.92943  23903458.596    23903461.9154
        41.100          22.6004
 124965108.702 6  97375388.23044  23780068.924    23780062.2804
        41.600          24.8004
 15  9 17  1 42 30.0000000  0 11G14G04G22G11G18G08G16G27G26G21G19
 113436239.363 8  88391868.69345  21586189.101    21586182.1044
        48.700          35.1004
 121904264.288 6  94990381.52544  23197590.194    23197586.0114
        41.800          26.6004
 114030656.574 7  88855010.72646  21699314.831    21699304.5524
        47.700          38.1004
 130693223.744 5 101838863.84742  24870095.134    24870087.3174
        33.800          14.8004
 129715073.038 6 101076633.73043  24683966.435    24683958.7364
        41.800          22.3004
 116596483.444 7  90854408.01045  22187569.655    22187565.7654
        45.100          34.2004
 119287881.070 7  92951549.54945  22699739.419    22699734.7674
        47.800          31.1004
 106878734.565 8  83282116.51947  20338343.928    20338338.0454
        51.200          44.0004
 125701541.583 6  97949202.55643  23920231.970    23920235.0544
        40.800          22.9004
 129947519.562 5                  24728190.854
        32.300
 124870666.695 6  97301797.14744  23762097.467    23762090.4124
        41.400          25.5004
 15  9 17  1 43  0.0000000  0 11G14G04G22G11G18G08G16G27G26G21G19
 113427140.621 8  88384778.80745  21584456.872    21584449.9934
        48.300          34.8004
 121850993.626 6  94948872.02344  23187451.731    23187448.3104
        40.400          25.2004
 114095562.659 7  88905586.85946  21711666.103    21711655.8254
        47.300          38.1004
 130610877.770 5 101774698.17142  24854422.990    24854417.8694
        34.300          13.9004
 129795291.080 6 101139141.26743  24699229.969    24699223.4424
        40.600          21.3004
 116512491.669 7  90788959.90845  22171586.331    22171582.2064
        45.000          34.6004
 119363903.312 8  93010787.50845  22714207.053    22714202.1674
        48.200          30.5004
 106854835.529 8  83263493.87547  20333796.098    20333789.9224
        50.100          43.7004
 125789604.969 6  98017823.08943  23936990.462    23936993.4304
        39.800          22.3004
 129981588.166 4                  24734672.035
        29.100
 124776312.751 6  97228274.63344  23744142.403    23744134.2934
        41.700          25.5004
 15  9 17  1 43 30.0000000  0 11G14G04G22G11G18G08G16G27G26G21G19
 113418548.365 8  88378083.58345  21582822.411    21582815.1804
        49.100          35.9004
 121797707.173 6  94907350.17244  23177312.649    23177308.5834
        41.800          25.1004
 114160593.764 7  88956260.41346  21724041.350    21724031.1304
        47.900          37.6004
 130528449.798 5 101710468.66742  24838737.772    24838733.1784
        34.800          16.9004
 129875416.948 6 101201576.95943  24714477.767    24714471.2994
        41.100          20.4004
 116428743.022 7  90723701.25945  22155649.175    22155645.7544
        45.100          33.8004
 119440086.525 7  93070150.90044  22728703.670    22728699.0774
        47.200          29.9004
 106831430.359 8  83245256.06647  20329341.905    20329335.9644
        50.300          43.9004
 125877581.762 6  98086376.08243  23953731.709    23953735.8494
        40.300          23.4004
                                  24741174.658
        28.900
 124682047.419 7  97154821.16144  23726205.078    23726196.7924
        42.700          26.7004
 15  9 17  1 44  0.0000000  0 10G14G04G22G11G18G08G16G27G26G19
 113410454.707 8  88371776.88045  21581281.726    21581274.7304
        48.300          35.3004
 121744396.090 6  94865809.13844  23167168.103    23167162.2794
        41.500          26.5004
 114225739.443 8  89007023.25946  21736438.248    21736428.0284
        48.100          37.7004
 130445932.147 5 101646169.17942  24823035.840    24823029.3134
        35.800          14.8004
 129955440.430 6 101263932.89743  24729705.848    24729699.8484
        41.300          19.6004
 116345231.937 7  90658627.73345  22139757.284    22139753.6874
        44.500          34.2004
 119516419.303 7  93129630.84345  22743229.223    22743224.7474
        46.700          30.4004
 106808512.039 8  83227397.63347  20324980.715    20324974.9504
        50.500          44.2004
 125965460.799 6  98154852.98443  23970454.924    23970459.1224
        40.500          22.8004
 124587864.630 7  97081432.06744  23708282.011    23708274.6634
        42.400          25.8004
 15  9 17  1 44 30.0000000  0 11G14G04G22G11G18G08G16G27G26G21G19
 113402865.799 8  88365863.49945  21579837.461    21579830.4654
        48.800          35.6004
 121691065.411 6  94824252.85144  23157019.519    23157015.1024
        41.300          24.7004
 114291002.365 7  89057877.46046  21748856.975    21748846.8134
        47.500          37.6004
 130363330.186 5 101581804.03042  24807315.215    24807311.3254
        32.800          14.8004
 130035365.554 7 101326212.18243  24744916.021    24744908.9084
        42.000          19.9004
 116261965.899 7  90593745.15445  22123911.996    22123908.3994
        44.900          34.1004
 119592903.387 7  93189228.69145  22757783.997    22757779.5214
        46.700          30.0004
 106786087.173 8  83209923.70047  20320713.784    20320707.9604
        50.600          44.0004
 126053244.642 6  98223255.70744  23987160.045    23987163.8924
        39.800          24.7004
                                  24754229.454
        30.300
 124493771.167 7  97008112.54344  23690376.522    23690369.0564
        42.400          27.3004
 15  9 17  1 45  0.0000000  0 11G14G04G22G11G18G08G16G27G26G21G19
 113395778.509 8  88360340.99045  21578489.308    21578482.0774
        48.800          35.4004
 121637710.954 6  94782678.02744  23146866.207    23146861.2624
        41.600          25.6004
 114356376.731 7  89108818.50345  21761297.927    21761287.5904
        47.300          35.9004
                                  24791581.343
        31.800
 130115187.366 6 101388410.97943  24760105.768    24760098.5964
        41.300          19.6004
 116178943.247 7  90529052.23845  22108113.565    22108109.7924
        44.800          34.6004
 119669531.617 7  93248938.85045  22772366.210    22772360.6794
        46.900          30.2004
 106764153.174 8  83192832.26547  20316539.685    20316533.7434
        50.700          43.8004
 126140926.579 6  98291579.01444  24003844.806    24003849.2974
        39.600          24.7004
 130118800.659 5                  24760786.197
        30.500
 124399765.616 7  96934861.53744  23672488.011    23672481.4844
        43.200          27.7004
 15  9 17  1 45 30.0000000  0 11G14G04G22G11G18G08G16G27G26G21G19
 113389202.314 8  88355216.73945  21577237.517    21577230.5794
        48.200          35.5004
 121584341.101 6  94741091.23144  23136708.857    23136705.3194
        41.400          25.7004
 114421869.068 7  89159851.46546  21773759.980    21773749.8194
        47.500          36.4004
 130197863.184 5                  24775829.211
        32.800
 130194912.942 6 101450534.76143  24775276.448    24775269.2174
        41.000          19.3004
 116096175.435 7  90464557.87645  22092363.144    22092359.1954
        44.600          34.0004
 119746309.561 7  93308765.67345  22786975.929    22786971.2784
        46.800          30.6004
 106742720.219 8  83176131.25547  20312461.220    20312455.5134
        50.500          44.0004
 126228512.787 6  98359827.71443  24020513.414    24020516.2064
        40.000          23.5004
 130153354.323 4                  24767358.601
        28.900
 124305858.634 7  96861687.33344  23654618.287    23654611.4674
        42.700          28.5004
 15  9 17  1 46  0.0000000  0 11G14G04G22G11G18G08G16G27G26G21G19
 113383136.293 8  88350490.01745  21576083.173    21576076.2354
        48.500          35.3004
 121530954.163 6  94699491.11544  23126551.729    23126546.6674
        41.800          26.0004
 114487475.432 7  89210973.27046  21786244.654    21786234.8444
        47.200          37.0004
 130115015.398 5                  24760064.350
        34.300
 130274539.820 6 101512581.64043  24790429.377    24790422.4394
        40.500          19.3004
 116013663.159 7  90400262.65145  22076661.695    22076657.2774
        45.100          34.3004
 119823232.508 7  93368705.47645  22801613.650    22801609.7604
        45.900          30.2004
 106721788.036 8  83159820.45947  20308477.640    20308471.7574
        50.800          43.9004
 126315998.872 6  98427998.39043  24037161.284    24037164.7794
        40.900          22.8004
                                  24773948.638
        26.400
 124212050.934 7  96788590.48344  23636767.764    23636760.2404
        43.400          29.1004
 15  9 17  1 46 30.0000000  0 10G14G04G22G11G18G08G16G27G26G19
 113377575.246 7  88346156.78245  21575024.868    21575018.0484
        47.100          34.8004
 121477543.916 6  94657872.81244  23116387.297    23116382.7624
        41.500          25.3004
 114553188.202 7  89262178.00946  21798749.233    21798739.4824
        47.200          36.2004
 130032081.960 5                  24744282.708
        35.600
 130354060.561 6 101574545.81442  24805561.108    24805553.7604
        39.900          17.8004
 115931403.026 7  90336163.89845  22061008.212    22061004.0294
        45.600          34.4004
 119900291.306 7  93428751.14345  22816278.141    22816273.9584
        46.000          30.2004
 106701351.999 8  83143896.26747  20304588.825    20304582.9434
        50.900          43.2004
 126403376.328 6  98496084.43043  24053788.377    24053792.5174
        40.600          22.6004
 124118338.854 7  96715568.14644  23618933.735    23618927.5594
        43.000          28.0004
 15  9 17  1 47  0.0000000  0 10G14G04G22G11G18G08G16G27G26G19
 113372523.396 8  88342220.32045  21574063.063    21574056.4774
        48.000          35.1004
 121424113.548 7  94616238.83444  23106220.176    23106215.3494
        43.500          25.3004
 114619008.147 8  89313466.25646  21811274.572    21811264.8794
        48.000          36.8004
 129949067.330 6                  24728486.626
        37.800
 130433477.392 6 101636429.08643  24820673.951    24820666.0764
        40.600          18.3004
 115849401.172 7  90272266.42245  22045403.787    22045399.6034
        46.500          34.5004
 119977485.994 7  93488902.68544  22830968.204    22830963.7274
        46.300          29.6004
 106681416.902 8  83128362.42147  20300795.375    20300789.8444
        51.700          43.7004
 126490645.937 6  98564086.44843  24070395.336    24070399.3004
        39.200          21.8004
 124024727.809 7  96642624.52444  23601120.870    23601112.7604
        43.600          27.2004
 15  9 17  1 47 30.0000000  0 10G14G04G22G11G18G08G16G27G26G19
 113367980.999 8  88338680.83945  21573199.217    21573192.2214
        48.200          34.9004
 121370662.815 7  94574589.00344  23096048.631    23096043.8034
        42.300          26.1004
 114684933.118 7  89364836.34146  21823819.177    21823810.0124
        47.700          36.4004
 129865971.719 6                  24712675.200
        39.200
 130512789.305 6 101698230.55743  24835766.386    24835759.3894
        41.800          20.1004
 115767659.977 7  90208572.03845  22029848.999    22029844.9334
        46.800          33.9004
 120054813.051 7  93549157.38544  22845683.481    22845678.5954
        46.400          29.1004
 106661983.937 8  83113219.85047  20297097.260    20297091.6124
        51.400          43.6004
 126577804.978 6  98632002.34043  24086981.856    24086984.8824
        40.400          21.8004
 123931219.840 7  96569761.23644  23583326.903    23583318.6764
        44.300          28.6004
 15  9 17  1 48  0.0000000  0 10G14G04G22G11G18G08G16G27G26G19
 113363949.302 7  88335539.31145  21572431.701    21572424.7634
        47.300          35.1004
 121317191.807 6  94532923.35044  23085872.967    23085868.3744
        41.900          25.7004
 114750961.289 8  89416286.83846  21836384.380    21836375.3324
        49.400          36.3004
 129782795.864 6 101129437.11442  24696846.176    24696841.1724
        38.100          17.4004
 130591995.087 6 101759949.35743  24850838.140    24850831.6124
        39.000          19.9004
 115686182.102 7  90145082.84245  22014344.992    22014340.2224
        46.300          34.9004
 120132269.993 7  93609513.28244  22860423.094    22860418.4424
        45.700          29.4004
 106643054.750 8  83098469.83047  20293495.483    20293489.7764
        51.800          43.2004
 126664851.174 6  98699830.25343  24103545.672    24103550.3394
        37.500          22.6004
 123837817.798 7  96496980.49644  23565553.144    23565544.6824
        44.300          29.4004
 15  9 17  1 48 30.0000000  0 10G14G04G22G11G18G08G16G27G26G19
 113360429.360 8  88332796.54245  21571761.917    21571755.2724
        48.400          35.6004
 121263700.600 6  94491241.98844  23075693.540    23075689.0644
        41.700          26.7004
 114817091.225 8  89467816.62246  21848969.066    21848959.0814
        48.000          36.0004
 129699540.858 6 101064563.13942  24681003.113    24680997.0544
        38.500          17.4004
 130671094.084 6 101821584.95343  24865890.286    24865884.2274
        41.500          18.3004
 115604970.520 7  90081801.14345  21998890.252    21998886.1274
        47.700          34.6004
 120209853.801 7  93669968.02144  22875186.658    22875181.8304
        47.000          29.2004
 106624630.897 8  83084113.56947  20289989.421    20289983.1864
        52.200          43.9004
 126751782.246 6  98767568.46643  24120089.484    24120093.4484
        39.800          22.9004
 123744524.080 7  96424284.14944  23547799.818    23547791.3574
        43.600          29.3004
 15  9 17  1 49  0.0000000  0 10G14G04G22G11G18G08G16G27G26G19
 113357422.248 7  88330453.37245  21571189.400    21571182.7554
        46.600          35.1004
 121210189.849 6  94449545.39944  23065511.606    23065507.1884
        41.800          27.0004
 114883320.840 7  89519424.07645  21861571.172    21861562.0084
        47.000          35.9004
 129616207.490 6 100999628.12842  24665144.737    24665139.7924
        38.400          17.4004
 130750085.252 6 101883136.54143  24880922.000    24880915.7664
        41.800          19.0004
 115524028.443 7  90018729.45545  21983487.621    21983483.0864
        47.600          35.4004
 120287561.603 7  93730519.38744  22889974.280    22889969.5114
        46.700          29.1004
 106606714.100 8  83070152.43447  20286580.309    20286574.3674
        52.400          44.2004
 126838595.977 6  98835215.26543  24136609.747    24136613.5944
        39.800          22.5004
 123651341.407 7  96351674.32844  23530067.007    23530058.3114
        43.700          28.5004
 15  9 17  1 49 30.0000000  0 10G14G04G22G11G18G08G16G27G26G19
 113354928.280 8  88328510.05945  21570715.055    21570708.1764
        48.100          35.3004
 121156658.675 6  94407832.87644  23055323.925    23055320.2114
        41.000          25.1004
 114949647.875 7  89571107.46045  21874193.285    21874183.5934
        46.400          35.6004
 129532796.005 6 100934632.26442  24649272.347    24649266.9924
        39.900          17.8004
 130828967.346 7 101944603.09043  24895932.563    24895926.3294
        42.000          19.9004
 115443357.567 7  89955869.07845  21968136.523    21968131.7544
        47.200          35.3004
 120365390.150 7  93791164.84645  22904784.868    22904779.6294
        46.800          30.2004
 106589305.256 8  83056587.09347  20283267.088    20283261.2054
        51.500          44.1004
 126925289.629 6  98902768.50043  24153107.046    24153110.8344
        40.000          22.5004
 123558271.565 7  96279152.42844  23512356.310    23512348.0834
        42.900          27.6004
 15  9 17  1 50  0.0000000  0 11G14G04G22G11G18G08G16G27G26G21G19
 113352944.240 7  88326964.09545  21570337.574    21570330.5784
        47.000          35.9004
 121103103.453 7  94366101.63944  23045132.759    23045128.4594
        43.500          26.0004
 115016066.659 7  89622862.32545  21886832.157    21886822.4644
        46.300          35.3004
 129449303.047 6 100869572.93842  24633383.765    24633377.4134
        38.600          17.4004
 130907735.881 7 102005981.15643  24910923.162    24910915.8144
        42.400          19.0004
 115362957.053 7  89893219.37745  21952836.273    21952831.9734
        46.700          35.1004
 120443332.571 7  93851899.01744  22919616.402    22919612.2194
        46.300          28.6004
 106572402.019 8  83043415.73447  20280050.697    20280044.8734
        51.700          43.7004
 127011856.890 6  98970223.28143  24169580.688    24169583.7144
        40.700          22.8004
 130468815.364 5                  24827388.303
        31.800
 123465313.241 7  96206717.43244  23494666.873    23494658.8804
        43.100          27.9004
 15  9 17  1 50 30.0000000  0 11G14G04G22G11G18G08G16G27G26G21G19
 113351480.082 8  88325823.22345  21570058.941    21570051.8864
        48.300          35.6004
 121049533.452 7  94324358.87344  23034939.202    23034933.9644
        43.500          26.7004
 115082584.698 7  89674694.55445  21899490.248    21899479.7944
        46.900          34.9004
 129365738.934 6 100804458.03542  24617482.689    24617476.5134
        38.400          16.9004
 130986399.268 6 102067277.32143  24925891.192    24925883.9614
        41.100          20.1004
 115282838.976 7  89830789.74345  21937590.382    21937586.1994
        46.300          35.0004
 120521394.888 7  93912726.61144  22934471.514    22934467.0384
        45.700          29.3004
 106556014.929 8  83030646.56947  20276932.429    20276926.4884
        51.600          44.2004
 127098304.638 6  99037584.93843  24186030.687    24186034.2414
        39.600          22.3004
 130504396.906 5                  24834159.296
        32.900
 123372478.188 7  96134378.50244  23477001.036    23476993.8634
        42.500          28.6004
 15  9 17  1 51  0.0000000  0 11G14G04G22G11G18G08G16G27G26G21G19
 113350530.700 8  88325083.47745  21569877.613    21569871.0274
        48.500          34.5004
 120995942.761 7  94282599.98044  23024740.877    23024735.9904
        42.000          26.5004
 115149193.453 7  89726597.45045  21912165.756    21912155.5364
        47.500          34.9004
 129282098.288 6 100739283.64743  24601565.467    24601559.7604
        39.800          18.3004
 131064949.788 6 102128485.55642  24940838.757    24940831.5264
        41.500          17.8004
 115202999.927 7  89768577.53245  21922397.344    21922393.1024
        46.400          34.6004
 120599568.010 7  93973640.55144  22949347.779    22949343.1274
        46.200          28.6004
 106540139.374 8  83018275.99447  20273911.116    20273905.3504
        51.700          44.0004
 127184624.544 6  99104846.93443  24202456.639    24202461.1894
        38.800          22.0004
 130540087.906 5                  24840950.193
        32.600
 123279762.749 7  96062132.76244  23459359.118    23459351.0084
        44.100          28.8004
 15  9 17  1 51 30.0000000  0 11G14G04G22G11G18G08G16G27G26G21G19
 113350097.449 8  88324745.89945  21569795.455    21569788.4584
        48.300          35.6004
 120942332.679 7  94240825.99544  23014539.209    23014534.7924
        43.000          26.2004
 115215892.715 7  89778570.88945  21924857.531    21924847.8394
        47.900          35.2004
 129198383.334 6 100674051.26843  24585633.995    24585629.5774
        38.600          19.3004
 131143387.901 6 102189606.19942  24955764.834    24955757.7794
        39.200          17.8004
 115123443.642 7  89706585.67045  21907258.525    21907254.0494
        45.500          34.5004
 120677850.534 7  94034639.74244  22964244.375    22964240.2504
        46.600          28.3004
 106524777.864 8  83006305.99047  20270988.359    20270982.2424
        52.500          43.7004
 127270815.372 6  99172008.35843  24218858.597    24218863.9674
        39.600          22.5004
 130575890.402 5                  24847764.497
        33.700
 123187170.696 7  95989983.17244  23441737.436    23441731.2024
        42.600          29.1004
 15  9 17  1 52  0.0000000  0 11G14G04G22G11G18G08G16G27G26G21G19
 113350180.856 8  88324810.92445  21569811.734    21569804.2694
        48.000          35.9004
 120888702.715 7  94199036.50944  23004333.190    23004329.5344
        43.800          27.2004
 115282679.900 8  89830612.82945  21937567.366    21937557.4394
        48.100          35.1004
 129114593.780 6 100608760.81943  24569690.977    24569685.9154
        39.500          19.3004
 131221712.080 6 102250638.06442  24970668.895    24970662.0744
        39.600          16.9004
 115044172.546 7  89644816.01545  21892174.122    21892169.7634
        46.500          34.8004
 120756238.676 7  94095721.22344  22979160.945    22979156.9384
        45.100          26.9004
 106509931.186 8  82994737.14347  20268163.000    20268156.9414
        52.400          44.2004
 127356874.313 6  99239067.04243  24235235.579    24235240.6564
        40.400          22.8004
 130611805.076 5                  24854599.258
        34.700
 123094703.878 7  95917931.17644  23424142.167    23424134.5844
        44.400          27.8004
 15  9 17  1 52 30.0000000  0 11G14G04G22G11G18G08G16G27G26G21G19
 113350781.446 8  88325278.94245  21569925.551    21569918.6144
        48.100          34.8004
 120835052.562 7  94157231.28644  22994124.335    22994120.3284
        43.900          26.7004
 115349553.024 8  89882721.72845  21950292.995    21950283.0684
        48.800          35.2004
 129030730.371 6 100543412.81043  24553732.705    24553727.1154
        39.400          20.6004
 131299921.346 6 102311580.37343  24985552.715    24985545.1914
        40.500          19.3004
 114965188.878 7  89583270.33845  21877143.820    21877139.7544
        47.100          34.7004
 120834729.074 7  94156882.38144  22994097.139    22994093.4844
        45.000          28.1004
 106495600.513 8  82983570.37647  20265435.780    20265430.0744
        51.600          44.0004
 127442798.826 6  99306020.96343  24251586.225    24251590.8924
        39.900          22.3004
 130647833.637 5                  24861453.616
        33.000
 123002364.390 7  95845978.38944  23406570.982    23406563.3994
        43.800          29.3004
 15  9 17  1 53  0.0000000  0 11G14G04G22G11G18G08G16G27G26G21G19
 113351900.547 8  88326150.99345  21570138.927    21570131.8134
        48.800          35.3004
 120781383.203 7  94115411.10444  22983911.574    22983906.8634
        42.500          26.0004
 115416511.015 8  89934896.77045  21963034.790    21963024.8054
        48.100          35.3004
 128946794.634 6 100478008.41443  24537758.723    24537754.1894
        39.100          20.4004
 131378015.477 6 102372432.99442  25000413.414    25000406.0074
        39.500          16.3004
 114886496.358 7  89521951.52345  21862168.573    21862164.6834
        46.000          35.1004
 120913319.745 7  94218121.67544  23009053.213    23009049.3814
        46.100          29.3004
 106481787.772 8  82972807.19247  20262807.105    20262801.3394
        51.900          43.5004
 127528587.323 6  99372868.90743  24267911.650    24267916.7274
        40.600          22.6004
 130683976.791 5                  24868332.512
        33.600
 122910155.465 7  95774127.33244  23389023.904    23389016.3814
        43.500          29.6004
 15  9 17  1 53 30.0000000  0 11G14G04G22G11G18G08G16G27G26G21G19
 113353537.650 7  88327426.67745  21570450.266    21570443.2704
        47.000          35.5004
 120727693.928 7  94073575.41744  22973694.387    22973689.9694
        43.000          25.5004
 115483550.968 8  89987135.67745  21975791.474    21975782.2504
        48.000          35.0004
 128862786.711 6 100412547.84443  24521773.389    24521767.7414
        40.300          21.1004
 131455992.843 6 102433194.58142  25015252.373    25015244.2634
        39.400          17.4004
 114808096.725 7  89460860.92445  21847249.414    21847244.9974
        47.000          34.8004
 120992006.741 7  94279436.02144  23024026.930    23024022.7464
        44.400          29.1004
 106468493.496 8  82962448.01347  20260277.453    20260271.8044
        51.400          43.6004
 127614236.643 6  99439608.38943  24284210.146    24284215.9274
        40.000          21.8004
 130720235.099 5                  24875233.316
        34.100
 122818078.948 7  95702379.45944  23371502.858    23371494.1624
        44.600          28.5004
 15  9 17  1 54  0.0000000  0 11G14G04G22G11G18G08G16G27G26G21G19
 113355693.781 7  88329106.81345  21570860.502    21570853.3884
        47.900          35.1004
 120673984.959 7  94031724.35944  22963473.451    22963469.2684
        42.200          26.0004
 115550671.540 7  90039437.40845  21988564.295    21988555.1884
        47.900          35.2004
 128778707.482 6 100347031.63743  24505773.042    24505767.7464
        39.400          20.6004
 131533852.904 6 102493864.77542  25030068.562    25030061.6824
        40.500          17.8004
 114729992.908 7  89400000.83945  21832387.007    21832382.5904
        47.600          35.5004
 121070787.247 7  94340823.21844  23039018.150    23039014.1434
        42.700          28.3004
 106455718.973 8  82952493.82447  20257846.489    20257840.8414
        50.900          43.9004
 127699744.700 6  99506237.79343  24300482.908    24300487.3414
        40.000          22.9004
 130756609.944 5                  24882154.379
        34.200
 122726137.388 7  95630736.75044  23354006.399    23353997.9374
        43.900          29.1004
 15  9 17  1 54 30.0000000  0 11G14G04G22G11G18G08G16G27G26G21G19
 113358369.712 8  88331191.97945  21571369.792    21571362.5034
        48.000          35.6004
 120620256.678 7  93989858.27144  22953249.916    22953244.7954
        43.000          27.6004
 115617870.855 8  90091800.48445  22001351.691    22001342.5854
        48.200          35.5004
 128694557.903 6 100281460.61643  24489760.913    24489753.9164
        40.100          18.6004
 131611594.849 6 102554442.94742  25044861.145    25044854.8524
        39.700          17.8004
 114652187.760 7  89339373.48945  21817580.965    21817577.3094
        46.100          35.6004
 121149658.715 7  94402281.31544  23054027.069    23054023.1794
        43.700          28.1004
 106443465.855 8  82942945.93247  20255514.893    20255509.1864
        51.000          43.6004
 127785109.458 6  99572755.56343  24316726.844    24316731.9224
        41.300          23.0004
 130793103.312 5                  24889098.076
        34.000
 122634333.525 7  95559201.33244  23336537.238    23336528.1904
        43.900          29.9004
 15  9 17  1 55  0.0000000  0 11G14G04G22G11G18G08G16G27G26G21G19
 113361566.051 7  88333682.65745  21571978.375    21571971.0274
        47.600          35.1004
 120566509.289 7  93947977.27344  22943022.226    22943016.8714
        43.700          27.6004
 115685147.126 7  90144223.54045  22014154.245    22014144.6704
        47.200          34.7004
 128610338.890 6 100215835.54043  24473732.028    24473727.4354
        39.000          18.3004
 131689217.795 6 102614928.42042  25059633.233    25059625.0644
        38.100          14.8004
 114574684.123 7  89278981.08045  21802832.605    21802828.5394
        47.400          35.5004
 121228617.990 7  94463807.83444  23069052.664    23069048.7154
        44.300          27.1004
 106431735.212 8  82933805.16047  20253282.541    20253276.6584
        51.300          43.5004
 127870328.646 6  99639159.92743  24332944.358    24332948.7324
        41.100          22.6004
 130829715.872 5                  24896065.700
        32.900
 122542669.833 7  95487775.14844  23319094.234    23319085.5384
        43.800          29.9004
 15  9 17  1 55 30.0000000  0 11G14G04G22G11G03G08G16G27G26G21G19
 113365278.990 7  88336575.87845  21572684.718    21572677.2534
        47.700          35.4004
 120512739.006 7  93906078.46644  22932790.544    22932784.8964
        43.500          27.7004
 115752494.602 7  90196702.06845  22026969.968    22026960.8614
        47.400          35.0004
 128526047.410 6 100150153.94443  24457693.497    24457688.4354
        39.200          19.3004
 130459363.260 6                  24825591.463
        37.900
 114497480.473 7  89218822.42345  21788141.374    21788137.1324
        46.900          35.4004
 121307658.017 7  94525397.25744  23084093.936    23084089.9294
        43.700          27.6004
 106420524.232 8  82925069.33047  20251149.029    20251143.1464
        52.000          44.1004
 127955395.922 6  99705445.89943  24349132.478    24349136.7934
        39.700          22.8004
 130866444.576 5                  24903054.715
        32.900
 122451144.946 7  95416457.10644  23301677.173    23301669.1804
        43.700          29.6004
 15  9 17  1 56  0.0000000  0 11G14G04G22G11G03G08G16G27G26G21G19
 113369512.757 7  88339874.95345  21573489.692    21573482.8134
        47.900          35.4004
 120458949.529 7  93864164.67444  22922553.746    22922549.7394
        42.500          28.1004
 115819914.938 7  90249237.37245  22039799.206    22039789.6314
        47.800          34.8004
 128441687.675 6 100084419.14142  24441642.096    24441635.3344
        40.300          17.4004
 130384017.198 6 101597962.89243  24811253.545    24811260.2054
        39.300          21.8004
 114420583.429 8  89158902.69045  21773508.489    21773504.1314
        48.500          35.5004
 121386779.439 7  94587050.11444  23099150.437    23099145.9024
        43.900          27.6004
 106409837.775 8  82916742.21347  20249115.626    20249109.8604
        51.000          43.3004
 128040312.824 6  99771614.70844  24365290.949    24365296.2604
        40.100          24.0004
 130903286.220 5                  24910067.340
        32.200
 122359764.728 7  95345251.81444  23284287.944    23284280.0094
        42.600          29.1004
 15  9 17  1 56 30.0000000  0 11G14G04G22G11G03G08G16G27G26G21G19
 113374272.856 8  88343584.14245  21574396.295    21574388.5954
        48.000          35.6004
 120405145.859 7  93822239.81544  22912314.765    22912310.8754
        42.400          27.7004
 115887411.478 7  90301832.06345  22052643.202    22052634.2724
        47.200          34.4004
 128357265.663 6 100018635.84543  24425575.720    24425570.3654
        38.400          19.0004
 130308902.389 6 101539431.80843  24796959.618    24796966.4544
        39.700          21.7004
 114344000.296 7  89099227.57345  21758934.694    21758930.5114
        47.700          35.5004
 121465984.343 7  94648768.01744  23114222.683    23114218.6764
        43.600          27.5004
 106399681.856 8  82908828.50847  20247183.281    20247177.2224
        50.900          43.8004
 128125081.944 6  99837668.33743  24381421.586    24381427.7774
        39.200          23.4004
 130940263.157 5                  24917102.928
        32.200
 122268536.682 7  95274165.07245  23266928.201    23266919.7984
        44.100          30.0004
 15  9 17  1 57  0.0000000  0 11G14G04G22G11G03G08G16G27G26G21G19
 113379554.246 7  88347699.52345  21575401.096    21575393.8654
        46.500          35.9004
 120351322.834 7  93780299.87244  22902073.036    22902068.9124
        42.600          27.0004
 115954976.902 7  90354480.41545  22065500.871    22065491.6484
        47.200          34.9004
 128272776.832 6  99952800.52443  24409498.404    24409492.6384
        38.400          19.6004
 130234014.230 6 101481077.37843  24782709.196    24782715.8564
        37.400          22.2004
 114267728.483 8  89039795.03945  21744421.384    21744416.4394
        49.000          35.9004
 121545264.653 7  94710544.67544  23129309.238    23129305.4074
        43.200          27.4004
 106390052.147 8  82901324.83447  20245350.707    20245344.9414
        51.100          43.7004
 128209695.620 6  99903600.86643  24397523.321    24397528.5164
        40.600          22.2004
 130977363.454 5                  24924164.323
        32.800
 122177458.028 7  95203194.76044  23249595.879    23249588.3564
        43.100          29.4004
 15  9 17  1 57 30.0000000  0 11G14G04G22G11G03G08G16G27G26G21G19
 113385358.400 7  88352222.27645  21576505.773    21576498.0154
        46.400          35.7004
 120297481.642 7  93738345.77844  22891827.667    22891821.6674
        43.400          26.7004
 116022610.374 7  90407181.80445  22078371.418    22078361.9604
        46.300          34.8004
 128188222.952 6  99886914.46343  24393408.192    24393402.1334
        38.800          19.0004
 130159354.351 6 101422900.80043  24768501.857    24768508.4584
        37.400          21.1004
 114191771.637 8  88980607.93246  21729966.705    21729962.1704
        48.600          36.3004
 121624618.390 7  94772378.53444  23144409.649    23144406.9314
        42.700          27.8004
 106380950.827 8  82894232.89247  20243618.532    20243612.8834
        51.200          44.2004
 128294152.614 6  99969411.30443  24413595.409    24413600.9564
        41.300          23.5004
 131014588.564 5                  24931247.731
        31.000
 122086532.206 7  95132343.52044  23232292.617    23232284.9764
        43.700          29.8004
 15  9 17  1 58  0.0000000  0 11G14G04G22G11G03G08G16G27G26G21G19
 113391685.210 7  88357152.27545  21577709.685    21577702.2204
        46.300          35.6004
 120243622.190 7  93696377.44444  22881578.319    22881572.6714
        43.300          28.0004
 116090309.951 7  90459934.69545  22091254.188    22091244.1444
        47.100          34.9004
 128103604.858 6  99820978.36943  24377303.864    24377300.3854
        37.200          18.6004
 130084923.090 6 101364902.39143  24754337.698    24754344.1234
        36.500          21.1004
 114116132.487 8  88921668.38746  21715573.485    21715568.6574
        48.200          36.4004
 121704042.199 7  94834267.01644  23159523.397    23159520.5624
        43.700          28.1004
 106372378.659 8  82887553.27747  20241987.209    20241981.9714
        50.900          43.6004
 128378450.496 6 100035097.78043  24429636.458    24429642.0634
        39.400          22.2004
 131051939.440 5                  24938353.764
        30.700
 121995761.658 7  95061613.28244  23215019.907    23215012.3254
        43.900          29.8004
 15  9 17  1 58 30.0000000  0 11G14G04G22G11G03G08G16G27G26G21G19
 113398535.661 7  88362490.31745  21579013.311    21579005.6114
        47.700          35.9004
 120189745.357 7  93654395.57044  22871325.720    22871320.7754
        42.600          26.7004
 116158074.133 7  90512737.93145  22104148.734    22104139.6864
        46.500          35.2004
 128018923.677 6  99754993.16043  24361189.436    24361185.4294
        37.500          19.6004
 130010721.671 6 101307083.10143  24740218.097    24740224.2294
        40.200          20.4004
 114040814.038 8  88862978.73946  21701240.923    21701236.4464
        49.500          36.0004
 121783533.364 7  94896207.96144  23174650.665    23174646.9504
        44.500          27.5004
 106364337.288 8  82881287.27247  20240456.855    20240451.4414
        50.900          44.1004
 128462587.682 6 100100659.01643  24445646.553    24445653.0374
        36.500          22.6004
                                  24945487.458
        28.900
 121905149.170 7  94991006.22145  23197776.314    23197768.9664
        43.400          30.0004
 15  9 17  1 59  0.0000000  0 11G14G04G22G11G03G08G16G27G26G21G19
 113405910.231 7  88368236.76345  21580416.424    21580408.9004
        47.800          35.9004
 120135851.333 7  93612400.32244  22861069.118    22861065.8734
        42.600          26.7004
 116225901.142 8  90565590.12345  22117056.840    22117046.6204
        48.000          35.1004
 127934180.254 6  99688959.43743  24345064.016    24345058.8954
        39.400          20.1004
 129936750.703 6 101249443.40943  24726141.599    24726148.1424
        39.100          20.6004
 113965819.087 8  88804541.16146  21686969.394    21686965.2704
        49.200          36.2004
 121863088.839 7  94958199.02844  23189790.061    23189785.9374
        45.300          26.6004
 106356827.661 8  82875435.61547  20239027.977    20239022.1534
        51.600          43.9004
 128546561.826 6 100166093.19643  24461626.725    24461633.6204
        36.600          21.8004
                                  24952642.110
        29.400
 121814697.596 7  94920524.54445  23180564.567    23180556.5744
        43.100          30.0004
 15  9 17  1 59 30.0000000  0 10G14G04G22G11G03G08G16G27G26G19
 113413807.190 7  88374390.26445  21581918.849    21581912.2054
        47.300          34.7004
 120081938.247 7  93570390.21444  22850810.610    22850805.6064
        43.400          28.1004
 116293787.859 7  90618488.82545  22129974.962    22129965.0944
        47.100          35.9004
 127849374.258 6  99622876.94043  24328925.035    24328920.5594
        39.900          19.3004
 129863009.037 6 101191982.39643  24712109.328    24712115.4604
        37.700          20.6004
 113891148.620 8  88746356.43446  21672760.197    21672755.4864
        48.800          36.8004
 121942704.314 7  95020236.85744  23204940.610    23204936.9544
        45.200          26.5004
 106349849.029 8  82869997.72147  20237700.128    20237694.7144
        51.500          43.7004
 128630369.046 6 100231397.34843  24477576.422    24477581.8514
        38.800          22.6004
 121724407.428 7  94850168.65145  23163383.172    23163375.1804
        44.100          30.5004
 15  9 17  2  0  0.0000000  0 11G14G04G22G11G03G08G16G27G26G21G19
 113422225.925 7  88380950.33445  21583521.082    21583514.2614
        47.800          35.2004
 120028005.132 7  93528364.48444  22840547.883    22840542.8794
        44.100          28.0004
 116361730.892 7  90671431.41445  22142903.841    22142894.2074
        47.800          35.0004
 127764504.967 6  99556745.10743  24312776.521    24312770.1114
        39.500          19.3004
 129789495.867 6 101134699.43443  24698120.429    24698126.1514
        36.800          19.9004
 113816803.710 8  88688425.38946  21658612.617    21658608.1414
        48.200          36.6004
 122022375.347 7  95082317.95144  23220101.547    23220098.1844
        44.100          28.7004
 106343401.020 8  82864973.30347  20236473.288    20236467.5224
        50.700          43.6004
 128714005.867 6 100296568.71943  24493492.786    24493497.5704
        38.400          22.8004
 131202631.241 5                  24967031.320
        31.900
 121634279.957 7  94779939.52145  23146232.125    23146224.4254
        44.300          31.1004
 15  9 17  2  0 30.0000000  0 11G14G04G22G11G03G08G16G27G26G21G19
 113431172.820 7  88387921.96945  21585223.928    21585216.7564
        47.300          35.2004
 119974058.571 7  93486328.27344  22830281.590    22830276.4114
        42.600          27.0004
 116429735.455 7  90724421.94845  22155844.503    22155835.4564
        45.800          35.3004
 127679579.759 6  99490569.74043  24296614.397    24296609.7454
        37.900          20.1004
 129716218.110 6 101077599.90443  24684175.623    24684182.5764
        38.800          21.7004
 113742793.322 8  88630755.01846  21644528.876    21644524.4004
        48.300          36.8004
 122102105.406 7  95144445.06044  23235273.947    23235269.9404
        44.100          27.5004
 106337490.882 8  82860367.99747  20235348.464    20235342.5814
        51.000          43.7004
 128797476.290 6 100361610.39843  24509376.274    24509381.1764
        37.300          21.7004
                                  24974259.777
        30.300
 121544324.091 7  94709844.10745  23129114.252    23129105.9664
        44.500          30.2004
 15  9 17  2  1  0.0000000  0 11G14G04G22G11G03G08G16G27G26G21G19
 113440641.996 7  88395300.57045  21587025.224    21587018.2874
        47.100          35.7004
 119920092.843 7  93444277.11944  22820011.889    22820006.8274
        43.400          27.7004
 116497792.731 7  90777453.56645  22168795.674    22168786.8024
        47.000          35.2004
 127594593.475 6  99424346.76743  24280443.185    24280437.4204
        40.600          18.6004
 129643170.380 6 101020679.63943  24670275.414    24670281.8404
        37.000          21.5004
 113669114.158 8  88573342.73846  21630507.993    21630503.9274
        49.200          37.2004
 122181885.787 7  95206611.37544  23250455.800    23250453.0824
        44.100          28.2004
 106332113.662 8  82856177.96147  20234325.048    20234319.3414
        51.800          43.3004
 128880772.458 6 100426516.34643  24525225.453    24525232.1724
        36.600          21.1004
 131278750.635 5                  24981514.917
        30.700
 121454536.401 7  94639879.74945  23112028.671    23112019.9164
        45.100          31.2004
 15  9 17  2  1 30.0000000  0 11G14G04G22G11G03G08G16G27G26G21G19
 113450637.143 7  88403089.02346  21588926.911    21588920.1494
        47.600          36.1004
 119866111.857 7  93402214.09644  22809739.956    22809735.3044
        44.700          27.5004
 116565905.096 8  90830528.11245  22181757.059    22181747.8364
        48.300          35.3004
 127509550.676 6  99358079.77343  24264260.018    24264254.1354
        40.500          19.9004
 129570356.919 6 100963941.95643  24656419.573    24656425.5304
        36.900          20.1004
 113595772.770 8  88516193.65546  21616551.936    21616547.1094
        49.400          37.0004
 122261716.965 7  95268817.25444  23265647.104    23265643.8004
        44.400          25.9004
 106327273.839 8  82852406.66347  20233404.275    20233398.5684
        52.000          43.5004
 128963895.592 6 100491287.47143  24541045.408    24541049.6654
        37.900          19.9004
 131317011.085 5                  24988797.274
        31.800
 121364923.036 7  94570051.21745  23094975.336    23094967.4604
        45.000          31.8004
 15  9 17  2  2  0.0000000  0 11G14G04G22G11G03G08G16G27G26G21G19
 113461156.323 8  88411285.80145  21590928.888    21590922.1854
        48.900          35.3004
 119812113.254 7  93360137.33544  22799464.461    22799458.8714
        43.900          28.1004
 116634068.641 8  90883642.54346  22194728.756    22194718.7124
        48.800          36.0004
 127424450.323 6  99291767.86743  24248066.167    24248060.6364
        39.900          19.9004
 129497775.528 6 100907385.11543  24642608.462    24642613.4804
        37.400          20.1004
 113522768.822 8  88459307.50346  21602659.589    21602654.4684
        49.100          36.9004
 122341593.404 7  95331058.41044  23280847.057    23280843.9884
        43.700          27.5004
 106322969.666 8  82849052.75447  20232585.193    20232579.2514
        51.100          43.4004
 129046840.952 6 100555920.09343  24556828.232    24556834.0724
        39.200          20.9004
 131355406.729 5                  24996102.536
        32.400
 121275484.565 7  94500358.98045  23077955.634    23077947.3484
        44.500          30.8004
 15  9 17  2  2 30.0000000  0 11G14G04G22G11G03G08G16G27G26G21G19
 113472200.933 8  88419892.02245  21593031.127    21593023.3104
        48.900          35.8004
 119758098.936 7  93318048.32544  22789185.623    22789179.9164
        45.000          28.5004
 116702282.891 8  90936796.46145  22207709.225    22207699.3564
        48.900          35.4004
 127339294.168 6  99225412.56343  24231860.387    24231855.9694
        39.900          20.6004
 129425428.458 6 100851010.87843  24628841.135    24628845.6854
        36.900          20.9004
 113450106.742 8  88402687.75246  21588832.614    21588827.4344
        48.500          37.4004
 122421513.689 7  95393333.72744  23296055.925    23296052.3284
        43.700          27.7004
 106319203.626 8  82846118.17847  20231868.612    20231862.8474
        52.000          43.5004
 129129608.219 6 100620413.95643  24572577.895    24572584.2624
        39.100          20.4004
 131393938.055 5                  25003435.464
        34.300
 121186224.017 7  94430805.38645  23060970.049    23060961.5874
        44.400          30.8004
 15  9 17  2  3  0.0000000  0 11G14G04G22G11G03G08G16G27G26G21G19
 113483770.723 8  88428907.46946  21595232.605    21595225.4334
        49.100          36.2004
 119704068.521 7  93275946.80144  22778904.194    22778899.1914
        44.400          28.8004
 116770545.561 8  90989988.13445  22220699.227    22220689.2424
        49.500          35.3004
 127254082.952 6  99159014.30643  24215645.413    24215639.8234
        39.700          21.1004
 129353315.914 5 100794819.37943  24615116.889    24615122.9054
        35.900          21.7004
 113377788.800 7  88346336.15246  21575070.785    21575065.4294
        47.200          37.0004
 122501474.723 7  95455640.77344  23311272.434    23311268.6614
        43.200          27.3004
 106315976.278 8  82843603.35447  20231254.477    20231248.6534
        51.600          43.4004
 129212194.883 6 100684767.08243  24588294.391    24588299.8794
        39.400          19.3004
 131432606.097 5                  25010794.330
        31.800
 121097144.166 7  94361392.59045  23044018.765    23044010.0694
        43.900          31.5004
 15  9 17  2  3 30.0000000  0 11G14G04G22G11G03G08G16G27G26G21G19
 113495866.744 8  88438332.97145  21597534.267    21597527.0364
        48.900          34.8004
 119650023.400 7  93233833.80844  22768618.846    22768614.6634
        44.200          29.4004
 116838855.856 8  91043216.90045  22233697.877    22233688.2434
        48.700          35.7004
 127168818.576 6  99092574.63443  24199419.818    24199414.6384
        39.600          19.9004
 129281439.055 6 100738811.57843  24601440.018    24601445.5064
        36.100          22.0004
 113305818.504 7  88290255.44946  21561375.032    21561370.2634
        46.900          36.8004
 122581474.189 6  95517977.78544  23326495.786    23326492.7754
        41.200          27.1004
 106313289.067 8  82841509.43147  20230743.226    20230737.5784
        51.900          44.2004
 129294599.445 6 100748978.34543  24603975.440    24603981.3384
        40.200          20.6004
                                  25018177.786
        30.800
 121008247.986 7  94292122.88945  23027102.641    23027093.4184
        44.900          30.7004
 15  9 17  2  4  0.0000000  0 11G14G04G22G11G03G08G16G27G26G01G19
 113508487.588 8  88448167.41345  21599935.909    21599928.9134
        48.900          35.3004
 119595962.528 7  93191708.53244  22758331.596    22758327.0034
        44.800          27.9004
 116907210.877 8  91096480.52445  22246705.981    22246695.9954
        49.200          35.7004
 127083500.665 6  99026093.23643  24183183.825    24183179.5244
        39.000          20.1004
 129209797.082 6 100682986.79543  24587806.875    24587813.7694
        37.600          22.3004
 113234197.020 7  88234446.54246  21547745.528    21547741.1694
        46.600          37.2004
 122661508.164 7  95580341.65744  23341725.882    23341722.4614
        42.700          25.6004
 106311141.507 8  82839836.00147  20230334.518    20230328.5184
        51.000          44.0004
 129376818.618 6 100813045.14243  24619621.012    24619627.2034
        38.800          21.1004
                                  24875200.993
        37.300
 120919536.965 7  94222997.48445  23010220.455    23010211.9934
        44.400          30.9004
 15  9 17  2  4 30.0000000  0 11G14G04G22G11G03G08G16G27G26G01G19
 113521634.966 8  88458412.14645  21602437.584    21602430.2364
        48.800          35.8004
 119541887.717 7  93149572.40144  22748041.367    22748036.5394
        44.100          28.8004
 116975610.524 8  91149778.94145  22259721.701    22259711.7754
        49.100          35.6004
 126998132.041 6  98959572.33743  24166938.213    24166933.9714
        39.400          22.2004
 129138392.305 6 100627346.84043  24574219.069    24574225.3784
        38.900          22.6004
 113162928.602 7  88178912.75746  21534183.684    21534179.2084
        46.300          36.8004
 122741575.307 7  95642731.40044  23356962.389    23356959.2614
        43.100          28.5004
 106309536.086 8  82838585.02347  20230028.827    20230023.0024
        49.800          44.2004
 129458851.980 6 100876967.10843  24635230.489    24635237.6764
        36.600          18.6004
 130662763.304 5 101815138.82342  24864297.032    24864296.7184
        33.600          16.3004
 120831014.812 7  94154019.23145  22993375.567    22993367.3404
        44.700          30.5004
 15  9 17  2  5  0.0000000  0 11G14G04G22G11G03G08G16G27G26G01G19
 113535306.805 8  88469065.54445  21605039.583    21605032.2354
        49.600          35.3004
 119487797.149 7  93107424.00344  22737748.592    22737743.2364
        44.100          26.9004
 117044050.652 8  91203108.87545  22272745.530    22272735.8964
        48.400          35.3004
 126912711.259 6  98893010.80743  24150684.016    24150679.1294
        39.500          20.9004
 129067222.751 6 100571890.14343  24560674.902    24560681.2104
        38.000          22.0004
 113092013.738 7  88123654.46246  21520689.091    21520684.4974
        46.700          36.8004
 122821670.424 7  95705142.93744  23372204.304    23372201.0014
        43.200          26.9004
 106308471.208 8  82837755.23647  20229826.340    20229820.4574
        49.800          43.7004
 129540695.223 6 100940740.98343  24650805.036    24650812.3414
        36.700          19.3004
 130605383.543 5 101770427.50042  24853378.392    24853378.8974
        33.800          17.4004
 120742682.960 7  94085189.28045  22976566.692    22976557.9384
        44.200          30.8004
 15  9 17  2  5 30.0000000  0 11G14G04G22G11G03G08G16G27G26G01G19
 113549503.496 8  88480127.93545  21607741.057    21607732.9474
        49.200          35.5004
 119433691.615 7  93065263.94444  22727452.638    22727447.0494
        44.600          27.9004
 117112530.331 8  91256469.62945  22285776.645    22285766.8944
        48.600          34.6004
 126827239.874 6  98826409.80543  24134420.162    24134414.9834
        39.900          20.1004
 128996289.438 6 100516617.56243  24547176.854    24547182.8694
        37.900          20.1004
 113021455.564 7  88068674.11546  21507262.636    21507258.0434
        47.000          37.6004
 122901790.872 7  95767574.21644  23387450.738    23387447.6694
        43.300          26.2004
 106307948.124 8  82837347.63447  20229726.811    20229721.1044
        50.700          43.6004
 129622346.658 6 101004365.40943  24666343.965    24666348.7494
        37.300          18.6004
 130547912.657 5 101725645.09142  24842441.253    24842442.9304
        35.200          16.9004
 120654543.911 7  94016509.55845  22959793.577    22959785.4094
        44.900          30.9004
 15  9 17  2  6  0.0000000  0 11G14G04G22G11G03G08G16G27G26G01G19
 113564225.396 8  88491599.57745  21610542.038    21610534.8074
        48.600          35.5004
 119379571.730 7  93023092.70744  22717153.393    22717148.6244
        44.700          28.2004
 117181048.377 8  91309860.28045  22298815.550    22298805.0964
        49.100          35.3004
 126741719.599 6  98759770.77443  24118145.211    24118140.7354
        39.500          20.1004
 128925593.221 6 100461529.76843  24533723.876    24533730.1844
        38.200          19.0004
 112951257.002 7  88013973.98846  21493903.950    21493899.4744
        47.800          38.0004
 122981934.309 7  95830023.39944  23402701.997    23402699.2204
        43.200          27.2004
 106307967.869 8  82837363.01447  20229730.743    20229725.0364
        50.500          43.7004
 129703804.667 6 101067839.13443  24681845.138    24681850.3914
        37.800          18.6004
 130490350.842 6 101680791.88442  24831490.840    24831488.8844
        36.000          17.4004
 120566600.483 7  93947982.28345  22943058.939    22943050.5364
        43.600          30.4004
 15  9 17  2  6 30.0000000  0 11G14G04G22G11G03G08G16G27G26G01G19
 113579472.759 8  88503480.67446  21613444.244    21613436.8384
        48.800          36.2004
 119325438.076 7  92980910.73244  22706852.293    22706847.0554
        43.900          28.1004
 117249603.208 8  91363279.59445  22311860.912    22311851.1614
        48.400          35.6004
 126656151.613 6  98693094.49243  24101861.525    24101856.6384
        37.200          20.4004
 128855134.757 6 100406627.18043  24520316.487    24520321.7404
        39.400          19.6004
 112881421.266 7  87959556.57346  21480614.840    21480609.7784
        47.500          37.5004
 123062098.156 7  95892488.50444  23417956.691    23417953.4464
        42.000          27.5004
 106308531.461 8  82837802.17347  20229837.902    20229832.0784
        49.600          44.1004
 129785067.569 6 101131160.82143  24697309.378    24697314.9834
        38.300          20.6004
 130432697.797 5 101635867.57943  24820518.037    24820517.4884
        35.700          18.3004
 120478855.625 7  93879609.74645  22926361.338    22926352.6424
        43.400          31.6004
 15  9 17  2  7  0.0000000  0 11G14G04G22G11G03G08G16G27G26G01G19
 113595245.285 8  88515770.97945  21616445.467    21616437.8844
        48.800          35.5004
 119271290.716 7  92938718.06044  22696548.778    22696543.0714
        44.500          27.6004
 117318192.946 8  91416726.11045  22324913.183    22324903.6084
        48.600          35.6004
 126570536.566 6  98626381.62443  24085570.473    24085563.8284
        38.800          20.1004
 128784914.197 6 100351910.06343  24506953.728    24506959.1574
        39.800          20.4004
 112811950.011 8  87905423.17746  21467395.146    21467389.9084
        48.100          37.8004
 123142279.235 6  95954967.00644  23433215.019    23433211.4224
        41.600          25.3004
 106309639.129 8  82838665.28247  20230048.448    20230043.3854
        49.400          43.9004
 129866132.875 6 101194328.55043  24712736.458    24712741.4184
        38.100          21.3004
 130374952.809 5 101590871.68742  24809529.569    24809528.9624
        34.200          17.4004
 120391311.529 7  93811393.64845  22909702.814    22909694.0594
        44.200          32.3004
 15  9 17  2  7 30.0000000  0 11G14G04G22G11G03G08G16G27G26G01G19
 113611542.377 8  88528470.03145  21619546.241    21619539.0104
        48.400          35.5004
 119217129.648 7  92896514.72444  22686241.972    22686236.3244
        44.600          28.8004
 117386815.644 8  91470198.30845  22337971.844    22337962.2114
        48.300          35.1004
 126484875.081 6  98559632.48543  24069270.197    24069263.3764
        38.900          21.5004
 128714931.574 6 100297378.29143  24493636.313    24493641.5674
        40.400          19.6004
 112742845.554 7  87851575.60546  21454244.522    21454240.3394
        47.800          37.3004
 123222474.367 7  96017456.46444  23448475.431    23448472.0684
        42.200          26.2004
 106311291.145 8  82839952.56447  20230362.837    20230357.0134
        49.800          43.9004
 129946998.305 6 101257340.52543  24728123.043    24728129.6444
        36.700          19.9004
 130317115.393 5 101545803.63042  24798521.172    24798521.9134
        30.800          13.9004
 120303970.625 7  93743335.88045  22893082.078    22893073.2064
        44.500          32.2004
 15  9 17  2  8  0.0000000  0 11G14G04G22G11G03G08G16G27G26G01G19
 113628365.629 8  88541579.10045  21622748.154    21622740.7474
        49.000          35.4004
 119162957.092 7  92854302.45644  22675932.381    22675927.9054
        44.700          27.7004
 117455471.159 8  91523696.08745  22351036.172    22351026.5974
        48.500          35.1004
 126399169.908 6  98492849.33643  24052960.467    24052954.2334
        39.900          20.1004
 128645189.081 6 100243033.64243  24480364.662    24480369.7404
        41.100          21.7004
 112674112.310 8  87798017.28546  21441165.487    21441160.0734
        48.400          38.0004
 123302682.523 6  96079956.04543  23463738.072    23463736.0574
        40.600          22.5004
 106313489.883 8  82841665.85147  20230781.144    20230775.4964
        51.000          43.5004
 130027663.561 6 101320196.51843  24743473.341    24743480.2364
        36.100          20.4004
 130259186.916 5 101500664.68542  24787497.346    24787498.2624
        32.800          16.9004
 120216837.011 7  93675439.62945  22876500.653    22876492.8364
        43.600          32.1004
 15  9 17  2  8 30.0000000  0 11G14G04G22G11G03G08G16G27G26G01G19
 113645714.272 8  88555097.54545  21626049.127    21626041.7794
        49.000          35.6004
 119108772.774 7  92812080.99744  22665621.668    22665616.7814
        44.700          28.6004
 117524157.601 8  91577217.95745  22364107.365    22364097.2044
        49.200          34.9004
 126313421.902 6  98426032.81443  24036642.376    24036637.2554
        39.100          20.4004
 128575686.389 6 100188875.91143  24467137.842    24467143.8574
        39.200          21.1004
 112605752.341 8  87744749.82946  21428157.143    21428151.5544
        48.200          37.7004
 123382900.155 7  96142463.01744  23479003.582    23479000.5124
        42.100          25.1004
 106316235.290 8  82843805.11047  20231303.709    20231298.0024
        50.500          44.4004
 130108125.966 6 101382894.45743  24758785.020    24758791.3874
        36.800          19.3004
 130201166.482 5 101455454.12542  24776458.774    24776458.3424
        33.700          15.6004
 120129912.741 7  93607706.52045  22859959.719    22859951.0234
        43.300          31.5004
 15  9 17  2  9  0.0000000  0 11G14G04G22G11G03G08G16G27G26G01G19
 113663587.339 8  88569024.64045  21629450.026    21629443.2644
        48.600          35.4004
 119054576.126 7  92769849.92244  22655308.942    22655303.4114
        44.200          28.3004
 117592872.036 8  91630761.65645  22377182.939    22377173.1884
        48.600          34.8004
 126227631.187 6  98359182.99443  24020317.069    24020311.5384
        37.900          20.1004
 128506423.133 6 100134904.76043  24453957.076    24453963.8534
        36.600          20.1004
 112537767.304 8  87691774.52546  21415219.246    21415214.4764
        48.500          37.5004
 123463123.489 7  96204974.45543  23494269.944    23494266.5814
        42.200          23.5004
 106319527.075 8  82846370.13547  20231930.463    20231924.6974
        50.200          43.6004
 130188382.777 6 101445432.15843  24774057.861    24774063.7014
        36.900          18.3004
 130143042.805 5 101410178.89542  24765397.726    24765398.4674
        30.800          14.8004
 120043199.653 7  93540137.96245  22843458.860    22843450.3394
        43.900          32.2004
 15  9 17  2  9 30.0000000  0 11G14G04G22G11G03G08G16G27G26G01G19
 113681985.152 8  88583360.63245  21632951.416    21632943.8924
        48.400          35.6004
 119000367.913 7  92727609.83744  22644993.388    22644987.3304
        43.000          28.6004
 117661613.426 8  91684326.35345  22390264.329    22390254.0504
        48.600          34.6004
 126141799.201 6  98292301.05243  24003983.308    24003979.0674
        37.700          21.3004
 128437400.008 6 100081120.73243  24440823.026    24440828.8064
        38.500          21.1004
 112470160.147 8  87639093.68046  21402353.994    21402349.3424
        48.500          37.6004
 123543349.957 6  96267488.30243  23509536.801    23509533.9664
        41.700          22.9004
 106323366.089 8  82849361.57147  20232661.016    20232655.4854
        49.900          43.8004
 130268432.333 6 101507808.37043  24789290.678    24789295.9314
        38.900          20.6004
 130084836.162 5 101364823.21442  24754321.186    24754322.2194
        34.600          17.4004
 119956700.484 7  93472736.11045  22826998.821    22826990.2434
        44.300          32.0004
 15  9 17  2 10  0.0000000  0 11G14G04G22G11G03G08G16G27G26G01G19
 113700907.100 7  88598105.04345  21636552.215    21636544.5154
        47.800          34.6004
 118946148.293 7  92685360.88544  22634675.204    22634669.4394
        42.300          27.3004
 117730380.062 8  91737910.71745  22403349.904    22403340.0364
        48.300          34.8004
 126055926.614 6  98225387.45443  23987641.891    23987637.2974
        37.600          20.6004
 128368616.999 6 100027523.79743  24427733.644    24427738.8974
        40.200          22.8004
 112402932.991 8  87586708.93146  21389560.654    21389556.2954
        48.300          37.6004
 123623576.296 6  96330002.06344  23524803.680    23524800.5524
        40.500          24.4004
 106327752.394 8  82852779.45147  20233495.710    20233489.6514
        50.100          43.9004
 130348272.178 6 101570021.24343  24804483.124    24804489.3154
        36.200          19.3004
 130026535.608 5 101319394.36542  24743227.783    24743227.2934
        33.500          16.9004
 119870417.584 7  93405502.75245  22810579.513    22810570.4654
        44.200          31.9004
 15  9 17  2 10 30.0000000  0 11G14G04G22G11G03G08G16G27G26G01G19
 113720354.121 7  88613258.60245  21640252.339    21640244.9324
        47.700          35.3004
 118891918.808 7  92643104.24244  22624355.628    22624349.9804
        42.600          26.7004
 117799171.461 7  91791514.36845  22416439.961    22416430.7964
        47.700          34.6004
 125970016.024 6  98158444.26343  23971293.974    23971288.6784
        37.700          20.1004
 128300075.658 6  99974115.19043  24414690.831    24414695.9084
        39.900          22.6004
 112336089.304 7  87534622.99046  21376841.409    21376836.7574
        47.500          37.2004
 123703801.070 7  96392514.58744  23540069.893    23540067.7034
        42.400          24.2004
 106332687.765 8  82856625.18547  20234434.853    20234428.9124
        50.700          43.5004
 130427901.737 6 101632070.21143  24819636.830    24819641.3804
        37.700          19.3004
 129968142.283 5 101273893.23642  24732115.892    24732114.9334
        34.700          16.9004
 119784354.723 7  93338440.86445  22794202.341    22794193.4694
        43.900          31.9004
 15  9 17  2 11  0.0000000  0 11G14G04G22G11G03G08G16G27G26G01G19
 113740323.907 8  88628819.51045  21644051.941    21644045.1204
        48.000          35.0004
 118837677.973 7  92600838.73944  22614034.828    22614028.7114
        44.200          29.4004
 117867983.923 7  91845134.44745  22429534.473    22429525.0154
        47.200          33.8004
 125884066.318 6  98091470.59443  23954938.762    23954933.3484
        38.700          20.9004
 128231774.372 6  99920893.64843  24401693.456    24401698.8854
        40.100          22.9004
 112269630.059 7  87482836.62646  21364194.254    21364189.4264
        47.400          38.0004
 123784019.576 7  96455022.23044  23555336.223    23555333.3884
        42.500          25.2004
 106338170.674 8  82860897.56147  20235477.973    20235472.0324
        50.200          43.3004
 130507317.102 6 101693952.34742  24834748.952    24834753.8534
        37.000          17.8004
 129909653.894 5 101228317.94242  24720986.970    24720985.9524
        35.300          16.9004
 119698512.351 7  93271550.80245  22777866.812    22777858.3504
        44.000          32.4004
 15  9 17  2 11 30.0000000  0 11G14G04G22G11G03G08G16G27G26G01G19
 113760817.571 8  88644788.63745  21647952.525    21647944.9424
        48.100          35.3004
 118783427.093 7  92558565.39044  22603711.080    22603705.1974
        44.300          28.6004
 117936816.953 7  91898770.54045  22442633.271    22442623.7544
        47.300          33.7004
 125798079.860 6  98024468.25943  23938577.742    23938570.2184
        40.200          21.5004
 128163714.567 6  99867860.31043  24388741.470    24388747.2514
        38.400          22.6004
 112203558.817 7  87431352.58646  21351621.402    21351616.8094
        47.700          37.7004
 123864230.095 7  96517523.63744  23570599.500    23570596.6654
        42.400          25.2004
 106344202.668 8  82865597.79647  20236625.759    20236620.0524
        50.200          43.5004
 130586517.399 6 101755666.87242  24849819.714    24849824.8494
        37.900          17.8004
 129851071.263 6 101182669.27643  24709838.839    24709838.5834
        37.300          18.3004
 119612894.534 7  93204835.71045  22761574.237    22761565.9514
        44.400          31.9004
 15  9 17  2 12  0.0000000  0 11G14G04G22G11G03G08G16G27G26G01G19
 113781834.652 8  88661165.62345  21651952.711    21651944.3664
        48.500          35.0004
 118729167.111 7  92516284.96944  22593385.121    22593379.2974
        43.100          28.6004
 118005669.891 7  91952422.14745  22455735.307    22455726.6114
        46.400          34.0004
 125712058.013 6  97957438.37643  23922206.126    23922200.3604
        37.800          22.5004
 128095896.664 6  99815015.43843  24375835.929    24375841.9444
        37.400          22.2004
 112137878.270 7  87380172.98446  21339122.793    21339117.9074
        47.500          37.9004
 123944429.857 7  96580016.65944  23585861.086    23585858.6024
        42.600          25.6004
 106350784.254 8  82870726.28247  20237878.294    20237872.8804
        49.800          44.0004
 130665500.870 6 101817212.43542  24864850.097    24864855.1744
        38.400          17.4004
 129792394.419 5 101136947.20142  24698671.823    24698671.6254
        33.300          17.4004
 119527503.834 7  93138297.60045  22745324.705    22745316.4194
        44.100          32.3004
 15  9 17  2 12 30.0000000  0 11G14G04G22G11G03G08G16G27G26G01G19
 113803375.548 8  88677950.76845  21656050.372    21656043.6684
        48.000          35.1004
 118674899.005 7  92473998.23144  22583058.568    22583052.4514
        44.000          29.1004
 118074540.918 7  92006087.86145  22468840.856    22468831.5154
        46.600          33.9004
 125626002.544 6  97890382.30843  23905830.799    23905825.2104
        39.400          22.3004
 128028321.612 6  99762359.81843  24362975.819    24362982.7134
        37.500          21.8004
 112072591.553 8  87329300.25646  21326699.054    21326694.5194
        49.000          38.5004
 124024616.635 7  96642499.57944  23601121.044    23601118.2094
        43.700          24.5004
 106357916.456 8  82876283.81247  20239235.727    20239229.9034
        51.600          43.7004
 130744266.276 6 101878588.05242  24879838.299    24879844.6074
        36.100          15.6004
 129733623.525 5 101091151.84142  24687487.845    24687486.3584
        34.100          16.3004
 119442343.360 7  93071938.87445  22729119.048    22729111.0554
        45.000          32.6004
 15  9 17  2 13  0.0000000  0 11G14G04G22G11G03G08G16G27G26G01G19
 113825439.022 8  88695143.11845  21660249.449    21660242.3354
        48.200          35.5004
 118620622.406 7  92431704.85744  22572730.092    22572723.6234
        45.300          28.3004
 118143427.760 7  92059765.90945  22481950.622    22481941.2224
        45.500          34.4004
 125539913.930 6  97823300.37043  23889447.744    23889443.3274
        39.700          22.5004
 127960988.976 6  99709893.08943  24350163.568    24350168.8214
        37.900          20.6004
 112007700.405 8  87278735.77346  21314350.706    21314346.1714
        48.400          38.1004
 124104786.932 7  96704969.65244  23616376.590    23616375.2204
        43.900          25.5004
 106365598.943 8  82882270.14247  20240697.457    20240691.6334
        50.000          43.9004
 130822810.959 5 101939791.68342  24894784.021    24894790.7984
        35.900          17.4004
 129674757.795 5 101045282.53742  24676286.982    24676284.6754
        35.800          17.4004
 119357415.095 7  93005761.07945  22712957.370    22712949.0844
        45.400          32.9004
 15  9 17  2 13 30.0000000  0 11G14G04G22G11G03G08G16G27G26G01G19
 113848024.613 7  88712742.31246  21664547.335    21664540.2224
        47.800          36.2004
 118566337.664 7  92389405.12444  22562399.670    22562393.5534
        45.700          26.5004
 118212329.038 7  92113455.17645  22495061.890    22495052.0804
        45.600          34.4004
 125453793.040 6  97756193.29743  23873060.331    23873054.5664
        41.500          22.3004
 127893898.790 6  99657615.32943  24337395.984    24337401.7064
        37.700          21.5004
 111943207.123 8  87228481.31346  21302078.245    21302073.3594
        48.000          38.3004
 124184937.855 7  96767424.56944  23631628.997    23631626.9824
        43.900          25.8004
 106373831.711 8  82888685.27547  20242263.971    20242258.3814
        50.700          43.3004
 130901132.753 6 102000821.70943  24909689.253    24909695.4444
        37.400          18.3004
 129615796.668 5 100999338.95242  24665064.678    24665063.7194
        33.700          14.8004
 119272721.444 7  92939766.10445  22696840.957    22696832.8474
        46.000          32.8004
 15  9 17  2 14  0.0000000  0 11G14G04G22G11G03G08G16G27G26G01G19
 113871131.247 8  88730747.50745  21668944.150    21668936.9194
        48.300          35.2004
 118512044.760 7  92347099.02944  22552067.165    22552061.8684
        45.100          29.0004
 118281242.817 7  92167154.20145  22508175.799    22508166.2234
        46.100          33.7004
 125367640.704 6  97689061.71943  23856666.141    23856660.1414
        39.000          22.0004
 127827050.867 6  99605526.28743  24324675.014    24324680.8534
        37.300          19.6004
 111879113.760 8  87178538.47346  21289881.338    21289876.8624
        48.600          38.6004
 124265066.159 7  96829861.92143  23646876.644    23646875.0984
        43.200          23.6004
 106382614.741 8  82895529.18147  20243935.633    20243929.6924
        50.300          44.1004
 130979229.426 6 102061676.29543  24924549.804    24924557.1674
        37.100          19.0004
 129556739.602 5 100953320.56742  24653827.955    24653825.7654
        35.700          16.9004
 119188264.576 7  92873955.64045  22680769.455    22680761.0524
        45.800          32.8004
 15  9 17  2 14 30.0000000  0 11G14G04G22G11G03G08G16G27G26G01G19
 113894759.962 7  88749159.53545  21673440.182    21673433.1274
        47.500          35.5004
 118457745.485 7  92304787.98944  22541735.316    22541729.3164
        45.100          28.8004
 118350168.839 7  92220862.76745  22521291.930    22521282.0034
        46.000          33.0004
 125281459.341 6  97621907.50743  23840265.020    23840259.8404
        38.200          20.6004
 127760446.810 6  99553627.30443  24312001.549    24312006.8614
        39.700          22.5004
 111815423.872 8  87128910.02746  21277761.426    21277756.8914
        48.100          38.6004
 124345170.382 7  96892280.51343  23662120.137    23662118.2394
        43.500          22.6004
 106391949.558 8  82902803.05147  20245712.187    20245706.3044
        51.400          43.5004
 131057100.252 6 102122354.93043  24939369.061    24939375.7794
        38.200          19.3004
 129497587.568 6 100907228.20042  24642570.790    24642570.7694
        36.900          17.4004
 119104048.437 7  92808332.75145  22664743.197    22664735.1464
        47.000          33.1004
 15  9 17  2 15  0.0000000  0 11G14G04G22G11G03G08G16G27G26G01G19
 113918909.512 7  88767977.37445  21678035.652    21678028.2454
        47.600          34.4004
 118403439.564 7  92262471.76644  22531400.542    22531394.6594
        44.000          28.3004
 118419104.782 7  92274579.06345  22534410.115    22534400.2474
        45.700          32.6004
 125195249.616 6  97554731.20043  23823860.010    23823854.8894
        39.200          21.7004
 127694086.095 6  99501917.91843  24299371.993    24299378.9464
        38.400          22.8004
 111752139.078 8  87079597.23346  21265719.006    21265714.2964
        48.300          38.6004
 124425246.876 7  96954677.45243  23677359.047    23677356.2124
        43.100          22.5004
 106401835.621 8  82910506.46247  20247593.059    20247587.4694
        50.900          44.0004
 131134742.851 6 102182855.71042  24954144.093    24954149.6394
        37.100          17.4004
 129438339.630 5 100861061.06743  24631296.489    24631295.5294
        35.300          18.6004
 119020074.780 7  92742898.81545  22648764.131    22648755.9044
        46.000          32.9004
 15  9 17  2 15 30.0000000  0 11G14G04G22G11G03G08G16G27G26G01G19
 113943579.881 8  88787201.05945  21682730.735    21682723.2694
        48.000          35.5004
 118349127.850 7  92220151.02044  22521065.766    22521060.0004
        44.800          29.6004
 118488049.329 7  92328302.07145  22547529.385    22547520.2794
        46.000          32.1004
 125109012.849 6  97487533.81343  23807449.846    23807444.1394
        39.000          20.6004
 127627969.093 6  99450398.41943  24286790.149    24286796.5744
        38.200          22.8004
 111689262.498 7  87030602.54446  21253753.627    21253749.3264
        47.600          38.5004
 124505292.852 7  97017050.64643  23692590.398    23692589.4974
        42.800          22.3004
 106412273.365 8  82918639.74847  20249579.517    20249573.5174
        51.200          43.8004
 131212155.420 5 102243177.25042  24968874.808    24968880.0024
        35.800          16.3004
 129378995.790 5 100814819.31843  24620004.040    24620004.1364
        35.400          18.3004
 118936346.274 7  92677655.88645  22632830.615    22632821.9774
        46.100          32.4004
 15  9 17  2 16  0.0000000  0 11G14G04G22G11G03G08G16G27G26G01G19
 113968770.539 7  88806830.16345  21687524.333    21687516.5164
        47.800          35.0004
 118294810.873 7  92177826.18744  22510729.251    22510723.8374
        44.200          28.0004
 118557001.505 7  92382031.01845  22560650.700    22560641.5354
        46.300          32.1004
 125022750.429 6  97420316.45143  23791034.929    23791029.5164
        39.400          21.3004
 127562096.257 6  99399069.24943  24274254.544    24274260.4424
        36.700          22.3004
 111626796.700 7  86981927.93446  21241866.817    21241862.6934
        47.900          38.6004
 124585306.146 7  97079398.36243  23707816.867    23707814.9694
        42.400          22.0004
 106423263.184 8  82927203.22547  20251670.655    20251665.0064
        52.000          43.4004
 131289336.461 5 102303318.40942  24983560.682    24983567.4004
        34.700          16.3004
 129319555.997 5 100768502.77142  24608690.978    24608693.1254
        33.300          17.4004
 118852865.868 7  92612606.30645  22616944.499    22616936.6244
        45.600          33.4004
 15  9 17  2 16 30.0000000  0 11G14G04G22G11G03G08G16G27G26G01G19
 113994480.377 7  88826863.82045  21692416.831    21692409.3664
        47.200          34.8004
 118240488.812 7  92135497.38844  22500392.311    22500385.7834
        44.700          29.2004
 118625958.503 7  92435763.71945  22573772.645    22573762.5424
        46.400          32.4004
 124936463.119 6  97353079.67943  23774614.429    23774609.1324
        40.000          21.7004
 127496467.176 6  99347930.02443  24261766.669    24261770.3984
        39.500          21.7004
 111564743.250 8  86933574.63946  21230058.415    21230053.8214
        48.600          38.3004
 124665283.635 7  97141718.17143  23723036.393    23723035.5504
        42.900          22.3004
 106434804.749 8  82936196.63447  20253867.100    20253861.2764
        51.300          43.5004
 131366283.458 5 102363277.17142  24998203.460    24998209.6514
        34.500          16.3004
 129260019.632 5 100722110.86843  24597363.333    24597363.7214
        35.000          19.3004
 118769635.861 7  92547751.83945  22601106.624    22601098.7494
        45.300          32.7004
 15  9 17  2 17  0.0000000  0 11G14G04G22G11G03G08G16G27G26G01G19
 114020709.213 7  88847301.89245  21697407.479    21697400.5414
        47.400          34.7004
 118186162.378 7  92093165.18445  22490054.753    22490048.5184
        44.900          30.2004
 118694919.955 7  92489499.91345  22586895.979    22586885.8774
        47.300          32.1004
 124850152.596 6  97285824.79243  23758189.829    23758184.4164
        40.000          21.7004
 127431082.555 6  99296981.26543  24249323.693    24249327.2464
        40.000          20.9004
 111503105.219 7  86885545.04146  21218329.688    21218324.5084
        47.900          39.4004
 124745222.607 7  97204007.94543  23738248.629    23738248.1394
        42.500          22.6004
 106446898.564 8  82945620.36847  20256168.269    20256162.7384
        51.700          43.7004
 131442995.118 5 102423052.54642  25012801.811    25012807.7094
        35.200          16.3004
 129200386.874 5 100675643.93742  24586015.227    24586014.4434
        34.800          17.8004
 118686658.939 7  92483094.56445  22585316.610    22585307.9144
        44.500          33.0004
 15  9 17  2 17 30.0000000  0 11G14G04G22G11G03G08G16G27G26G01G19
 114047456.292 7  88868143.79745  21702497.704    21702490.2394
        47.600          35.5004
 118131831.912 7  92050829.83144  22479714.891    22479709.2434
        44.500          29.4004
 118763883.841 7  92543237.97745  22600018.844    22600009.1524
        44.900          30.7004
 124763820.003 6  97218552.76243  23741762.070    23741755.8944
        41.700          22.6004
 127365942.157 6  99246222.79143  24236928.249    24236932.3884
        39.600          21.8004
 111441884.363 7  86837840.52446  21206679.642    21206674.2284
        47.800          38.5004
 124825120.013 7  97266265.36343  23753453.268    23753452.1914
        42.600          21.5004
 106459544.383 8  82955474.23047  20258574.817    20258569.5794
        51.800          43.4004
 131519469.189 6 102482642.81942  25027354.115    25027359.4864
        36.100          17.4004
 129140657.168 6 100629101.42743  24574650.336    24574647.2664
        37.100          19.0004
 118603937.205 7  92418636.15245  22569575.446    22569566.8674
        45.300          33.2004
 15  9 17  2 18  0.0000000  0 11G14G04G22G11G03G08G16G27G31G01G19
 114074721.011 7  88889389.04045  21707685.931    21707678.3494
        47.500          34.7004
 118077497.842 7  92008491.67644  22469375.864    22469369.6304
        45.500          28.6004
 118832848.791 7  92596976.86945  22613143.021    22613133.0944
        45.100          31.6004
 124677466.161 6  97151264.14943  23725329.767    23725322.7704
        40.600          22.5004
 127301045.932 6  99195654.59643  24224577.279    24224583.2354
        39.700          22.3004
 111381083.237 7  86790463.05146  21195109.091    21195104.0294
        47.600          38.4004
 124904973.039 7  97328488.18343  23768649.453    23768648.5524
        43.300          22.9004
 106472742.185 8  82965758.21747  20261086.470    20261080.8224
        51.700          43.5004
 129701528.634 5                  24681380.675
        32.600
 129080830.261 5 100582483.21043  24563263.440    24563264.9424
        35.200          20.6004
 118521473.445 7  92354378.75545  22553882.728    22553874.3254
        45.700          33.4004
 15  9 17  2 18 30.0000000  0 11G14G04G22G11G03G08G16G27G31G01G19
 114102502.691 7  88911037.13545  21712972.396    21712965.3414
        46.000          34.7004
 118023160.783 7  91966151.18844  22459036.158    22459029.5724
        45.500          28.5004
 118901813.255 7  92650715.41245  22626266.007    22626256.7834
        45.000          32.4004
 124591092.638 6  97083960.21043  23708892.468    23708886.7024
        40.300          22.3004
 127236394.247 6  99145276.93943  24212275.469    24212279.7264
        40.800          21.7004
 111320704.049 7  86743414.36546  21183619.560    21183614.3224
        47.800          39.2004
 124984779.042 7  97390674.33743  23783836.009    23783834.8744
        43.300          22.5004
 106486492.171 8  82976472.47147  20263702.699    20263697.4024
        51.800          43.9004
 129654235.206 5                  24672381.958
        35.500
 129020906.058 5 100535789.13643  24551860.539    24551860.4594
        35.400          19.9004
 118439270.424 7  92290324.53945  22538239.978    22538230.9304
        45.800          33.0004
 15  9 17  2 19  0.0000000  0 11G14G04G22G11G03G08G16G27G31G01G19
 114130801.919 7  88933088.50345  21718357.262    21718350.3244
        45.700          34.9004
 117968822.479 7  91923809.73944  22448695.501    22448689.2084
        45.600          29.1004
 118970776.721 7  92704453.15845  22639388.947    22639379.9004
        45.300          31.0004
 124504701.781 6  97016642.73343  23692453.600    23692447.5424
        40.600          22.8004
 127171988.360 6  99095090.80043  24200019.838    24200023.5094
        40.600          22.9004
 111260750.674 7  86696697.48246  21172210.803    21172205.9164
        47.800          38.5004
 125064536.588 7  97452822.75843  23799013.665    23799013.1164
        42.700          22.9004
 106500795.552 8  82987617.94747  20266425.051    20266419.1094
        52.100          43.4004
 129606776.400 5                  24663349.969
        34.300
 128960885.598 5 100489020.08643  24540439.463    24540439.4414
        35.400          19.3004
 118357331.600 7  92226476.17745  22522647.935    22522639.1214
        46.100          33.4004
 15  9 17  2 19 30.0000000  0 11G14G04G22G11G03G08G16G27G31G01G19
 114159616.603 7  88955541.51145  21723841.088    21723833.6234
        46.000          34.7004
 117914482.490 7  91881466.97244  22438355.013    22438348.6624
        45.700          28.8004
 119039736.802 7  92758188.26645  22652511.924    22652503.2284
        45.200          30.9004
 124418293.602 6  96949311.79043  23676008.991    23676003.6954
        39.100          22.8004
 127107827.189 6  99045095.39043  24187809.296    24187813.0844
        39.500          19.9004
 111201224.085 7  86650313.15146  21160882.820    21160878.3444
        47.900          38.5004
 125144241.574 6  97514930.19343  23814180.985    23814180.3774
        41.900          22.5004
 106515651.111 8  82999193.69647  20269251.578    20269246.1064
        52.100          44.2004
 129559153.373 6                  24654288.383
        37.400
 128900767.608 6 100442175.01943  24529000.447    24529000.2504
        36.000          20.9004
 118275658.292 7  92162834.72045  22507105.815    22507096.9434
        46.900          33.4004
 15  9 17  2 20  0.0000000  0 11G14G04G22G11G03G08G16G27G31G01G19
 114188946.629 7  88978396.11145  21729422.361    21729414.7784
        46.000          34.9004
 117860141.513 7  91839123.43144  22428014.084    22428008.4364
        46.000          29.0004
 119108692.708 7  92811920.12645  22665634.145    22665625.0974
        45.700          30.6004
 124331870.044 6  96881968.83343  23659564.605    23659558.1364
        41.000          21.8004
 127043911.299 6  98995291.08743  24175646.842    24175649.4584
        40.000          21.1004
 111142127.061 7  86604263.55246  21149637.051    21149633.0444
        47.500          39.2004
 125223891.696 7  97576994.91943  23829337.510    23829337.0784
        42.400          22.3004
 106531059.193 8  83011199.97847  20272184.048    20272177.6974
        52.400          43.6004
 129511368.378 6                  24645194.770
        36.400
 128840552.224 6 100395254.10443  24517542.632    24517540.4424
        38.200          21.5004
 118194253.655 7  92099402.62045  22491614.776    22491605.7284
        47.700          33.5004
 15  9 17  2 20 30.0000000  0 11G14G04G22G11G03G08G16G27G31G01G19
 114218791.552 7  89001651.91445  21735101.532    21735093.9504
        46.600          35.1004
 117805800.724 7  91796780.03944  22417673.135    22417667.4874
        44.000          29.0004
 119177643.126 7  92865647.69945  22678754.994    22678745.5944
        46.600          31.5004
 124245432.882 6  96814615.27343  23643115.785    23643110.2544
        39.600          22.6004
 126980241.076 6  98945678.20243  24163530.656    24163533.5064
        40.200          21.5004
 111083462.266 7  86558550.75846  21138473.278    21138468.4514
        47.600          39.3004
 125303484.870 7  97639015.24144  23844484.395    23844483.1424
        43.200          24.8004
 106547020.144 8  83023637.06047  20275220.924    20275215.3934
        51.600          43.5004
 129463424.322 5                  24636071.191
        34.600
 128780239.732 6 100348257.49843  24506064.477    24506063.3424
        38.400          21.3004
 118113120.815 7  92036182.29045  22476175.201    22476166.4464
        47.500          33.8004
 15  9 17  2 21  0.0000000  0 11G14G04G22G11G03G08G16G27G31G01G19
 114249150.940 7  89025308.60045  21740878.715    21740870.9574
        47.100          34.9004
 117751461.016 7  91754437.48244  22407332.605    22407326.7234
        45.000          28.4004
 119246587.097 7  92919370.26745  22691874.865    22691864.8794
        46.600          31.0004
 124158983.561 6  96747252.28943  23626665.314    23626659.8424
        40.800          22.9004
 126916817.080 6  98896257.24543  24151460.486    24151464.5084
        40.600          22.5004
 111025232.424 7  86513176.89146  21127392.706    21127387.9374
        47.600          38.8004
 125383018.570 7  97700989.23044  23859620.408    23859618.1014
        43.700          24.0004
 106563534.360 8  83036505.27647  20278363.452    20278357.6874
        51.900          43.6004
 129415323.582 5                  24626916.459
        34.700
 128719830.438 6 100301185.49043  24494567.728    24494567.2374
        37.800          19.9004
 118032262.604 7  91973175.96245  22460788.554    22460780.0334
        46.900          34.6004
 15  9 17  2 21 30.0000000  0 11G14G04G22G11G03G08G16G27G31G01G19
 114280023.126 7  89049364.87745  21746753.759    21746746.5284
        46.800          35.1004
 117697122.220 7  91712095.64244  22396992.410    22396986.1174
        44.200          29.8004
 119315522.220 7  92973085.93845  22704992.858    22704983.4004
        45.700          31.4004
 124072522.611 6  96679880.19443  23610212.246    23610206.1294
        40.900          22.5004
 126853638.427 6  98847027.43843  24139439.312    24139442.8074
        41.000          22.6004
 110967439.170 8  86468143.21146  21116395.574    21116390.6884
        48.500          39.3004
 125462489.344 6  97762914.17843  23874742.671    23874741.5944
        41.800          23.3004
 106580600.750 8  83049803.74547  20281611.433    20281605.8434
        52.300          43.8004
 129367067.540 6                  24617733.145
        36.300
 128659323.335 6 100254037.22943  24483054.229    24483052.4494
        38.300          20.6004
 117951680.673 7  91910384.93145  22445454.583    22445445.5354
        47.000          34.5004
 15  9 17  2 22  0.0000000  0 11G14G04G22G11G03G08G16G27G31G01G19
 114311407.778 7  89073820.46945  21752725.850    21752717.9744
        46.000          35.0004
 117642784.982 7  91669755.01344  22386652.197    22386646.1394
        44.600          29.1004
 119384447.482 7  93026793.90745  22718108.667    22718099.0334
        45.100          31.3004
 123986051.621 6  96612500.30743  23593756.845    23593752.0174
        40.200          23.0004
 126790705.389 6  98797989.04543  24127462.627    24127466.0044
        40.500          22.2004
 110910084.628 8  86423451.38746  21105481.069    21105476.2414
        48.000          39.3004
 125541894.777 6  97824788.20143  23889853.021    23889852.5894
        41.300          22.8004
 106598219.487 8  83063532.61347  20284964.026    20284958.1434
        52.100          43.5004
 129318658.443 5                  24608521.939
        33.600
 128598718.512 6 100206812.84143  24471521.982    24471520.2614
        37.500          19.9004
 117871377.830 7  91847811.36245  22430173.730    22430164.5654
        46.800          34.7004
