     2.11           OBSERVATION DATA    G (GPS)             RINEX VERSION / TYPE
teqc  2015Jun23     UNAVCO Archive Ops  20150918 09:26:00UTCPGM / RUN BY / DATE
Solaris x86 5.10|AMD64|cc SC5.8 -xarch=amd64|=+|=+          COMMENT
BIT 2 OF LLI FLAGS DATA COLLECTED UNDER A/S CONDITION       COMMENT
AINP                                                        MARKER NAME
                                                            MARKER NUMBER
Miklius, Asta       USGS/HVO                                OBSERVER / AGENCY
4632120763          TRIMBLE NETRS       1.1-3               REC # / TYPE / VERS
60216820            TRM41249.00     NONE                    ANT # / TYPE
 -5476782.4978 -2500761.5324  2102828.7685                  APPROX POSITION XYZ
        0.0860        0.0000        0.0000                  ANTENNA: DELTA H/E/N
     1     1                                                WAVELENGTH FACT L1/2
     7    L1    L2    C1    P2    P1    S1    S2            # / TYPES OF OBSERV
    30.0000                                                 INTERVAL
input file: ainp20150917.bnx                                COMMENT
RINEX file created by UNAVCO GPS Archive.                   COMMENT
For more information contact archive@unavco.org             COMMENT
Monument ID: 17048                                          COMMENT
UNAVCO 4-char name:   AINP                                  COMMENT
4-char name from Log or data file: AINP                     COMMENT
Monument location: 19.37265216 -155.458018672 1568.1289     COMMENT
Visit ID: 96385                                             COMMENT
                                                            COMMENT
NOTICE: If using these data for scientific purposes,        COMMENT
please acknowledge the source as Stanford University        COMMENT
and the USGS Hawaii Volcano Observatory.                    COMMENT
                                                            COMMENT
End of DB comments                                          COMMENT
 SNR is mapped to RINEX snr flag value [0-9]                COMMENT
  L1 & L2: min(max(int(snr_dBHz/6), 0), 9)                  COMMENT
  2015     9    17     0     0    0.0000000     GPS         TIME OF FIRST OBS
                                                            END OF HEADER
 15  9 17  0  0  0.0000000  0  9G22G14G16G29G18G27G26G21G31
 106333237.123 8  82857026.65847  20234542.159    20234532.1734
        50.400          44.0004
 123132870.972 6  95947681.56142  23431406.260    23431403.7774
        38.100          17.4004
 110974020.642 8  86473230.07946  21117653.964    21117646.0894
        50.900          39.0004
 126248448.114 6  98375412.29143  24024280.856    24024280.4244
        38.300          22.6004
 113545610.217 8  88477066.94046  21607011.249    21607003.3744
        48.200          36.6004
 118920192.939 7  92665069.23345  22629760.344    22629756.3964
        45.400          33.0004
 109822645.994 8  85576070.24046  20898554.586    20898550.3444
        50.600          39.9004
 123361125.699 7  96125520.85444  23474841.742    23474834.0424
        42.700          24.1004
 131651031.716 6 102585211.92442  25052358.325    25052356.4874
        37.200          17.4004
 15  9 17  0  0 30.0000000  0  9G22G14G16G29G18G27G26G21G31
 106330429.925 8  82854839.22647  20234007.616    20233997.5724
        50.100          44.4004
 123065933.273 6  95895522.39543  23418667.381    23418666.4804
        37.300          18.3004
 110964227.192 8  86465598.80046  21115790.198    21115782.4404
        50.700          39.1004
 126312311.792 6  98425176.04543  24036434.323    24036432.8364
        39.400          23.2004
 113610227.132 8  88527417.73646  21619308.233    21619299.8894
        49.200          36.5004
 118843143.116 7  92605030.47645  22615099.045    22615093.9834
        45.900          33.3004
 109868992.891 8  85612184.65346  20907373.815    20907370.5114
        49.700          40.3004
 123398534.023 7  96154670.12644  23481960.175    23481953.0614
        43.400          25.8004
 131689428.565 6 102615131.52342  25059663.557    25059663.8874
        36.800          15.6004
 15  9 17  0  1  0.0000000  0  9G22G14G16G29G18G27G26G21G31
 106328113.814 8  82853034.46947  20233566.717    20233557.1424
        51.000          44.0004
 122999002.380 6  95843368.58442  23405931.881    23405928.4024
        38.000          17.4004
 110954998.692 8  86458407.74646  21114033.633    21114026.4614
        49.700          39.0004
 126376425.136 6  98475134.35743  24048635.543    24048633.9384
        39.700          21.5004
 113675132.170 8  88577993.05146  21631659.092    21631651.0404
        48.900          36.5004
 118766120.490 7  92545012.89545  22600442.112    22600436.9914
        46.400          33.5004
 109915823.775 8  85648676.19746  20916285.461    20916281.9824
        49.900          40.6004
 123435855.732 7  96183751.93844  23489062.630    23489054.9304
        42.400          26.0004
 131727537.898 6 102644827.05542  25066917.260    25066914.5424
        36.400          17.4004
 15  9 17  0  1 30.0000000  0  9G22G14G16G29G18G27G26G21G31
 106326291.174 8  82851614.23347  20233220.237    20233210.4274
        49.500          43.8004
 122932083.971 6  95791224.46243  23393198.070    23393194.0054
        37.300          18.3004
 110946338.049 8  86451659.17846  21112386.157    21112378.7504
        49.800          39.2004
 126440790.885 6  98525289.32743  24060882.066    24060882.7484
        36.800          21.8004
 113740325.558 8  88628793.06246  21644064.995    21644056.4744
        49.400          37.4004
 118689129.848 7  92485020.24145  22585791.596    22585786.1234
        47.000          33.7004
 109963139.434 8  85685545.48046  20925289.294    20925285.8734
        49.700          39.7004
 123473092.546 7  96212767.57944  23496148.581    23496140.4134
        42.200          25.3004
 131765361.445 6 102674299.90942  25074114.775    25074112.0574
        37.700          16.3004
 15  9 17  0  2  0.0000000  0  9G22G14G16G29G18G27G26G21G31
 106324959.968 8  82850576.95347  20232966.627    20232956.9934
        50.500          44.0004
 122865179.943 6  95739091.56843  23380466.405    23380462.2814
        36.800          18.3004
 110938244.526 8  86445352.53146  21110845.651    21110838.7134
        49.600          39.4004
 126505408.289 6  98575640.40443  24073179.543    24073179.6384
        36.200          21.5004
 113805804.956 8  88679815.93846  21656525.438    21656517.5624
        49.600          36.5004
 118612172.307 7  92425053.35445  22571147.155    22571140.8624
        47.000          33.1004
 110010936.914 8  85722790.22246  20934384.926    20934381.2714
        49.100          40.4004
 123510244.490 7  96241717.10344  23503218.729    23503211.0884
        42.800          25.8004
 131802897.104 6 102703548.45842  25081257.526    25081254.2224
        36.400          17.4004
 15  9 17  0  2 30.0000000  0  9G22G14G16G29G18G27G26G21G31
 106324119.823 8  82849922.29347  20232806.923    20232796.5864
        49.400          44.0004
 122798293.054 6  95686972.04742  23367738.679    23367733.5584
        36.300          17.4004
 110930718.361 8  86439487.98246  21109413.396    21109406.5764
        49.400          38.9004
 126570277.252 6  98626187.46443  24085523.333    24085522.7254
        38.300          20.9004
 113871567.891 8  88731059.75246  21669040.163    21669031.8774
        48.400          37.0004
 118535249.689 7  92365113.68045  22556508.470    22556502.9394
        47.100          32.3004
 110059214.162 8  85760408.79746  20943571.838    20943568.6524
        49.900          40.5004
 123547311.758 6  96270600.62844  23510272.394    23510264.8114
        41.400          26.9004
 131840143.388 6 102732571.46143  25088346.105    25088343.0364
        37.600          18.3004
 15  9 17  0  3  0.0000000  0  9G22G14G16G29G18G27G26G21G31
 106323770.365 8  82849649.99247  20232740.766    20232730.7224
        49.500          43.6004
 122731426.259 6  95634868.14343  23355014.402    23355009.5164
        37.700          18.3004
 110923759.558 8  86434065.53146  21108089.000    21108081.7104
        49.600          38.2004
 126635397.235 6  98676930.20043  24097916.847    24097914.7164
        38.700          22.6004
 113937612.561 8  88782523.08146  21681607.660    21681599.7854
        49.300          36.5004
 118458364.059 7  92305202.86245  22541876.763    22541873.1664
        45.600          31.6004
 110107969.132 8  85798399.62546  20952849.591    20952846.5814
        49.600          40.4004
 123584294.805 7  96299418.51644  23517309.819    23517302.2364
        42.800          26.7004
 131877099.396 5 102761368.35942  25095377.448    25095376.7234
        35.000          16.9004
 15  9 17  0  3 30.0000000  0  9G22G14G16G29G18G27G26G21G31
 106323911.532 8  82849759.99547  20232767.729    20232757.3924
        49.800          44.0004
 122664582.743 6  95582782.36943  23342293.037    23342290.3194
        36.900          19.3004
 110917368.737 8  86429085.65746  21106872.555    21106865.4424
        49.400          37.8004
 126700769.332 6  98727869.34643  24110356.120    24110355.5714
        37.500          22.6004
 114003937.017 8  88834204.45445  21694228.939    21694220.2434
        48.800          35.6004
 118381518.021 7  92245322.87245  22527253.905    22527249.5474
        46.200          31.6004
 110157200.321 8  85836761.53146  20962217.554    20962215.2464
        49.500          39.9004
 123621194.376 7  96328171.34744  23524331.400    23524324.3454
        42.500          24.7004
 131913764.297 5 102789938.35942  25102354.706    25102354.0404
        35.700          17.4004
 15  9 17  0  4  0.0000000  0  9G22G14G16G29G18G27G26G21G31
 106324540.895 8  82850250.41047  20232887.192    20232877.2074
        49.800          44.2004
 122597763.829 6  95530715.80343  23329578.258    23329574.8374
        37.500          19.6004
 110911544.584 8  86424547.33946  21105765.106    21105757.0544
        48.600          38.1004
 126766391.422 6  98779003.29443  24122843.201    24122841.6564
        37.500          21.3004
 114070537.767 8  88886101.10446  21706902.272    21706894.2794
        48.900          36.8004
 118304711.992 7  92185474.06845  22512637.710    22512634.4064
        45.100          32.8004
 110206904.061 8  85875491.66146  20971676.508    20971673.6734
        49.800          40.1004
 123658009.253 7  96356858.22244  23531337.361    23531329.7794
        42.700          25.2004
 131950135.391 5 102818279.43242  25109275.693    25109274.1484
        35.500          17.8004
 15  9 17  0  4 30.0000000  0  9G22G14G16G29G18G27G26G21G31
 106325658.030 8  82851120.91647  20233099.494    20233089.5674
        51.000          44.1004
 122530972.563 6  95478670.74743  23316868.470    23316864.3464
        37.700          19.0004
 110906287.538 8  86420450.93246  21104764.627    21104757.1034
        49.000          39.0004
 126832263.577 5  98830332.12643  24135379.233    24135376.6334
        35.800          18.6004
 114137412.737 8  88938211.43746  21719628.115    21719620.0644
        49.400          36.0004
 118227948.145 7  92125658.13645  22498030.038    22498026.8524
        45.700          32.7004
 110257078.393 8  85914588.48346  20981224.152    20981221.4344
        49.900          40.1004
 123694739.489 7  96385479.11944  23538326.455    23538319.0494
        42.400          25.3004
 131986211.797 6 102846390.88643  25116141.821    25116140.1584
        37.900          21.3004
 15  9 17  0  5  0.0000000  0  9G22G14G16G29G18G27G26G21G31
 106327262.484 8  82852371.13847  20233404.749    20233394.9984
        49.100          43.8004
 122464211.914 6  95426649.58442  23304163.477    23304159.7634
        37.700          17.4004
 110901597.037 8  86416795.97246  21103872.016    21103864.0824
        49.800          38.9004
 126898385.864 5  98881855.83643  24147960.423    24147959.5814
        35.200          18.6004
 114204559.766 8  88990533.76646  21732406.088    21732397.9784
        48.900          36.5004
 118151228.572 7  92065876.68345  22483431.082    22483427.7784
        45.800          33.7004
 110307721.247 8  85954050.38946  20990861.806    20990857.8584
        50.200          39.8004
 123731385.932 7  96414034.72944  23545300.348    23545292.5314
        43.300          26.9004
 132021992.222 6 102874271.70143  25122950.770    25122948.2874
        36.900          19.9004
 15  9 17  0  5 30.0000000  0  9G22G14G16G29G18G27G26G21G31
 106329353.867 8  82854000.78647  20233803.026    20233792.9824
        51.600          43.9004
 122397485.089 6  95374654.71943  23291466.376    23291462.1344
        37.700          18.3004
 110897473.540 8  86413582.84046  21103087.484    21103079.7264
        50.500          38.8004
 126964758.490 6  98933574.60443  24160592.861    24160589.5574
        36.300          19.0004
 114271976.997 8  89043066.62846  21745235.208    21745227.0394
        48.600          36.8004
 118074555.592 7  92006131.54045  22468840.668    22468836.7784
        46.000          34.0004
 110358830.808 8  85993875.96046  21000587.331    21000583.6174
        49.900          39.7004
 123767948.840 7  96442525.24344  23552258.046    23552250.4634
        42.600          25.6004
 132057475.688 6 102901921.09743  25129701.837    25129701.2294
        37.900          19.9004
 15  9 17  0  6  0.0000000  0  9G22G14G16G29G18G27G26G21G31
 106331931.499 8  82856009.34047  20234293.013    20234283.6144
        49.100          43.9004
 122330794.828 6  95322688.35043  23278774.710    23278770.9964
        36.900          18.3004
 110893916.936 8  86410811.43846  21102410.587    21102403.4734
        49.600          38.9004
 127031381.355 5  98985488.36943  24173268.714    24173267.9304
        34.600          19.3004
 114339662.451 8  89095808.50146  21758115.790    21758108.0914
        49.200          36.3004
 117997931.203 7  91946424.28045  22454259.640    22454255.2814
        45.700          33.5004
 110410404.736 8  86034063.37346  21010401.211    21010397.8494
        49.400          39.7004
 123804428.550 7  96470950.94444  23559200.938    23559192.5934
        43.300          26.5004
 132092661.174 6 102929338.29843  25136398.141    25136396.8304
        36.700          18.6004
 15  9 17  0  6 30.0000000  0  9G22G14G16G29G18G27G26G21G31
 106334993.189 8  82858395.07047  20234876.272    20234866.3454
        49.400          44.4004
 122264143.085 6  95270752.05643  23266091.583    23266087.2834
        38.100          19.0004
 110890926.460 8  86408481.18446  21101841.113    21101834.1764
        50.300          38.6004
 127098252.989 5  99037596.01743  24185994.147    24185993.3054
        35.400          20.4004
 114407612.740 8  89148756.72346  21771046.114    21771038.3554
        48.800          36.8004
 117921356.625 7  91886755.82145  22439688.398    22439683.5714
        46.800          34.0004
 110462440.056 8  86074610.31446  21020303.891    21020300.5874
        49.600          39.7004
 123840824.786 7  96499311.58444  23566126.131    23566119.0764
        42.800          26.4004
 132127546.812 5 102956521.93343  25143036.365    25143034.7614
        35.400          18.3004
 15  9 17  0  7  0.0000000  0  9G22G14G16G29G18G27G26G21G31
 106338539.220 8  82861158.21347  20235550.983    20235540.7634
        51.400          43.9004
 122197533.211 6  95218848.34443  23253415.452    23253412.7934
        36.000          18.3004
 110888502.462 7  86406592.32846  21101379.749    21101372.9294
        47.200          38.5004
 127165374.393 6  99089898.31343  24198769.365    24198766.4714
        38.100          19.9004
 114475826.296 8  89201910.09645  21784026.044    21784019.1654
        48.300          35.9004
 117844834.495 7  91827128.21445  22425126.709    22425121.1784
        46.800          35.4004
 110514935.109 8  86115515.49346  21030293.221    21030289.8584
        49.800          39.7004
 123877138.603 7  96527608.00544  23573035.921    23573029.5694
        42.000          27.1004
 132162132.004 6 102983471.37843  25149618.003    25149615.2854
        36.700          18.3004
 15  9 17  0  7 30.0000000  0  9G22G14G16G29G18G27G26G21G31
 106342568.124 8  82864297.62047  20236317.948    20236307.6114
        51.300          44.7004
 122130967.957 6  95166979.42043  23240750.792    23240746.0824
        36.700          18.6004
 110886644.630 7  86405144.65446  21101026.595    21101018.6024
        47.500          37.4004
 127232744.343 6  99142394.27143  24211587.420    24211586.9884
        36.200          20.1004
 114544300.761 8  89255266.76146  21797056.670    21797049.3814
        48.800          36.4004
 117768366.434 7  91767542.75045  22410574.486    22410570.1864
        46.300          34.2004
 110567887.292 8  86156776.85746  21040369.874    21040366.1024
        49.100          38.6004
 123913369.743 6  96555840.00444  23579931.219    23579924.3994
        41.700          26.6004
 132196414.761 6 103010185.17042  25156141.275    25156139.9054
        36.900          17.8004
 15  9 17  0  8  0.0000000  0  9G22G14G16G29G18G27G26G21G31
 106347079.991 8  82867813.35947  20237176.624    20237165.9944
        50.500          44.5004
 122064450.351 6  95115147.63343  23228091.220    23228088.3264
        38.000          19.9004
 110885353.151 8  86404138.28446  21100780.427    21100773.0794
        48.400          37.5004
 127300363.340 5  99195084.25843  24224455.397    24224454.9064
        35.500          19.6004
 114613034.568 8  89308825.51246  21810136.132    21810128.7844
        48.600          36.5004
 117691954.997 7  91708001.40845  22396033.799    22396029.4404
        46.100          34.5004
 110621294.790 8  86198393.02246  21050532.984    21050529.0354
        49.000          39.2004
 123949518.680 6  96584007.94844  23586809.839    23586803.3124
        40.800          25.5004
 132230395.023 5 103036663.28343  25162607.693    25162607.3794
        34.600          18.6004
 15  9 17  0  8 30.0000000  0  9G22G14G16G29G18G27G26G21G31
 106352073.247 8  82871704.20747  20238126.530    20238116.3104
        51.500          44.5004
 121997983.045 6  95063355.02643  23215443.247    23215440.1774
        39.500          20.6004
 110884627.190 7  86403572.57046  21100642.546    21100635.0804
        47.500          38.0004
 127368230.416 5  99247967.56043  24237369.659    24237370.2234
        34.800          19.6004
 114682025.128 8  89362584.34545  21823265.199    21823256.7374
        49.100          35.8004
 117615601.767 7  91648505.42945  22381504.811    22381500.3344
        47.000          34.3004
 110675154.830 8  86240361.81246  21060782.027    21060778.8404
        49.500          39.7004
 123985585.549 6  96612111.92444  23593672.698    23593666.1714
        41.100          26.3004
 132264070.796 5 103062904.15043  25169015.789    25169015.9434
        35.700          18.3004
 15  9 17  0  9  0.0000000  0  9G22G14G16G29G18G27G26G21G31
 106357546.314 8  82875968.93847  20239168.083    20239157.9214
        50.700          43.7004
 121931567.906 6  95011603.04943  23202804.839    23202801.3004
        39.900          21.5004
 110884465.993 7  86403446.94246  21100612.378    21100604.7954
        47.400          38.6004
 127436345.116 6  99301043.81643  24250333.186    24250331.6404
        36.800          20.1004
 114751269.116 8  89416540.65946  21836441.513    21836433.6384
        49.300          36.2004
 117539308.183 7  91589055.92045  22366986.770    22366982.3524
        47.000          34.4004
 110729464.430 8  86282680.91146  21071117.252    21071113.7144
        49.900          40.0004
 124021570.481 6  96640152.06644  23600521.365    23600514.2514
        41.400          24.7004
 132297440.525 5 103088906.50342  25175366.594    25175365.2834
        33.900          16.3004
 15  9 17  0  9 30.0000000  0  9G22G14G16G29G18G27G26G21G31
 106363498.329 8  82880606.87147  20240300.698    20240290.3614
        50.800          43.5004
 121865208.010 6  94959894.07943  23190177.447    23190173.0884
        39.500          21.8004
 110884869.377 7  86403761.24746  21100689.218    21100681.2264
        47.700          39.2004
 127504706.996 6  99354312.65443  24263341.577    24263339.7384
        36.200          19.6004
 114820764.464 8  89470692.83246  21849666.599    21849658.3724
        49.100          36.0004
 117463076.296 7  91529654.47345  22352479.845    22352475.7214
        47.500          34.1004
 110784221.304 8  86325348.53646  21081537.120    21081533.9334
        49.700          39.4004
 124057473.190 6  96668128.13644  23607353.305    23607346.1914
        41.100          26.0004
 132330503.272 6 103114669.59943  25181658.950    25181655.7634
        37.300          18.3004
 15  9 17  0 10  0.0000000  0  9G22G14G16G29G18G27G26G21G31
 106369929.091 8  82885617.85047  20241524.109    20241514.0074
        50.900          43.5004
 121798906.762 6  94908230.88643  23177560.379    23177556.6074
        39.900          21.7004
 110885837.261 8  86404515.41246  21100873.256    21100865.6744
        48.100          38.6004
 127573316.314 5  99407774.33843  24276397.128    24276395.3484
        33.600          18.6004
 114890509.543 8  89525039.60545  21862938.851    21862930.4484
        49.200          35.9004
 117386908.796 7  91470303.22445  22337985.929    22337981.2184
        47.300          34.3004
 110839423.673 8  86368363.29646  21092041.487    21092038.6524
        49.400          40.3004
 124093294.818 6  96696041.01144  23614170.086    23614163.2074
        41.300          27.7004
 132363258.336 5 103140192.99543  25187892.084    25187890.3624
        35.700          19.0004
 15  9 17  0 10 30.0000000  0  9G22G14G16G29G18G27G26G21G31
 106376837.617 8  82891001.11147  20242838.862    20242828.8184
        50.800          44.0004
 121732667.112 6  94856615.64843  23164956.236    23164952.1124
        40.400          22.9004
 110887369.667 7  86405709.48646  21101164.568    21101156.9854
        47.300          38.2004
 127642172.564 5  99461428.43443  24289500.375    24289499.4164
        33.800          19.3004
 114960502.487 8  89579579.50546  21876257.495    21876249.8544
        48.400          36.3004
 117310807.803 7  91411003.76645  22323503.774    22323500.2364
        47.100          34.8004
 110895069.225 8  86411723.40146  21102631.037    21102627.1474
        49.600          40.0004
 124129035.809 6  96723891.04844  23620971.050    23620964.4054
        41.300          24.7004
 132395704.478 5 103165475.64043  25194065.284    25194064.7934
        35.800          18.3004
 15  9 17  0 11  0.0000000  0  9G22G14G16G29G18G27G26G21G31
 106384222.496 8  82896755.55247  20244244.136    20244234.3854
        51.000          43.9004
 121666491.195 6  94805050.06643  23152362.900    23152358.6594
        40.600          22.6004
 110889465.563 7  86407342.61846  21101563.673    21101556.3254
        47.800          39.0004
 127711275.130 5  99515274.44843  24302650.709    24302649.2224
        35.500          18.6004
 115030740.040 8  89634310.01846  21889624.129    21889615.4334
        49.100          36.1004
 117234774.907 7  91351757.39145  22309035.323    22309031.6094
        46.500          34.9004
 110951155.064 8  86455426.58146  21113303.523    21113300.2774
        49.400          40.1004
 124164696.112 7  96751678.22244  23627756.885    23627749.0104
        42.000          26.7004
 132427840.722 6 103190516.79343  25200181.497    25200179.5414
        37.300          19.0004
 15  9 17  0 11 30.0000000  0  9G22G14G16G29G18G27G26G21G31
 106392082.705 8  82902880.38947  20245739.890    20245729.7884
        50.900          44.2004
 121600382.139 6  94753536.62443  23139781.781    23139778.5944
        39.800          22.3004
 110892124.905 8  86409414.81146  21102069.742    21102061.9844
        49.000          38.5004
 127780623.868 5  99569312.26543  24315846.785    24315845.1224
        35.000          19.0004
 115101220.082 8  89689229.49145  21903035.658    21903026.9034
        48.700          35.2004
 117158812.211 7  91292565.72145  22294580.297    22294576.8174
        46.100          35.5004
 111007678.822 8  86499470.99746  21124059.791    21124056.1944
        50.100          39.7004
 124200276.088 7  96779402.77944  23634527.382    23634521.0304
        42.000          24.5004
 132459665.549 5 103215315.32543  25206236.144    25206236.0644
        35.500          20.6004
 15  9 17  0 12  0.0000000  0  9G22G14G16G29G18G27G26G21G31
 106400418.342 8  82909375.68347  20247326.103    20247316.6444
        50.800          44.2004
 121534343.813 6  94702078.28443  23127215.523    23127211.8094
        40.500          22.6004
 110895348.035 8  86411926.32746  21102683.486    21102675.7284
        48.400          38.9004
                  99623741.69443  24329087.513
        31.800          19.0004
 115171941.991 8  89744337.42845  21916493.721    21916485.1424
        48.200          35.6004
 117082922.887 7  91233431.23945  22280139.557    22280135.4914
        47.200          35.9004
 111064639.146 8  86543855.59346  21134899.180    21134895.5244
        49.500          39.9004
 124235777.745 6  96807066.34343  23641283.799    23641275.7484
        40.900          23.5004
 132491178.909 5 103239871.11142  25212232.147    25212231.5404
        32.300          16.3004
 15  9 17  0 12 30.0000000  0  9G22G14G16G29G18G27G26G21G31
 106409226.306 8  82916239.03147  20249002.275    20248992.3484
        50.900          44.0004
 121468376.951 6  94650675.63943  23114662.719    23114659.0054
        39.900          22.6004
 110899132.484 8  86414875.21046  21103403.678    21103396.3304
        50.000          38.9004
 127920208.785 5  99678169.62242  24342380.998    24342380.0974
        33.700          17.8004
 115242900.993 7  89799630.11645  21929996.596    21929988.1354
        47.600          34.7004
 117007107.049 7  91174354.00046  22265712.325    22265707.6154
        47.900          36.7004
 111122031.557 8  86588576.88746  21145820.614    21145817.0764
        49.600          39.2004
 124271198.479 6  96834666.84544  23648023.450    23648016.5714
        40.400          25.8004
 132522377.897 5 103264181.98042  25218170.880    25218168.8074
        35.600          14.8004
 15  9 17  0 13  0.0000000  0  9G22G14G16G29G18G27G26G21G31
 106418506.276 8  82923470.17847  20250768.038    20250758.5804
        50.600          44.1004
 121402485.253 6  94599331.54644  23102123.203    23102120.0754
        40.000          24.5004
 110903478.450 8  86418261.64146  21104229.942    21104222.7114
        50.200          38.8004
 127990293.119 5  99732780.57742  24355716.840    24355716.8774
        33.700          16.9004
 115314095.771 7  89855106.53545  21943544.420    21943536.6034
        47.500          34.6004
 116931367.375 7  91115336.12646  22251299.158    22251294.5654
        46.700          36.4004
 111179854.206 8  86633633.43746  21156823.732    21156820.4284
        49.100          39.1004
 124306539.884 6  96862205.53344  23654749.530    23654741.8304
        41.100          26.5004
 132553262.311 6 103288247.64842  25224047.580    25224045.5074
        36.600          16.9004
 15  9 17  0 13 30.0000000  0  9G22G14G16G29G18G27G26G21G31
 106428257.158 8  82931068.26547  20252623.482    20252613.7894
        50.500          43.8004
 121336671.502 6  94548048.21644  23089599.844    23089596.2474
        41.400          25.3004
 110908385.610 8  86422085.36546  21105164.438    21105156.7974
        49.300          39.1004
 128060629.681 5  99787587.93643  24369099.760    24369099.3874
        32.500          18.3004
 115385524.219 7  89910765.02945  21957136.705    21957128.7134
        46.700          35.5004
 116855706.239 7  91056379.43145  22236901.420    22236896.9444
        47.100          35.7004
 111238104.849 8  86679023.47546  21167908.631    21167904.9174
        49.000          39.0004
 124341802.288 6  96889682.64844  23661459.500    23661452.9724
        41.300          24.8004
 132583830.709 6 103312067.09542  25229865.387    25229863.3734
        37.600          17.4004
 15  9 17  0 14  0.0000000  0  9G22G14G16G29G18G27G26G21G31
 106438478.879 8  82939033.24547  20254568.782    20254558.9724
        50.100          44.2004
 121270939.388 7  94496828.45843  23077092.027    23077087.6104
        42.100          23.8004
 110913854.237 8  86426346.60146  21106204.563    21106197.0394
        49.000          38.6004
 128131202.891 5  99842579.90042  24382530.957    24382529.9394
        32.000          16.9004
 115457184.502 7  89966604.17345  21970773.530    21970765.0104
        46.500          35.3004
 116780126.501 7  90997486.20045  22222518.988    22222514.4544
        46.400          35.9004
 111296781.737 8  86724745.64746  21179074.510    21179071.7344
        48.500          38.6004
 124376986.946 6  96917099.19044  23668154.866    23668147.4014
        40.900          25.6004
 132614083.462 6 103335640.66142  25235621.653    25235620.5184
        36.300          16.9004
 15  9 17  0 14 30.0000000  0  9G22G14G16G29G18G27G26G21G31
 106449169.721 8  82947363.75947  20256603.167    20256593.3574
        50.300          44.0004
 121205291.309 7  94445674.19344  23064598.197    23064594.9524
        42.000          24.7004
 110919883.239 8  86431044.50946  21107351.863    21107344.8084
        48.000          38.3004
 128202019.648 5  99897761.62742  24396007.192    24396004.7674
        33.500          16.9004
 115529074.196 7  90022622.07945  21984453.085    21984444.9164
        46.400          34.3004
 116704629.779 7  90938657.64445  22208152.204    22208147.2594
        47.000          35.8004
 111355881.805 7  86770797.57646  21190319.822    21190317.7494
        46.600          38.5004
 124412093.933 6  96944455.19343  23674835.250    23674828.6644
        40.900          23.5004
 132644018.791 6 103358966.85742  25241318.932    25241315.9214
        37.300          17.4004
 15  9 17  0 15  0.0000000  0  9G22G14G16G29G18G27G26G21G31
 106460328.229 8  82956058.70447  20258726.530    20258716.6614
        51.600          43.9004
 121139729.742 6  94394587.34644  23052122.032    23052118.9034
        41.900          24.7004
 110926471.794 8  86436178.41446  21108605.785    21108598.2614
        48.800          38.4004
 128273087.401 5  99953129.71142  24409528.902    24409527.7084
        32.900          17.4004
 115601190.768 7  90078816.78345  21998176.768    21998168.2474
        47.200          34.4004
 116629217.962 7  90879895.24245  22193801.639    22193796.9874
        46.700          35.5004
 111415402.309 7  86817177.12446  21201646.794    21201644.1934
        47.600          38.1004
 124447123.236 6  96971750.67944  23681501.133    23681494.9574
        40.700          24.4004
 132673635.441 6 103382044.74642  25246954.973    25246953.8374
        37.500          17.4004
 15  9 17  0 15 30.0000000  0  9G22G14G16G29G18G27G26G21G31
 106471953.272 8  82965117.18947  20260938.488    20260928.7374
        51.100          43.7004
 121074258.061 6  94343570.54443  23039662.912    23039659.5504
        41.100          22.3004
 110933619.070 8  86441747.68246  21109965.937    21109958.4144
        48.900          39.1004
 128344389.617 5 100008689.76042  24423098.094    24423096.3734
        34.400          17.4004
 115673531.843 7  90135186.42545  22011942.813    22011933.8824
        47.800          33.4004
 116553893.060 7  90821200.56845  22179468.072    22179463.0104
        47.000          35.7004
 111475340.515 8  86863882.15646  21213052.709    21213050.2844
        48.600          38.3004
 124482075.215 6  96998985.90444  23688152.986    23688145.5794
        41.600          25.4004
 132702932.477 6 103404873.53142  25252529.340    25252529.2594
        36.200          17.8004
 15  9 17  0 16  0.0000000  0  9G22G14G16G29G18G27G26G21G31
 106484044.996 8  82974539.31247  20263239.697    20263229.5944
        50.000          43.3004
 121008879.803 6  94292626.53744  23027221.344    23027218.3924
        41.300          25.2004
 110941326.258 8  86447753.24546  21111432.829    21111425.7154
        49.200          39.3004
                 100064444.37242  24436710.711
        32.600          17.8004
 115746096.206 7  90191730.05445  22025751.542    22025743.0214
        46.300          34.4004
 116478658.581 7  90762576.34245  22165150.960    22165146.6014
        46.100          35.8004
 111535695.363 8  86910911.83246  21224538.406    21224535.3954
        48.300          37.9004
 124516951.747 7  97026162.32344  23694789.970    23694782.3294
        42.000          24.7004
 132731910.150 6 103427453.44443  25258043.524    25258043.6194
        36.700          18.3004
 15  9 17  0 16 30.0000000  0  9G22G14G16G29G18G27G26G21G31
 106496599.570 8  82984322.09047  20265629.132    20265619.0294
        51.000          43.4004
 120943595.073 7  94241755.39644  23014799.023    23014795.1924
        42.900          25.7004
 110949589.464 8  86454192.06446  21113005.033    21112997.8614
        49.700          38.4004
 128487727.241 5 100120385.38143  24450372.544    24450372.1124
        32.600          18.3004
 115818879.172 7  90248444.03345  22039601.770    22039593.3094
        47.300          34.0004
 116403514.109 7  90704022.26745  22150851.417    22150846.5314
        46.700          35.0004
 111596461.503 8  86958262.00546  21236101.987    21236098.3314
        48.200          38.5004
 124551750.345 6  97053278.03144  23701411.423    23701403.4894
        41.000          24.0004
 132760564.873 5 103449781.78343  25263496.066    25263496.1624
        34.000          18.3004
 15  9 17  0 17  0.0000000  0  9G22G14G16G29G18G27G26G21G31
 106509618.417 8  82994466.64147  20268106.126    20268096.6094
        51.200          43.8004
 120878409.592 7  94190961.61544  23002395.082    23002390.7244
        43.800          27.6004
 110958410.341 8  86461065.44246  21114683.569    21114676.1624
        49.900          39.5004
 128559755.247 5 100176510.97442  24464078.201    24464079.0594
        30.100          16.9004
 115891881.053 7  90305328.57145  22053493.450    22053485.1064
        45.500          32.6004
 116328464.287 7  90645541.93846  22136570.140    22136564.8434
        45.400          36.1004
 111657638.995 8  87005932.70346  21247743.726    21247740.6574
        48.000          38.6004
 124586474.162 7  97080335.46244  23708019.950    23708012.7774
        42.600          24.9004
 132788898.042 5 103471859.52142  25268889.022    25268888.0624
        35.000          16.3004
 15  9 17  0 17 30.0000000  0  9G22G14G16G29G18G27G26G21G31
 106523098.109 8  83004970.29647  20270671.035    20270661.4014
        49.100          43.9004
 120813324.016 7  94140245.63844  22990009.622    22990005.5564
        43.600          28.3004
 110967786.450 8  86468371.46746  21116467.779    21116460.7824
        50.100          39.2004
 128632004.041 5 100232824.36742  24477829.559    24477831.3544
        31.000          17.8004
 115965097.514 7  90362380.30045  22067426.256    22067418.0294
        46.600          34.4004
 116253509.211 7  90587135.41345  22122307.014    22122301.8934
        46.400          35.6004
 111719223.014 7  87053920.18046  21259462.545    21259459.9444
        47.500          38.6004
 124621121.813 7  97107333.54444  23714613.076    23714606.6654
        42.800          25.6004
 132816906.933 5 103493684.56042  25274218.241    25274217.8684
        35.000          14.8004
 15  9 17  0 18  0.0000000  0  9G22G14G16G29G18G27G26G21G31
 106537038.119 8  83015832.63247  20273323.669    20273313.9774
        49.200          43.5004
 120748341.837 7  94089610.26344  22977644.023    22977639.7234
        43.900          26.9004
 110977718.029 8  86476110.33546  21118358.042    21118350.5764
        49.300          39.9004
 128704511.407 5 100289323.49142  24491629.505    24491630.3034
        32.400          16.9004
 116038527.224 7  90419598.24045  22081399.103    22081390.9934
        46.200          33.4004
 116178651.725 7  90528804.94746  22108061.885    22108056.8824
        45.800          36.1004
 111781211.720 8  87102222.98146  21271258.852    21271255.9584
        48.500          38.5004
 124655694.476 6  97134273.18744  23721192.305    23721185.0744
        40.800          24.4004
 132844591.074 5 103515256.42442  25279486.210    25279483.9024
        31.800          13.9004
 15  9 17  0 18 30.0000000  0  9G22G14G16G29G18G27G26G21G31
 106551437.759 8  83027053.13547  20276063.964    20276054.1544
        50.500          44.2004
 120683466.749 7  94039058.31944  22965299.514    22965294.5104
        43.600          27.7004
 110988204.359 8  86484281.46646  21120353.817    21120345.8254
        50.400          39.3004
 128777258.802 5 100346009.56542  24505472.521    24505473.8474
        31.900          17.4004
 116112168.231 7  90476980.80645  22095412.805    22095404.4614
        45.800          34.0004
 116103894.697 7  90470552.74545  22093835.990    22093830.9864
        45.500          35.5004
 111843603.114 8  87150839.58546  21283131.705    21283128.1674
        49.200          39.1004
 124690193.000 6  97161155.05343  23727756.217    23727748.9284
        40.200          23.9004
 132871950.435 5                  25284693.005
        34.800
 15  9 17  0 19  0.0000000  0  9G22G14G16G29G18G27G26G21G31
 106566295.301 8  83038630.43047  20278891.770    20278881.5504
        49.800          43.9004
 120618701.098 7  93988591.65844  22952974.175    22952969.9924
        44.300          27.6004
 110999244.242 8  86492883.94246  21122454.187    21122446.6054
        49.200          38.6004
 128850245.086 5 100402881.91143  24519361.355    24519361.9204
        34.500          18.3004
 116186017.789 7  90534525.85845  22109466.262    22109457.8594
        45.600          33.6004
 116029239.762 7  90412380.11845  22079629.115    22079624.3454
        44.700          35.6004
 111906394.019 8  87199767.48746  21295080.245    21295077.2344
        48.700          38.8004
 124724617.366 6  97187979.12943  23734307.821    23734300.2394
        40.800          22.8004
 132898983.394 5                  25289836.358
        33.400
 15  9 17  0 19 30.0000000  0  9G22G14G16G29G18G27G26G21G31
 106581609.348 8  83050563.44847  20281805.646    20281795.7784
        51.200          43.9004
 120554047.837 7  93938212.56144  22940670.517    22940666.6854
        43.400          27.6004
 111010837.045 8  86501917.25846  21124659.967    21124653.3814
        50.000          39.0004
 128923469.768 5 100459939.95743  24533296.864    24533295.6704
        35.700          19.0004
 116260073.798 7  90592231.80345  22123558.565    22123550.0444
        46.000          33.3004
 115954689.135 7  90354288.77846  22065442.834    22065438.0064
        45.600          36.1004
 111969581.746 8  87249004.60546  21307104.710    21307101.5234
        49.100          38.5004
 124758968.002 6  97214745.75343  23740844.594    23740837.1884
        40.400          22.9004
 132925689.142 5                  25294918.715
        34.800
 15  9 17  0 20  0.0000000  0  9G22G14G16G29G18G27G26G21G31
 106597379.105 8  83062851.56347  20284806.966    20284796.4534
        50.000          43.5004
 120489510.024 7  93887923.43644  22928389.250    22928385.3604
        44.000          27.5004
 111022982.219 8  86511380.98846  21126971.558    21126964.3274
        49.200          38.8004
 128996932.140 5 100517183.20142  24547274.955    24547274.8754
        33.900          17.8004
 116334334.135 7  90650096.96145  22137690.190    22137681.7284
        45.900          33.8004
 115880245.386 7  90296280.70745  22051276.650    22051271.0614
        45.500          35.6004
 112033164.047 8  87298549.17146  21319203.590    21319200.8724
        48.000          38.9004
 124793245.794 6  97241455.61943  23747367.950    23747360.4264
        40.400          22.6004
 132952067.223 5                  25299937.673
        32.500
 15  9 17  0 20 30.0000000  0  9G22G14G16G29G18G27G26G21G31
 106613602.792 8  83075493.39247  20287893.911    20287883.9264
        50.100          43.7004
 120425090.150 7  93837726.20944  22916129.464    22916126.3354
        43.400          26.4004
 111035678.533 8  86521274.17346  21129387.611    21129379.7944
        49.500          39.5004
 129070631.686 5 100574611.32742  24561300.549    24561300.1174
        33.300          16.9004
 116408796.628 7  90708119.64145  22151859.461    22151851.5274
        45.200          32.4004
 115805910.378 7  90238357.35046  22037131.559    22037126.1454
        45.800          36.9004
 112097137.848 8  87348398.80846  21331377.532    21331374.9314
        48.400          38.3004
 124827451.310 6  97268109.16844  23753877.528    23753870.2394
        41.400          24.7004
 132978116.321 5                  25304895.032
        33.300
 15  9 17  0 21  0.0000000  0  9G22G14G16G29G18G27G26G21G31
 106630278.902 8  83088487.76347  20291067.052    20291057.0664
        50.900          43.4004
 120360791.067 7  93787623.09344  22903894.560    22903890.1424
        43.700          28.6004
 111048924.499 8  86531595.68046  21131908.023    21131900.8514
        49.200          38.9004
 129144567.878 5 100632223.81842  24575370.108    24575370.4374
        32.900          16.3004
 116483458.483 7  90766297.66645  22166067.052    22166059.1764
        45.400          32.8004
 115731686.152 7  90180520.33646  22023005.991    22023001.8674
        44.600          36.2004
 112161500.281 8  87398551.27746  21343625.443    21343622.3154
        48.800          38.0004
 124861584.161 6  97294706.09444  23760372.164    23760364.9924
        41.300          25.4004
 133003835.314 5                  25309790.438
        35.500
 15  9 17  0 21 30.0000000  0  9G22G14G16G29G18G27G26G21G31
 106647406.148 8  83101833.66647  20294326.121    20294316.6044
        49.600          43.5004
 120296615.484 7  93737616.19544  22891682.041    22891678.0934
        44.000          28.6004
 111062719.848 8  86542345.25146  21134533.391    21134526.2774
        48.500          38.6004
 129218739.741 5 100690019.93342  24589485.132    24589486.5164
        32.800          16.9004
 116558317.407 7  90824629.26045  22180311.720    22180304.1384
        44.800          33.2004
 115657575.015 7  90122771.44146  22008903.890    22008899.0034
        45.300          36.8004
 112226248.706 8  87449004.50946  21355947.152    21355944.2004
        49.100          38.2004
 124895645.393 6  97321247.19144  23766853.903    23766846.5554
        41.600          24.0004
 133029223.271 6                  25314621.007
        37.100
 15  9 17  0 22  0.0000000  0  9G22G14G16G29G18G27G26G21G31
 106664983.391 8  83115530.20847  20297671.084    20297661.3334
        50.700          43.9004
 120232566.488 7  93687707.95144  22879494.695    22879489.7504
        45.100          28.8004
 111077063.454 8  86553522.04246  21137262.376    21137255.2624
        49.100          39.2004
 129293146.703 5 100747999.23642  24603643.911    24603644.6524
        32.200          17.4004
 116633371.325 7  90883112.77845  22194594.734    22194587.0344
        46.700          33.7004
 115583579.344 7  90065112.51245  21994823.061    21994818.2334
        44.900          35.5004
 112291380.569 8  87499756.52446  21368341.047    21368337.9784
        48.800          37.4004
 124929635.621 6  97347732.98043  23773321.721    23773314.6664
        41.200          23.0004
 133054279.825 5                  25319388.833
        32.200
 15  9 17  0 22 30.0000000  0  9G22G14G16G29G18G27G26G21G31
 106683008.691 8  83129575.88747  20301101.555    20301091.6864
        50.700          43.5004
 120168646.835 7  93637900.50544  22867330.995    22867326.9294
        45.600          29.6004
 111091953.739 8  86565124.81846  21140096.341    21140088.8764
        49.100          39.1004
 129367788.171 5 100806161.25242  24617847.647    24617848.2704
        32.200          16.9004
 116708618.081 7  90941746.56645  22208913.763    22208905.6534
        46.400          33.5004
 115509701.142 7  90007545.12446  21980764.231    21980759.3454
        44.900          36.1004
 112356892.829 8  87550804.96146  21380807.519    21380804.8604
        49.100          38.2004
 124963555.310 6  97374163.81144  23779775.859    23779769.8014
        41.400          24.6004
 133079003.710 5                  25324094.589
        34.700
 15  9 17  0 23  0.0000000  0  9G22G14G16G29G18G27G26G21G31
 106701482.017 8  83143970.68247  20304616.471    20304606.4274
        50.500          43.1004
 120104860.404 7  93588196.85645  22855192.537    22855188.4134
        44.900          30.2004
 111107391.041 8  86577153.85146  21143033.946    21143026.5984
        49.500          39.0004
 129442664.326 5 100864506.19743  24632096.437    24632097.2954
        32.200          18.6004
 116784056.001 7  91000529.31545  22223269.368    22223261.6684
        46.700          33.3004
 115435943.680 7  89950071.81846  21966728.681    21966723.5024
        45.400          36.3004
 112422783.916 8  87602148.59046  21393346.193    21393343.5334
        48.800          38.2004
 124997405.858 6  97400540.75543  23786218.444    23786211.3304
        41.000          22.6004
 133103395.436 6                  25328735.792
        36.100
 15  9 17  0 23 30.0000000  0  9G22G14G16G29G18G27G26G21G31
 106720400.521 8  83158712.37347  20308216.700    20308206.4224
        50.200          43.1004
 120041208.636 7  93538598.15744  22843080.182    22843075.4714
        45.800          29.8004
 111123373.003 8  86589607.28346  21146075.573    21146068.1084
        49.000          39.1004
 129517773.481 5 100923032.61242  24646390.169    24646389.9134
        32.900          16.3004
 116859681.693 7  91059458.38545  22237660.867    22237652.6994
        47.000          33.6004
 115362307.921 7  89892693.34546  21952716.377    21952711.3154
        45.800          36.8004
 112489049.591 8  87653784.11046  21405956.735    21405953.6664
        49.100          38.0004
 125031186.703 6  97426863.37643  23792645.427    23792640.2484
        41.400          22.8004
 133127452.427 5                  25333313.227
        31.500
 15  9 17  0 24  0.0000000  0  9G22G14G16G29G18G27G26G21G31
 106739762.974 8  83173799.99847  20311900.932    20311891.0054
        51.000          43.1004
 119977694.766 7  93489106.90244  22830993.398    22830988.7464
        45.000          29.9004
 111139899.115 8  86602484.73146  21149220.661    21149212.9614
        49.100          39.9004
 129593115.103 5 100981740.21543  24660727.233    24660725.8054
        34.500          18.6004
 116935493.228 7  91118532.26245  22252087.006    22252078.6624
        45.800          33.7004
 115288796.369 7  89835411.65446  21938727.402    21938722.1054
        46.900          37.0004
 112555687.363 8  87705709.56546  21418637.265    21418634.7234
        49.400          38.2004
 125064898.531 6  97453132.24943  23799061.206    23799054.6204
        41.300          22.8004
 133151304.418 5                  25337825.929
        30.700
 15  9 17  0 24 30.0000000  0  9G22G14G16G29G18G27G26G21G31
 106759567.852 8  83189232.36147  20315670.202    20315659.9824
        50.500          43.3004
 119914321.831 7  93439725.45845  22818934.096    22818929.5624
        44.600          30.6004
 111156968.047 8  86615785.16346  21152468.439    21152461.1494
        48.700          39.7004
 129668688.346 5 101040628.31942  24675108.043    24675106.3214
        34.100          16.9004
 117011488.819 7  91177749.56445  22266548.195    22266540.4954
        45.400          32.7004
 115215411.360 7  89778228.56246  21924762.682    21924757.5034
        46.400          37.3004
 112622694.600 8  87757922.92146  21431388.499    21431385.4294
        49.300          38.2004
 125098541.818 6  97479347.70843  23805464.282    23805457.1684
        41.400          22.6004
 133174690.892 5                  25342279.010
        34.400
 15  9 17  0 25  0.0000000  0  9G22G14G16G29G18G27G26G21G31
 106779814.746 8  83205009.16947  20319522.989    20319512.9454
        50.100          43.7004
 119851093.404 7  93390456.63544  22806902.328    22806897.6764
        45.300          29.9004
 111174579.316 8  86629508.18846  21155819.849    21155812.7354
        48.000          39.1004
 129744493.563 5 101099697.10942  24689532.738    24689532.4234
        30.800          16.9004
 117087666.363 7  91237108.65845  22281044.093    22281036.8034
        45.700          33.4004
 115142156.028 7  89721146.53546  21910822.861    21910817.5064
        46.300          37.6004
 112690069.385 8  87810422.66746  21444209.652    21444206.1144
        48.600          37.0004
 125132117.899 6  97505510.75243  23811852.347    23811846.1714
        40.300          22.5004
 133197741.679 5                  25346665.556
        32.300
 15  9 17  0 25 30.0000000  0  9G22G14G16G29G18G27G26G21G31
 106800502.747 8  83221129.67947  20323459.902    20323449.8584
        51.200          43.6004
 119788012.998 7  93341303.13244  22794898.457    22794893.8634
        45.300          29.7004
 111192733.011 8  86643653.88846  21159274.304    21159267.1914
        48.100          38.9004
 129820530.278 5 101158946.33242  24704002.050    24704002.2044
        32.400          17.8004
 117164024.589 7  91296608.51345  22295574.972    22295567.2134
        46.900          34.4004
 115069033.366 7  89664167.87146  21896907.774    21896903.4744
        45.800          37.8004
 112757809.565 8  87863207.13946  21457099.943    21457097.3434
        48.400          37.5004
 125165628.514 7  97531622.85243  23818230.449    23818223.8634
        42.600          22.6004
                                  25350988.953
        28.600
 15  9 17  0 26  0.0000000  0  9G22G14G16G29G18G27G26G21G31
 106821627.709 8  83237590.68847  20327479.833    20327469.9644
        49.800          43.6004
 119725081.074 7  93292265.33645  22782923.397    22782917.8074
        45.000          30.2004
 111211424.679 8  86658218.77846  21162831.026    21162823.7374
        48.200          38.4004
 129896817.524 5 101218384.58642  24718515.003    24718515.5674
        31.600          15.6004
 117240558.202 7  91356245.06045  22310139.087    22310131.3284
        46.600          33.6004
 114996042.900 7  89607292.23046  21883017.810    21883013.8614
        45.600          37.3004
 112825909.562 8  87916271.97846  21470058.893    21470056.4694
        48.200          38.2004
 125199071.270 6  97557682.03043  23824594.863    23824587.8674
        41.600          23.0004
                                  25355243.607
        27.300
 15  9 17  0 26 30.0000000  0  8G22G14G16G29G18G27G26G21
 106843191.374 8  83254393.54447  20331583.366    20331573.3224
        51.000          44.2004
 119662302.982 7  93243347.41945  22770976.104    22770971.7454
        44.800          30.2004
 111230656.187 8  86673204.32046  21166490.539    21166483.6014
        48.600          39.1004
                 101277986.85942  24733070.982
        31.600          16.3004
 117317268.104 7  91416018.96245  22324736.289    22324729.4684
        47.200          33.8004
 114923189.903 7  89550523.69946  21869154.517    21869149.7474
        47.000          37.4004
 112894369.594 7  87969617.38346  21483086.495    21483084.0704
        47.500          37.0004
 125232449.406 6  97583690.88343  23830945.694    23830939.8704
        41.200          22.5004
 15  9 17  0 27  0.0000000  0  8G22G14G16G29G18G27G26G21
 106865187.191 8  83271533.13147  20335768.915    20335758.8124
        51.100          43.4004
 119599677.546 7  93194548.45645  22759058.663    22759054.2464
        45.000          30.4004
 111250422.389 8  86688606.51146  21170252.091    21170244.9774
        49.600          38.8004
 130050038.608 5 101337774.93542  24747671.027    24747670.6544
        31.900          16.3004
 117394148.355 7  91475925.61145  22339365.793    22339358.7384
        46.900          33.0004
 114850472.516 7  89493860.84046  21855316.870    21855311.5154
        47.300          37.3004
 112963182.571 8  88023237.79646  21496181.675    21496178.7234
        48.400          37.4004
 125265759.722 6  97609646.86344  23837284.702    23837278.7024
        41.800          24.3004
 15  9 17  0 27 30.0000000  0  9G22G14G04G16G29G18G27G26G21
 106887617.134 8  83289011.00647  20340036.890    20340026.9054
        51.100          43.5004
 119537210.928 7  93145873.24145  22747172.478    22747166.9474
        45.900          30.0004
                                  24692726.260
        31.600
 111270725.006 8  86704426.68846  21174116.040    21174108.2824
        50.100          38.4004
 130126988.586 5 101397735.81743  24762315.958    24762315.0574
        33.700          18.6004
 117471199.430 7  91535965.35345  22354027.742    22354021.3314
        47.000          32.3004
 114777896.110 7  89437307.83646  21841505.807    21841501.3314
        47.300          37.2004
 113032348.846 7  88077133.50146  21509342.652    21509340.8134
        47.800          37.3004
 125299005.883 7  97635552.88143  23843612.040    23843604.8094
        42.700          22.2004
 15  9 17  0 28  0.0000000  0 10G22G14G04G16G29G08G18G27G26G21
 106910470.404 8  83306818.74247  20344386.027    20344375.6904
        51.000          43.8004
 119474896.728 7  93097316.81845  22735314.035    22735309.6764
        45.200          30.2004
 129706365.902 5                  24682300.739
        33.100
 111291553.520 8  86720656.65246  21178079.439    21178071.7394
        50.000          38.8004
 130204156.486 5 101457866.45242  24776999.674    24777000.2384
        33.700          17.4004
                                  24797173.301
        33.600
 117548409.630 7  91596129.10445  22368720.487    22368713.7834
        46.000          32.3004
 114705453.739 7  89380859.28846  21827720.989    21827715.7514
        47.800          37.6004
 113101856.222 8  88131295.00146  21522570.464    21522567.6294
        48.200          37.6004
 125332179.236 6  97661402.14044  23849923.696    23849918.2234
        41.500          25.3004
 15  9 17  0 28 30.0000000  0 10G22G14G04G16G29G08G18G27G26G21
 106933767.945 8  83324972.66247  20348819.513    20348809.7034
        48.800          43.5004
 119412759.940 7  93048898.61845  22723489.902    22723485.1334
        46.000          30.7004
 129651653.346 5                  24671889.812
        35.800
 111312928.978 7  86737312.81246  21182146.861    21182139.3374
        47.900          38.2004
 130281564.118 5 101518183.87642  24791732.368    24791731.2914
        34.100          16.9004
 130217511.270 4                  24779568.506
        29.400
 117625799.493 7  91656432.84545  22383447.443    22383440.0954
        46.300          31.9004
 114633170.105 8  89324534.42346  21813965.737    21813960.6754
        48.600          37.7004
 113171724.232 8  88185737.51246  21535865.377    21535863.1284
        48.800          37.2004
 125365302.666 6  97687212.51343  23856227.224    23856220.8144
        41.600          22.3004
 15  9 17  0 29  0.0000000  0 11G22G14G04G16G29G08G18G27G26G21G31
 106957488.228 8  83343455.99547  20353333.123    20353323.3724
        48.700          42.6004
 119350784.187 7  93000605.91444  22711695.998    22711691.4054
        45.200          28.9004
 129596991.898 6                  24661489.249
        37.600
 111334830.129 8  86754378.60446  21186315.270    21186306.8094
        48.200          39.1004
 130359193.770 5 101578676.96042  24806503.004    24806502.0454
        34.300          15.6004
 130124899.634 5                  24761945.753
        31.600
 117703347.004 7  91716859.43345  22398204.209    22398196.3334
        46.000          31.9004
 114561027.806 8  89268319.68746  21800237.596    21800231.8894
        48.000          37.7004
 113241930.324 7  88240443.46946  21549225.371    21549222.8294
        47.800          36.5004
 125398357.198 6  97712969.18343  23862516.298    23862510.9424
        41.300          22.6004
 133370339.057 5                  25379436.078
        34.400
 15  9 17  0 29 30.0000000  0 11G22G14G04G16G29G08G18G27G26G21G31
 106981638.439 8  83362274.32347  20357928.457    20357918.4134
        48.500          43.2004
 119288980.484 7  92952447.26845  22699935.012    22699929.8914
        43.900          30.5004
 129542389.310 5                  24651097.150
        34.800
 111357264.400 8  86771859.80846  21190584.279    21190576.1694
        48.300          38.6004
 130437047.339 5 101639341.86442  24821316.971    24821318.1214
        32.600          16.9004
 130032206.487 5                  24744307.156
        31.300
 117781058.237 7  91777413.59045  22412992.119    22412985.0644
        45.600          32.4004
 114489037.824 7  89212223.63846  21786538.072    21786533.3614
        47.800          38.0004
 113312480.232 7  88295417.33146  21562650.796    21562648.1964
        47.800          36.9004
 125431351.932 6  97738679.29043  23868796.433    23868790.0234
        41.300          22.9004
 133390331.472 5                  25383237.499
        33.900
 15  9 17  0 30  0.0000000  0 10G22G14G04G16G29G08G18G27G26G21
 107006214.417 8  83381424.42647  20362605.472    20362595.5464
        49.500          43.5004
 119227349.751 7  92904423.38944  22688206.755    22688201.9864
        43.900          29.8004
 129487842.860 6                  24640717.562
        36.800
 111380228.294 8  86789753.71346  21194954.078    21194946.1444
        48.900          38.5004
 130515125.451 5 101700181.78842  24836176.215    24836176.3104
        33.700          16.9004
 129939412.935 5                  24726651.008
        33.600
 117858929.089 7  91838092.11745  22427811.151    22427803.3934
        47.000          32.4004
 114417200.268 7  89156246.36446  21772867.443    21772862.5574
        47.500          38.2004
 113383368.828 8  88350655.11246  21576140.189    21576138.0574
        48.500          37.3004
 125464285.528 7  97764341.73543  23875062.946    23875057.4744
        42.100          23.0004
 15  9 17  0 30 30.0000000  0 10G22G14G04G16G29G08G18G27G26G21
 107031213.791 8  83400904.44447  20367362.913    20367352.5764
        50.800          42.8004
 119165893.872 7  92856535.77745  22676512.843    22676507.1954
        44.700          30.2004
 129433350.850 5                  24630346.978
        35.000
 111403719.673 8  86808058.63846  21199424.305    21199416.8404
        50.300          38.8004
 130593422.274 5 101761199.41742  24851075.057    24851076.0904
        30.800          15.6004
 129846547.749 5                  24708980.372
        33.900
 117936956.079 7  91898892.31245  22442658.412    22442651.0644
        46.000          31.1004
 114345516.465 8  89100388.90446  21759226.940    21759221.5854
        48.100          37.9004
 113454592.218 8  88406153.77246  21589693.964    21589691.4224
        48.000          37.2004
 125497157.610 6  97789956.21643  23881318.800    23881313.6794
        41.700          22.9004
 15  9 17  0 31  0.0000000  0 10G22G14G04G16G29G08G18G27G26G21
 107056635.116 8  83420713.25447  20372200.582    20372190.3044
        50.900          43.5004
 119104615.921 7  92808786.79344  22664851.323    22664846.6714
        43.500          29.1004
 129378912.748 6                  24619988.795
        36.500
 111427736.937 8  86826773.33946  21203994.554    21203987.3234
        51.000          38.9004
 130671932.446 5 101822385.46742  24866016.363    24866017.9834
        31.000          15.6004
 129753598.578 5                  24691290.507
        31.200
 118015137.513 7  91959812.86245  22457536.055    22457528.4724
        46.800          31.5004
 114273989.203 7  89044653.41246  21745615.853    21745610.6744
        47.700          38.0004
 113526147.959 8  88461911.39746  21603310.336    21603308.0294
        49.000          36.3004
 125529969.539 6  97815523.86943  23887562.919    23887557.0374
        41.300          23.6004
 15  9 17  0 31 30.0000000  0 10G22G14G04G16G29G08G18G27G26G21
 107082478.862 8  83440851.21847  20377117.959    20377108.1504
        51.000          43.0004
 119043520.864 7  92761180.32844  22653225.136    22653220.0154
        44.500          29.2004
 129324530.209 6                  24609639.652
        37.500
 111452281.238 8  86845898.72646  21208665.034    21208657.8034
        50.200          39.4004
                 101883532.14652  24880999.035
        29.100          15.6004
 129660569.132 5                  24673586.722
        31.500
 118093473.158 7  92020853.57945  22472443.134    22472436.4314
        46.100          31.5004
 114202622.768 7  88989043.25046  21732034.772    21732030.0034
        47.900          37.8004
 113598035.113 8  88517927.27546  21616989.945    21616987.4034
        48.500          36.4004
 125562723.562 6  97841046.38943  23893795.448    23893789.4484
        41.300          22.8004
 15  9 17  0 32  0.0000000  0 10G22G14G04G16G29G08G18G27G26G21
 107108739.429 8  83461313.98447  20382115.694    20382105.5914
        50.400          42.4004
 118982607.378 7  92713715.34845  22641634.252    22641628.6624
        43.600          30.6004
 129270198.128 6                  24599298.518
        36.700
 111477346.532 8  86865430.07446  21213434.804    21213427.3394
        50.100          39.4004
 130829652.199 5 101945077.52242  24896028.028    24896029.3544
        33.300          16.3004
 129567461.017 5                  24655870.125
        35.100
 118171956.678 7  92082009.51645  22487377.663    22487370.8434
        46.800          32.3004
 114131415.562 8  88933557.14846  21718484.339    21718479.4534
        48.700          38.5004
 113670246.705 7  88574195.95446  21630731.702    21630729.4534
        47.800          37.0004
 125595416.356 7  97866521.19143  23900017.702    23900010.4134
        42.200          22.5004
 15  9 17  0 32 30.0000000  0 10G22G14G04G16G29G08G18G27G26G21
 107135417.086 8  83482101.75647  20387191.915    20387182.1644
        50.500          42.8004
 118921880.624 7  92666395.87045  22630078.586    22630072.6454
        44.600          31.4004
 129215918.091 6                  24588970.701
        36.200
 111502933.619 8  86885368.01446  21218303.856    21218296.9774
        49.100          39.0004
 130908833.427 5 102006776.93342  24911096.962    24911098.2294
        33.500          17.4004
 129474269.614 5                  24638135.708
        34.800
 118250588.220 7  92143280.80345  22502340.976    22502334.8004
        46.200          32.1004
 114060371.942 8  88878198.51046  21704965.787    21704961.1934
        48.500          39.3004
 113742781.852 8  88630716.74846  21644535.107    21644532.5074
        48.300          37.0004
 125628050.666 6  97891950.42543  23906227.054    23906220.6444
        40.400          23.0004
 15  9 17  0 33  0.0000000  0 10G22G14G04G16G29G08G18G27G26G21
 107162511.478 8  83503214.25847  20392347.771    20392337.3764
        50.900          42.1004
 118861344.629 7  92619225.04045  22618557.818    22618553.1074
        44.400          30.0004
 129161690.403 6                  24578650.567
        37.300
 111529042.817 8  86905712.77446  21223272.477    21223265.2464
        49.300          38.9004
 130988233.914 5 102068647.25942  24926208.113    24926207.1534
        34.300          17.8004
 129381001.716 5                  24620386.568
        32.800
 118329366.723 7  92204666.59045  22517332.142    22517325.7324
        46.000          32.8004
 113989495.667 8  88822970.27046  21691478.155    21691473.1514
        48.700          38.6004
 113815639.039 8  88687488.48846  21658399.330    21658397.2574
        48.700          37.0004
 125660628.591 6  97917335.71543  23912426.654    23912420.2444
        40.500          22.0004
 15  9 17  0 33 30.0000000  0 10G22G14G04G16G29G08G18G27G26G21
 107190018.951 8  83524648.63946  20397582.149    20397572.1644
        49.200          41.9004
 118801000.553 7  92572203.75845  22607074.494    22607070.7804
        43.200          30.4004
 129107512.823 6                  24568341.702
        39.200
 111555670.262 8  86926461.37846  21228339.733    21228332.0334
        50.300          38.6004
 131067851.359 5 102130686.53442  24941357.876    24941358.2064
        33.100          16.9004
 129287657.259 5                  24602624.833
        33.800
 118408288.057 7  92266163.67145  22532350.284    22532343.7574
        45.700          31.5004
 113918787.277 8  88767872.85946  21678022.668    21678018.8364
        48.800          39.4004
 113888813.479 8  88744507.43146  21672323.964    21672322.0674
        48.000          37.3004
 125693149.176 6  97942676.30243  23918614.638    23918609.4594
        39.100          22.3004
 15  9 17  0 34  0.0000000  0 10G22G14G04G16G29G08G18G27G26G21
 107217938.065 8  83546403.78247  20402895.598    20402885.1444
        49.600          42.5004
 118740851.522 7  92525334.46444  22595628.647    22595624.4054
        43.300          29.6004
 129053384.636 6 100561078.96442  24558041.819    24558042.4424
        39.200          17.4004
 111582814.422 8  86947612.62646  21233504.982    21233497.6334
        49.300          38.2004
 131147685.241 5 102192894.50442  24956551.317    24956550.5334
        34.500          16.3004
 129194237.995 5                  24584848.154
        34.400
 118487350.283 7  92327770.54145  22547395.864    22547388.9264
        45.500          31.3004
 113848249.322 8  88712908.24446  21664599.841    21664594.8964
        49.000          39.4004
 113962302.419 8  88801771.43346  21686308.746    21686305.9114
        48.000          37.9004
 125725613.090 6  97967972.78043  23924793.109    23924786.2894
        39.500          21.7004
 15  9 17  0 34 30.0000000  0 10G22G14G04G16G29G08G18G27G26G21
 107246268.165 8  83568479.16847  20408286.204    20408276.7464
        50.000          42.3004
 118680901.225 7  92478620.02044  22584220.406    22584215.8134
        43.000          29.7004
 128999306.529 6 100518940.43142  24547749.224    24547751.4884
        36.400          16.9004
 111610474.753 8  86969166.08346  21238768.791    21238761.3844
        49.100          38.6004
 131227735.292 5 102255270.90242  24971782.279    24971783.0784
        33.000          15.6004
 129100746.702 5                  24567056.235
        33.200
 118566552.425 7  92389486.43645  22562467.381    22562460.2684
        46.100          31.6004
 113777885.425 8  88658079.24546  21651209.925    21651204.8634
        48.800          39.1004
 114036104.038 8  88859279.09646  21700353.342    21700350.0974
        49.200          37.6004
 125758022.379 6  97993226.67543  23930960.408    23930953.7634
        41.300          21.8004
 15  9 17  0 35  0.0000000  0 10G22G14G04G16G29G08G18G27G26G21
 107275007.144 8  83590873.16746  20413754.849    20413745.2734
        48.400          41.8004
 118621152.324 7  92432062.52144  22572850.877    22572845.6984
        42.900          29.5004
 128945277.125 6 100476839.78442  24537468.750    24537469.3734
        37.900          16.3004
 111638649.426 7  86991120.32846  21244130.345    21244122.8794
        47.900          38.3004
 131308000.116 5 102317814.64842  24987056.686    24987057.3684
        32.300          16.3004
 129007184.433 5                  24549251.970
        33.400
 118645891.638 7  92451309.15245  22577565.914    22577558.0384
        46.200          31.3004
 113707697.432 8  88603387.32446  21637853.779    21637848.5414
        48.700          38.8004
 114110214.933 8  88917027.75246  21714455.724    21714453.7684
        48.700          37.2004
 125790376.999 6  98018437.96443  23937117.560    23937110.5644
        39.500          21.3004
 15  9 17  0 35 30.0000000  0 10G22G14G04G16G29G08G18G27G26G21
 107304155.848 8  83613586.43647  20419301.905    20419291.9204
        48.200          42.2004
 118561610.271 7  92385666.19844  22561520.649    22561515.5284
        43.000          29.9004
 128891298.530 5 100434778.65842  24527196.218    24527197.6034
        35.900          14.8004
 111667340.091 8  87013476.63146  21249589.814    21249582.4664
        48.000          38.6004
                 102380523.45142  25002370.057
        30.100          15.6004
 128913555.578 5                  24531436.336
        34.100
 118725368.850 7  92513239.40345  22592689.973    22592682.3914
        46.300          32.0004
 113637690.569 8  88548836.54746  21624531.006    21624526.7654
        48.300          38.8004
 114184634.953 8  88975017.28246  21728617.586    21728615.5124
        48.300          37.3004
 125822680.686 6  98043609.56343  23943264.019    23943258.2544
        40.300          22.6004
 15  9 17  0 36  0.0000000  0 10G22G14G04G16G29G08G18G27G26G21
 107333704.931 8  83636611.68447  20424924.866    20424915.1744
        48.200          42.1004
 118502270.535 7  92339427.53045  22550228.813    22550222.9304
        43.900          30.6004
 128837362.322 5 100392750.69842  24516930.747    24516934.1254
        34.600          14.8004
 111696537.114 7  87036227.51546  21255145.702    21255138.7064
        47.900          38.5004
 131469182.252 5 102443420.69742  25017727.517    25017729.5464
        31.800          13.9004
 128819854.313 5                  24513604.363
        33.400
 118804974.055 7  92575269.37145  22607838.073    22607830.4904
        45.700          31.6004
 113567859.612 8  88494422.84846  21611243.096    21611238.0934
        48.300          38.8004
 114259353.437 8  89033239.39046  21742836.140    21742833.8324
        48.400          36.7004
 125854926.752 6  98068736.25443  23949401.179    23949395.2964
        41.300          22.8004
 15  9 17  0 36 30.0000000  0 10G22G14G04G16G29G08G18G27G26G21
 107363659.336 8  83659952.76047  20430625.239    20430615.1364
        48.000          42.7004
 118443142.328 7  92293353.68244  22538977.065    22538971.1824
        43.900          29.8004
 128783474.730 6 100350760.52042  24506680.127    24506679.4024
        37.600          15.6004
 111726245.311 8  87059376.71146  21260799.481    21260792.3094
        48.100          39.2004
 131550086.129 5 102506462.37142  25033124.290    25033124.9134
        34.600          16.3004
 128726088.559 5                  24495760.936
        31.900
 118884711.571 7  92637402.44645  22623011.773    22623004.6014
        47.500          32.1004
 113498213.442 8  88440153.13746  21597989.968    21597985.0234
        48.200          39.2004
 114334373.975 8  89091696.84546  21757112.473    21757109.8144
        48.400          36.4004
 125887122.177 6  98093823.49743  23955527.965    23955520.9694
        39.900          22.2004
 15  9 17  0 37  0.0000000  0 10G22G14G04G16G29G08G18G27G26G21
 107394014.865 8  83683606.40246  20436401.633    20436391.8234
        48.400          41.9004
 118384226.214 7  92247445.07745  22527765.032    22527759.9694
        43.600          30.5004
 128729632.234 6 100308805.52342  24496432.353    24496432.8594
        36.500          14.8004
 111756460.792 8  87082921.19246  21266549.095    21266541.9234
        48.100          38.5004
 131631200.501 5 102569668.06242  25048559.120    25048560.3294
        33.800          16.3004
 128632258.086 5                  24477906.718
        35.100
 118964576.804 7  92699635.02545  22638209.550    22638202.2024
        45.500          31.8004
 113428752.283 8  88386027.58746  21584771.808    21584766.9224
        48.100          38.9004
 114409691.261 8  89150385.53946  21771444.937    21771442.1614
        48.000          37.1004
 125919265.429 6  98118870.08843  23961644.840    23961638.1954
        39.900          21.8004
 15  9 17  0 37 30.0000000  0 10G22G14G04G16G29G08G18G27G26G21
 107424770.853 8  83707572.10947  20442254.150    20442244.1064
        49.500          42.0004
 118325526.223 7  92201704.90445  22516594.971    22516589.8504
        43.800          30.8004
 128675835.460 5 100266886.08342  24486195.069    24486195.0474
        34.100          13.9004
 111787182.942 8  87106860.47646  21272395.589    21272388.2414
        48.400          38.3004
 131712525.700 5 102633038.02842  25064034.179    25064035.6234
        33.700          17.8004
 128538365.538 5                  24460038.370
        33.600
 119044569.169 7  92761966.66545  22653431.666    22653424.3184
        45.900          31.6004
 113359479.736 7  88332049.01546  21571590.056    21571584.8184
        47.800          39.1004
 114485303.624 7  89209304.16046  21785833.326    21785830.5504
        47.900          36.1004
 125951359.090 6  98143878.03443  23967751.073    23967745.7774
        37.700          22.9004
 15  9 17  0 38  0.0000000  0 11G22G14G04G16G29G08G18G27G26G21G31
 107455925.108 8  83731848.14047  20448182.573    20448172.5884
        48.700          42.0004
 118267044.793 7  92156135.00145  22505466.148    22505461.3794
        43.100          30.5004
 128622083.512 5 100225001.69442  24475965.868    24475966.0224
        34.800          15.6004
 111818409.469 8  87131192.79146  21278337.904    21278330.0284
        48.200          38.2004
 131794060.385 5 102696571.21842  25079549.744    25079552.1844
        31.200          14.8004
 128444412.120 5                  24442161.845
        35.900
 119124685.951 7  92824395.28245  22668678.113    22668670.2964
        46.100          30.9004
 113290397.753 8  88278218.93346  21558444.063    21558439.0594
        48.700          39.6004
 114561207.594 7  89268450.01346  21800277.768    21800274.9914
        47.500          36.5004
 125983402.738 6  98168847.03943  23973849.161    23973843.9234
        40.000          21.3004
                                  25437834.030
        32.500
 15  9 17  0 38 30.0000000  0 11G22G14G04G16G29G08G18G27G26G21G31
 107487473.986 8  83756431.66647  20454186.101    20454175.9984
        48.500          42.3004
 118208783.052 7  92110736.31945  22494379.015    22494375.1254
        43.000          30.4004
 128568373.619 5 100183149.97942  24465744.223    24465745.9014
        34.400          14.8004
 111850137.162 8  87155915.62446  21284375.490    21284367.5564
        48.400          38.5004
 131875801.857 5 102760265.53042  25095106.383    25095107.5924
        33.500          15.6004
 128350397.831 6 100013299.10243  24424270.316    24424269.1224
        38.200          19.0004
 119204923.200 7  92886917.75745  22683946.362    22683939.1904
        46.100          31.7004
 113221507.089 7  88224537.91446  21545334.844    21545329.6064
        47.900          39.7004
 114637398.426 7  89327819.37546  21814775.914    21814773.6074
        47.200          36.6004
 126015395.697 6  98193776.54943  23979937.343    23979932.2814
        39.000          21.7004
                                  25440443.288
        30.700
 15  9 17  0 39  0.0000000  0 10G22G14G04G16G29G08G18G27G26G21
 107519420.090 8  83781324.72146  20460265.691    20460255.2364
        48.600          41.9004
 118150748.508 7  92065514.65544  22483335.058    22483330.9344
        42.700          29.9004
 128514709.751 5 100141334.11442  24455532.716    24455533.9844
        35.200          15.6004
 111882368.712 8  87181031.07646  21290508.852    21290500.9764
        48.000          38.0004
 131957753.442 5 102824123.48942  25110700.717    25110702.8054
        32.400          16.3004
 128256328.747 6  99939998.53642  24406370.700    24406367.9824
        38.700          17.8004
 119285283.201 7  92949535.89545  22699238.321    22699230.3874
        44.900          30.5004
 113152814.559 7  88171011.30546  21532262.267    21532258.1424
        47.200          39.5004
 114713877.567 7  89387413.40746  21829329.439    21829327.2494
        46.800          36.5004
 126047343.188 6  98218670.58943  23986017.342    23986011.2834
        38.900          21.7004
 15  9 17  0 39 30.0000000  0 11G22G14G04G16G29G08G18G27G26G21G31
 107551757.225 8  83806522.47546  20466419.159    20466409.2324
        48.600          41.7004
 118092939.132 7  92020468.45645  22472335.522    22472330.1674
        43.800          30.2004
 128461086.705 6 100099550.16342  24445329.006    24445329.8054
        36.600          16.3004
 111915097.673 7  87206534.12546  21296736.487    21296729.1984
        47.900          37.7004
 132039920.810 5 102888149.16742  25126333.216    25126337.1214
        32.200          14.8004
 128162202.236 6  99866653.22243  24388459.189    24388456.4124
        38.800          19.6004
 119365759.456 7  93012244.61645  22714552.255    22714545.0834
        44.400          31.0004
 113084318.137 7  88117637.49246  21519228.249    21519223.5394
        47.200          39.2004
 114790637.476 7  89447226.22645  21843935.832    21843934.4044
        46.600          34.6004
 126079241.508 6  98243526.31543  23992086.184    23992082.2364
        37.400          21.1004
                                  25445468.900
        28.000
 15  9 17  0 40  0.0000000  0 10G22G14G04G16G29G08G18G27G26G21
 107584484.553 8  83832024.28247  20472646.837    20472636.7934
        50.200          42.1004
 118035358.919 7  91975600.81744  22461378.145    22461372.8484
        43.900          29.6004
 128407504.891 6 100057798.20342  24435134.030    24435133.8334
        39.100          17.8004
 111948323.494 7  87232424.32746  21303058.905    21303052.3774
        47.500          37.5004
 132122281.958 5 102952326.29642  25142006.167    25142008.5484
        33.400          15.6004
 128068021.220 6  99793265.47243  24370536.546    24370534.1214
        39.500          20.4004
 119446350.804 7  93075042.99545  22729888.016    22729881.1374
        44.400          31.9004
 113016021.559 8  88064419.40346  21506231.721    21506227.0114
        48.400          39.5004
 114867676.583 7  89507256.59445  21858596.434    21858594.3614
        46.400          34.8004
 126111093.045 6  98268345.58243  23998147.243    23998142.5914
        37.300          20.9004
 15  9 17  0 40 30.0000000  0 10G22G14G04G16G29G08G18G27G26G21
 107617601.099 8  83857829.35447  20478948.781    20478938.3274
        49.500          42.1004
 117978011.342 7  91930914.46744  22450465.426    22450459.5434
        43.200          29.7004
 128353964.301 6 100016078.47742  24424944.208    24424945.1244
        38.600          16.3004
 111982044.963 8  87258700.74446  21309476.016    21309469.1374
        49.000          37.4004
 132204847.628 5 103016662.90242  25157719.199    25157719.8814
        33.200          15.6004
 127973787.911 6  99719836.93943  24352604.261    24352601.8944
        38.600          20.1004
 119527055.900 7  93137930.03145  22745246.064    22745239.4194
        45.300          32.0004
 112947927.800 8  88011359.35846  21493273.933    21493269.2234
        48.500          39.6004
 114944992.310 7  89567502.49845  21873309.155    21873307.3754
        46.600          35.3004
 126142898.712 6  98293129.14343  24004199.751    24004194.7484
        37.900          20.1004
 15  9 17  0 41  0.0000000  0 10G22G14G04G16G29G08G18G27G26G21
 107651104.589 8  83883935.96146  20485324.273    20485314.1704
        49.800          41.6004
 117920899.358 7  91886411.67245  22439596.959    22439591.8384
        42.700          30.3004
 128300463.932 6  99974390.07642  24414764.237    24414764.2744
        38.300          16.9004
 112016260.345 8  87285362.02346  21315987.549    21315980.7284
        49.500          37.8004
 132287616.712 5 103081157.95342  25173470.370    25173471.7554
        34.600          16.3004
 127879503.859 6  99646368.89443  24334663.171    24334659.2814
        39.400          19.6004
 119607872.258 7  93200903.75445  22760624.565    22760618.6234
        44.700          32.6004
 112880039.212 8  87958459.18746  21480355.695    21480350.3394
        48.900          39.9004
 115022581.529 7  89627961.52945  21888073.646    21888072.4524
        46.500          34.5004
 126174659.054 6  98317877.36543  24010244.405    24010238.8164
        39.100          22.0004
 15  9 17  0 41 30.0000000  0 10G22G14G04G16G29G08G18G27G26G21
 107684992.743 8  83910342.30446  20491772.814    20491762.7704
        49.300          41.9004
 117864025.175 7  91842094.17945  22428774.600    22428768.9514
        43.300          30.4004
 128247002.821 6  99932732.20042  24404591.153    24404590.3694
        37.000          17.4004
 112050967.120 8  87312406.21846  21322591.602    21322585.0754
        48.600          38.3004
 132370587.320 5 103145810.06742  25189260.180    25189260.3344
        33.400          16.3004
 127785170.285 6  99572862.26043  24316711.016    24316708.1224
        39.600          20.1004
 119688797.749 7  93263962.51445  22776024.181    22776018.3574
        43.900          31.9004
 112812357.733 8  87905720.38546  21467476.348    21467470.9934
        49.300          40.1004
 115100440.692 7  89688630.87545  21902889.683    21902888.4304
        46.500          34.9004
 126206374.803 6  98342590.84943  24016280.478    24016275.0064
        39.600          22.2004
 15  9 17  0 42  0.0000000  0 10G22G14G04G16G29G08G18G27G26G21
 107719263.492 8  83937046.76246  20498294.162    20498284.5284
        50.500          41.8004
 117807391.360 7  91797963.98945  22417996.164    22417992.0984
        42.500          30.8004
 128193580.103 6  99891104.27642  24394423.987    24394424.6694
        36.500          14.8004
 112086163.529 8  87339831.93846  21329290.229    21329282.6474
        49.500          37.8004
 132453758.752 5 103210618.62342  25205086.837    25205087.9874
        35.800          16.3004
 127690789.411 6  99499318.76743  24298752.326    24298748.2604
        41.300          21.8004
 119769829.878 7  93327104.39045  22791444.348    22791437.5274
        43.900          31.5004
 112744885.869 8  87853144.92246  21454636.361    21454631.5334
        48.300          40.5004
 115178566.853 7  89749508.30145  21917757.423    21917755.2324
        46.600          35.5004
 126238046.908 6  98367270.32243  24022307.957    24022301.0194
        40.000          22.2004
 15  9 17  0 42 30.0000000  0 10G22G14G04G16G29G08G18G27G26G21
 107753915.186 8  83964048.07747  20504888.711    20504878.3154
        50.700          42.4004
 117751001.396 7  91754023.82044  22407265.881    22407261.3464
        42.900          29.6004
 128140195.330 6  99849505.90842  24384265.875    24384266.1474
        36.700          16.3004
 112121847.321 8  87367637.43646  21336080.089    21336072.6824
        49.500          38.6004
 132537130.013 6 103275582.90542  25220953.083    25220954.2924
        36.000          14.8004
 127596362.932 6  99425739.70543  24280783.403    24280779.5714
        41.300          21.8004
 119850966.441 7  93390327.63145  22806884.156    22806878.0384
        45.800          30.8004
 112677626.263 8  87800734.86246  21441836.845    21441832.8384
        48.600          40.3004
 115256957.139 7  89810591.52545  21932674.383    21932672.7784
        46.600          34.7004
 126269675.952 6  98391916.24143  24028325.989    24028319.5784
        39.800          21.3004
 15  9 17  0 43  0.0000000  0 10G22G14G04G16G29G08G18G27G26G21
 107788946.455 8  83991345.15346  20511554.517    20511544.4724
        49.900          41.8004
 117694858.318 7  91710276.02644  22396582.217    22396576.9214
        42.600          29.1004
 128086848.153 6  99807936.87642  24374114.009    24374113.5774
        37.800          15.6004
 112158017.266 8  87395821.74346  21342962.932    21342955.9364
        49.300          38.9004
 132620700.518 5 103340702.39142  25236855.848    25236857.5854
        33.600          15.6004
 127501893.144 6  99352126.92043  24262806.082    24262803.3644
        40.700          22.2004
 119932206.147 7  93453631.23545  22822343.879    22822337.0004
        44.700          32.0004
 112610581.791 8  87748492.44246  21429079.011    21429074.4174
        48.300          40.3004
 115335608.981 7  89871878.55845  21947641.866    21947639.3834
        46.200          34.5004
 126301263.346 6  98416529.71143  24034336.937    24034330.7614
        38.100          19.3004
 15  9 17  0 43 30.0000000  0 10G22G14G04G16G29G08G18G27G26G21
 107824355.018 8  84018936.23246  20518292.816    20518282.5964
        50.000          41.5004
 117638964.592 7  91666722.52144  22385945.389    22385940.7964
        42.700          29.9004
 128033537.989 6  99766396.68042  24363969.255    24363969.2334
        38.500          17.8004
 112194671.423 8  87424383.37746  21349938.590    21349931.1244
        50.500          37.7004
 132704469.368 5 103405976.60342  25252795.352    25252798.9064
        33.200          14.8004
 127407381.489 6  99278481.53843  24244820.359    24244817.7594
        40.100          22.5004
 120013546.728 7  93517013.44845  22837822.724    22837815.7874
        44.800          31.5004
 112543754.805 7  87696419.48846  21416362.453    21416357.6844
        47.600          39.8004
 115414519.199 7  89933366.93445  21962657.898    21962656.1774
        46.000          34.3004
 126332810.147 6  98441111.52143  24040339.568    24040334.2134
        39.300          19.9004
 15  9 17  0 44  0.0000000  0 10G22G14G04G16G29G08G18G27G26G21
 107860139.259 8  84046820.04846  20525102.272    20525091.7594
        50.500          41.5004
 117583323.102 7  91623365.56445  22375357.526    22375352.8154
        44.100          30.4004
 127980263.617 6  99724884.34642  24353830.769    24353831.1574
        37.200          17.4004
 112231808.011 8  87453320.91846  21357005.349    21356997.7084
        50.400          38.2004
 132788434.935 5 103471404.04042  25268774.943    25268777.3244
        35.600          17.4004
 127312830.025 6  99204805.10343  24226828.169    24226825.0414
        40.600          22.6004
 120094986.297 7  93580472.80845  22853320.293    22853311.5974
        46.100          30.8004
 112477147.716 7  87644517.88246  21403687.198    21403682.7224
        47.800          39.4004
 115493684.743 7  89995054.24945  21977722.985    21977720.9124
        46.400          34.9004
 126364316.987 6  98465662.23543  24046335.695    24046329.5194
        39.200          21.5004
 15  9 17  0 44 30.0000000  0 10G22G14G04G16G29G08G18G27G26G21
 107896297.880 8  84074995.57946  20531983.076    20531972.7974
        50.100          41.9004
 117527937.411 7  91580207.94145  22364818.148    22364812.7344
        42.500          30.2004
 127927025.748 6  99683400.53643  24343698.987    24343700.1964
        38.000          18.3004
 112269425.643 8  87482633.30046  21364163.699    21364156.8784
        50.000          38.6004
 132872597.258 6 103536984.81742  25284789.961    25284791.8734
        36.200          16.3004
 127218241.485 6  99131099.79543  24208828.356    24208825.5804
        40.300          22.8004
 120176523.008 7  93644007.89144  22868835.520    22868828.0544
        44.200          29.6004
 112410763.945 7  87592790.29746  21391054.667    21391050.4254
        47.700          39.9004
 115573103.461 7  90056938.83545  21992835.605    21992833.8254
        44.200          34.7004
 126395785.469 6  98490183.03743  24052324.212    24052317.7434
        39.300          20.4004
 15  9 17  0 45  0.0000000  0 10G22G14G04G16G29G08G18G27G26G21
 107932827.314 8  84103460.06347  20538934.310    20538924.6184
        48.300          42.1004
 117472808.775 7  91537250.61144  22354328.042    22354321.9254
        42.600          29.4004
 127873821.889 6  99641943.09442  24333575.973    24333576.3034
        38.100          17.8004
 112307520.161 7  87512317.27646  21371412.453    21371406.2194
        47.300          38.9004
 132956953.432 5 103602716.70142  25300841.885    25300843.9734
        34.200          16.9004
 127123615.709 6  99057365.44943  24190821.691    24190817.8604
        39.800          21.3004
 120258153.645 7  93707616.12444  22884369.270    22884363.0944
        45.700          29.9004
 112344604.221 8  87541237.29546  21378464.786    21378459.8994
        48.200          39.8004
 115652770.597 7  90119017.00845  22007995.624    22007994.1964
        47.100          35.6004
 126427215.092 6  98514673.54343  24058304.863    24058298.5704
        38.300          20.4004
 15  9 17  0 45 30.0000000  0 10G22G14G04G16G29G08G18G27G26G21
 107969725.702 8  84132212.03946  20545956.087    20545946.0434
        48.200          41.5004
 117417940.234 7  91494495.97145  22343886.517    22343880.8694
        43.300          30.4004
 127820651.545 6  99600511.85542  24323456.277    24323457.3114
        36.500          17.4004
 112346090.256 7  87542371.83346  21378751.948    21378746.0074
        47.100          38.8004
 133041502.546 6 103668598.90442  25316931.197    25316933.0514
        36.200          15.6004
 127028954.826 6  98983603.79043  24172808.185    24172804.9404
        38.400          21.7004
 120339876.121 7  93771295.91145  22899921.344    22899913.8794
        45.800          31.3004
 112278671.323 8  87489861.03546  21365918.069    21365913.7694
        48.400          39.8004
 115732683.368 7  90181286.58145  22023202.580    22023201.2684
        46.900          35.1004
 126458607.058 6  98539134.72443  24064278.804    24064272.4524
        39.300          20.9004
 15  9 17  0 46  0.0000000  0 10G22G14G04G16G29G08G18G27G26G21
 108006991.702 8  84161250.45547  20553047.420    20553037.5524
        50.300          42.0004
 117363334.790 7  91451946.33545  22333495.373    22333490.1934
        44.300          30.3004
 127767514.223 6  99559106.35443  24313346.121    24313344.9274
        36.800          18.6004
 112385134.235 8  87572795.65946  21386182.198    21386176.1394
        49.300          39.1004
 133126243.831 5 103734630.87242  25333058.634    25333059.6684
        35.700          16.9004
 126934261.195 6  98909816.64243  24154788.818    24154785.0454
        38.600          21.3004
 120421688.693 7  93835045.92045  22915489.392    22915481.9854
        44.100          30.4004
 112212968.057 8  87438663.71146  21353415.777    21353410.4214
        48.700          39.8004
 115812839.129 7  90243745.49445  22038456.379    22038454.3654
        44.900          35.5004
 126489961.957 6  98563567.01543  24070244.411    24070239.6424
        39.100          21.7004
 15  9 17  0 46 30.0000000  0 10G22G14G04G16G29G08G18G27G26G21
 108044623.186 7  84190573.67346  20560207.875    20560198.5934
        47.800          41.0004
 117308995.490 7  91409604.08645  22323154.900    22323149.8964
        44.000          31.1004
 127714409.347 6  99517726.10343  24303240.284    24303239.9694
        36.800          19.9004
 112424650.132 7  87603587.21946  21393701.802    21393695.5094
        47.200          37.8004
 133211176.486 6                  25349219.686
        38.400
 126839536.755 6  98836005.36643  24136763.028    24136760.3684
        38.000          21.8004
 120503589.569 7  93898864.72345  22931075.063    22931067.8324
        45.100          30.2004
 112147496.997 8  87387647.32946  21340956.913    21340951.4994
        48.800          40.0004
 115893234.824 7  90306391.35745  22053754.758    22053753.5644
        46.000          35.9004
 126521281.160 6  98587971.48243  24076204.738    24076200.0274
        38.200          20.6004
 15  9 17  0 47  0.0000000  0 10G22G14G04G16G29G08G18G27G26G21
 108082618.046 8  84220180.03746  20567438.377    20567428.8604
        49.800          41.5004
 117254924.893 7  91367471.20645  22312865.079    22312860.4274
        43.700          30.9004
 127661336.211 6  99476370.59843  24293140.253    24293139.3524
        36.000          18.6004
 112464635.704 8  87634744.73846  21401310.727    21401304.4344
        50.000          38.8004
 133296299.221 5 103867148.29642  25365417.922    25365419.7174
        33.500          16.9004
 126744783.179 6  98762171.50343  24118731.166    24118729.1514
        38.500          22.2004
 120585576.627 7  93962750.68044  22946676.961    22946669.7314
        46.000          29.8004
 112082260.477 8  87336813.71146  21328542.570    21328537.5664
        49.000          40.1004
 115973867.325 7  90369221.74145  22069099.306    22069097.5854
        46.600          35.9004
 126552565.139 6  98612348.52243  24082158.165    24082153.0444
        39.200          21.1004
 15  9 17  0 47 30.0000000  0 10G22G14G04G16G29G08G18G27G26G21
 108120980.630 8  84250072.93446  20574739.015    20574728.8544
        50.500          41.0004
 117201131.991 7  91325554.71145  22302628.334    22302623.9754
        44.100          30.8004
 127608300.460 6  99435044.23142  24283047.875    24283047.4434
        36.900          17.8004
 112505095.025 8  87666271.42246  21409010.295    21409003.5334
        49.900          38.9004
                 103933629.90442  25381653.950
        32.300          13.9004
 126650008.700 6  98688321.30643  24100697.848    24100694.6614
        38.900          22.5004
 120667654.534 7  94026707.45644  22962296.051    22962288.6444
        45.900          29.8004
 112017267.307 8  87286169.70446  21316175.057    21316169.8194
        49.200          40.1004
 116054739.827 7  90432239.14045  22084489.020    22084487.1234
        46.700          35.6004
 126583821.506 6  98636704.04943  24088106.170    24088101.4004
        39.500          21.8004
 15  9 17  0 48  0.0000000  0 10G22G14G04G16G29G08G18G27G26G21
 108159691.332 8  84280237.09946  20582105.254    20582095.0344
        50.500          41.5004
 117147601.906 7  91283843.03545  22292442.046    22292437.6874
        44.500          30.2004
 127555283.659 5  99393732.57842  24272958.169    24272958.0894
        35.600          16.9004
 112546008.624 8  87698152.09046  21416796.009    21416788.8364
        49.800          38.2004
 133467121.938 5 104000261.96442  25397921.575    25397926.3594
        33.300          15.6004
 126555197.629 6  98614442.59743  24082655.006    24082652.8164
        38.100          22.8004
 120749802.592 7  94090718.89144  22977927.702    22977920.5884
        46.600          29.6004
 111952502.354 8  87235703.51746  21303850.359    21303845.8244
        48.800          40.6004
 116135831.733 7  90495427.50945  22099919.590    22099918.4554
        46.300          35.6004
 126615033.579 6  98661025.05943  24094045.361    24094040.4754
        39.400          22.2004
 15  9 17  0 48 30.0000000  0 10G22G14G04G16G29G08G18G27G26G21
 108198770.655 8  84310688.48446  20589542.266    20589531.8704
        50.100          41.2004
 117094359.695 7  91242355.63144  22282310.561    22282305.0884
        44.100          29.7004
 127502307.530 6  99352452.66942  24262877.343    24262876.0914
        37.600          17.4004
 112587396.698 8  87730402.47446  21424672.019    21424665.0224
        49.400          38.2004
                 104067018.62442  25414230.054
        33.400          14.8004
 126460374.085 6  98540554.17543  24064610.592    24064608.3434
        39.000          22.9004
 120832041.411 7  94154801.02844  22993577.643    22993570.7644
        46.400          29.9004
 111887990.548 8  87185434.60146  21291574.373    21291569.4864
        49.600          40.6004
 116217162.377 7  90558801.90846  22115397.121    22115395.6924
        47.500          36.0004
 126646224.389 6  98685329.49743  24099981.641    24099976.6384
        39.300          22.3004
 15  9 17  0 49  0.0000000  0 11G22G14G04G16G29G08G18G27G26G21G31
 108238194.646 8  84341408.46146  20597044.191    20597033.9714
        49.500          41.1004
 117041386.599 7  91201077.96244  22272229.905    22272224.3154
        44.100          28.9004
 127449349.927 6  99311187.19242  24252799.053    24252800.1454
        38.000          17.8004
 112629235.289 7  87763003.91746  21432632.891    21432626.5984
        47.600          38.3004
 133638695.207 6 104133930.40942  25430570.618    25430571.8854
        39.200          17.4004
 126365518.762 6  98466640.97844  24046560.200    24046558.4794
        39.000          24.7004
 120914347.462 7  94218935.54544  23009239.560    23009232.7404
        45.900          29.9004
 111823712.708 8  87135348.00246  21279342.950    21279337.8294
        48.800          40.8004
 116298707.038 7  90622343.06645  22130914.540    22130912.8774
        47.200          35.7004
 126677373.389 6  98709601.35943  24105909.054    24105904.1094
        39.400          22.5004
 133896913.887 5                  25479712.054
        35.700
 15  9 17  0 49 30.0000000  0 11G22G14G04G16G29G08G18G27G26G21G31
 108277981.452 8  84372411.13746  20604615.322    20604604.8684
        49.600          41.3004
 116988705.531 7  91160027.85244  22262205.633    22262199.8674
        44.700          29.8004
 127396430.215 6  99269951.17743  24242729.030    24242728.3634
        38.600          19.0004
 112671542.181 8  87795970.26746  21440683.931    21440676.8764
        48.000          38.1004
                                  25446947.202
        35.200
 126270653.425 6  98392719.98543  24028508.386    24028506.0784
        39.900          23.5004
 120996738.921 7  94283136.63444  23024917.944    23024911.4174
        43.900          29.3004
 111759691.490 8  87085461.35446  21267160.119    21267155.1154
        49.600          41.5004
 116380482.821 7  90686064.32346  22146475.973    22146474.3694
        45.900          36.3004
 126708501.649 6  98733857.05143  24111833.052    24111827.6974
        38.900          22.2004
 133902822.873 6                  25480837.376
        36.200
 15  9 17  0 50  0.0000000  0 11G22G14G04G16G29G08G18G27G26G21G31
 108318114.780 8  84403683.83646  20612252.241    20612241.9624
        50.700          41.3004
 116936304.747 7  91119196.13644  22252234.136    22252228.4874
        43.400          29.7004
 127343533.430 6  99228733.08342  24232664.722    24232661.4764
        40.000          17.4004
 112714301.268 8  87829288.97246  21448820.759    21448814.1734
        50.500          38.0004
                                  25463359.002
        31.300
 126175765.615 6  98318781.45244  24010451.397    24010448.7964
        40.200          24.3004
 121079199.926 7  94347391.88144  23040610.227    23040602.7624
        43.800          28.8004
 111695915.069 8  87035765.46246  21255023.204    21255018.3184
        49.300          40.7004
 116462472.311 7  90749952.10546  22162078.494    22162076.8314
        46.300          36.4004
 126739595.619 6  98758086.02743  24117749.875    24117743.9924
        40.200          21.5004
 133908369.056 5                  25481891.607
        35.700
 15  9 17  0 50 30.0000000  0 11G22G14G04G16G29G08G18G27G26G21G31
 108358592.622 8  84435224.99646  20619955.061    20619944.8414
        50.800          40.9004
 116884186.756 7  91078584.77944  22242316.647    22242310.2954
        45.100          29.3004
 127290658.808 6  99187532.25243  24222602.061    24222600.3404
        41.000          19.0004
 112757510.096 8  87862958.12946  21457043.664    21457036.4924
        49.600          38.0004
 133897411.888 5                  25479802.709
        33.400
 126080857.211 6  98244826.88443  23992389.995    23992389.5634
        39.300          23.4004
 121161727.623 7  94411699.13045  23056315.064    23056307.1894
        44.700          30.0004
 111632385.799 8  86986262.15346  21242934.275    21242928.9794
        49.500          40.1004
 116544672.351 7  90814003.95545  22177720.321    22177718.9514
        45.500          35.5004
 126770656.184 6  98782288.94043  24123659.740    24123654.5604
        38.400          21.8004
 133913552.351 6                  25482879.303
        37.000
 15  9 17  0 51  0.0000000  0 10G22G14G04G16G29G08G18G27G26G21
 108399422.887 8  84467040.76146  20627724.521    20627714.7704
        50.700          41.3004
 116832364.406 7  91038203.78645  22232454.944    22232449.2964
        44.300          30.0004
 127237815.510 6  99146355.79943  24212545.334    24212544.3164
        38.100          18.3004
 112801176.314 8  87896983.69646  21465352.626    21465346.3914
        50.000          38.2004
                 104403012.84552  25496282.141
        25.300          17.4004
 125985940.244 6  98170865.66043  23974328.889    23974326.2304
        40.200          22.9004
 121244330.019 7  94476064.57345  23072033.354    23072026.1824
        45.400          30.4004
 111569116.233 8  86936961.19946  21230894.303    21230889.3584
        49.700          40.6004
 116627089.879 7  90878225.26945  22193404.219    22193402.1464
        46.000          35.1004
 126801694.353 6  98806474.46443  24129567.144    24129561.2024
        39.100          21.1004
 15  9 17  0 51 30.0000000  0 10G22G14G04G16G29G08G18G27G26G21
 108440599.806 8  84499126.64946  20635560.173    20635550.5394
        50.400          41.7004
 116780836.686 7  90998052.39245  22222648.960    22222643.1954
        43.500          30.0004
 127184999.345 6  99105200.50943  24202494.602    24202494.6394
        38.800          19.3004
 112845294.218 8  87931361.22346  21473748.614    21473741.7354
        49.800          37.6004
 134070799.811 6                  25512796.800
        37.900
 125891013.160 6  98096896.54144  23956264.281    23956261.8564
        41.600          25.6004
 121327001.511 7  94540483.84444  23087765.491    23087758.2014
        44.300          28.9004
 111506105.114 8  86887861.64946  21218903.814    21218898.6934
        49.000          41.0004
 116709718.163 7  90942610.80545  22209127.480    22209125.4074
        46.000          35.1004
 126832707.393 6  98830640.37343  24135468.382    24135463.5544
        39.100          21.1004
 15  9 17  0 52  0.0000000  0 10G22G14G04G16G31G08G18G27G26G21
 108482126.094 8  84531484.78846  20643462.298    20643452.6644
        50.000          41.5004
 116729611.141 7  90958136.44844  22212900.137    22212895.7784
        45.000          29.8004
 127132214.604 6  99064069.69343  24192449.400    24192449.8474
        39.600          19.3004
 112889866.476 8  87966092.79246  21482230.060    21482223.5924
        49.800          37.8004
 133926981.671 5                  25485433.921
        35.800
 125796082.715 6  98022924.79043  23938199.154    23938197.1984
        40.200          22.5004
 121409745.307 7  94604959.46344  23103511.153    23103503.8054
        44.800          29.1004
 111443359.962 8  86838969.34746  21206963.704    21206958.8764
        48.700          40.6004
 116792559.052 7  91007162.01745  22224891.920    22224890.0814
        46.000          35.3004
 126863701.088 6  98854791.21343  24141366.380    24141360.2044
        38.000          21.7004
 15  9 17  0 52 30.0000000  0 10G22G14G04G16G31G08G18G27G26G21
 108523984.819 8  84564101.95446  20651428.050    20651418.5924
        51.000          41.7004
 116678675.622 7  90918446.49344  22203207.852    22203203.2594
        45.400          29.7004
 127079445.597 6  99022951.13943  24182407.716    24182408.5154
        39.300          20.1004
 112934875.607 8  88001164.78046  21490794.679    21490788.0934
        49.400          37.3004
 133930735.866 5                  25486148.172
        34.600
 125701135.743 6  97948940.17643  23920131.553    23920128.8934
        40.700          22.3004
 121492544.751 7  94669478.44644  23119266.661    23119260.3094
        43.300          28.9004
 111380868.380 8  86790274.63446  21195072.006    21195066.7104
        50.000          41.0004
 116875594.619 7  91071864.91645  22240692.678    22240691.5434
        44.300          34.9004
 126894661.318 6  98878915.98343  24147258.380    24147252.8494
        39.800          21.7004
 15  9 17  0 53  0.0000000  0 10G22G14G04G16G31G08G18G27G26G21
 108566183.322 8  84596983.88946  20659458.436    20659448.6274
        49.800          41.6004
 116628042.171 7  90878991.93045  22193572.889    22193567.8274
        44.300          30.2004
 127026701.079 6  98981851.69043  24172372.249    24172371.2904
        40.900          19.9004
 112980328.720 8  88036582.72346  21499444.655    21499438.0694
        49.200          37.9004
                                  25486794.075
        27.300
 125606184.135 6  97874951.92943  23902062.514    23902059.5624
        40.700          22.9004
 121575406.626 7  94734046.08444  23135034.854    23135028.4444
        43.800          29.7004
 111318642.080 8  86741786.63146  21183230.340    21183225.8644
        48.500          41.1004
 116958831.024 7  91136724.30345  22256531.876    22256531.4444
        44.700          34.7004
 126925599.077 6  98903023.25243  24153146.590    24153140.2394
        41.600          22.3004
 15  9 17  0 53 30.0000000  0  9G22G14G04G16G08G18G27G26G21
 108608719.673 8  84630129.07646  20667552.498    20667542.8064
        50.800          41.5004
 116577713.560 7  90839774.90645  22183996.371    22183990.4894
        45.500          30.7004
 126973979.735 7  98940770.29443  24162339.859    24162337.9624
        42.000          19.9004
 113026223.094 8  88072344.51246  21508178.032    21508171.9154
        49.600          37.7004
 125511228.884 6  97800960.81343  23883992.257    23883990.1844
        39.900          22.6004
 121658328.557 7  94798660.49144  23150815.011    23150808.3664
        44.600          29.3004
 111256683.187 8  86693506.99846  21171440.097    21171435.4454
        48.800          40.8004
 117042264.789 7  91201737.49445  22272409.444    22272408.8364
        45.400          34.4004
 126956514.618 6  98927113.18843  24159028.785    24159022.6684
        40.800          21.7004
 15  9 17  0 54  0.0000000  0  9G22G14G04G16G08G18G27G26G21
 108651590.538 8  84663534.93046  20675710.474    20675701.3684
        50.300          41.2004
 116527691.697 7  90800796.90145  22174476.913    22174472.0864
        45.300          30.9004
 126921281.100 7  98899706.57843  24152310.925    24152309.2044
        42.100          19.9004
 113072556.318 8  88108448.25146  21516994.866    21516989.0424
        49.900          38.0004
 125416272.214 6  97726968.61643  23865923.806    23865920.8544
        40.500          22.8004
 121741308.361 7  94863319.98844  23166605.534    23166599.0074
        45.800          29.6004
 111194994.053 8  86645437.56846  21159701.681    21159696.3264
        48.900          40.4004
 117125892.760 7  91266902.00145  22288323.427    22288322.3514
        45.500          34.0004
 126987408.353 6  98951186.16043  24164907.055    24164901.6414
        38.900          20.9004
 15  9 17  0 54 30.0000000  0  9G22G14G04G16G08G18G27G26G21
 108694794.159 8  84697200.07346  20683931.758    20683922.3004
        50.400          41.5004
 116477978.886 7  90762059.69945  22165016.982    22165011.3924
        45.500          30.2004
 126868604.217 6  98858659.79943  24142285.564    24142285.8944
        41.300          20.1004
 113119326.098 8  88144892.17546  21525895.010    21525888.4824
        50.500          37.6004
 125321315.943 6  97652976.74244  23847853.590    23847851.3414
        40.000          24.3004
 121824344.324 7  94928023.27644  23182406.870    23182399.9914
        45.500          28.7004
 111133577.172 8  86597580.27346  21148014.638    21148008.8724
        48.500          41.2004
 117209711.810 7  91332215.39345  22304273.886    22304272.6344
        46.500          34.6004
 127018281.739 6  98975243.22943  24170782.730    24170778.1374
        40.900          22.5004
 15  9 17  0 55  0.0000000  0 10G22G14G04G16G31G08G18G27G26G21
 108738327.290 8  84731121.98146  20692216.375    20692206.8004
        51.300          40.8004
 116428577.027 7  90723564.81445  22155616.671    22155610.9054
        46.000          30.7004
 126815947.361 7  98817628.59143  24132265.906    24132264.7124
        42.100          20.9004
 113166528.729 8  88181673.38846  21534877.522    21534871.0534
        50.300          37.8004
 133944148.158 4                  25488697.513
        29.600
 125226361.056 6  97578985.95044  23829784.427    23829782.2364
        38.800          25.4004
 121907433.372 7  94992767.91744  23198218.465    23198211.5284
        46.300          29.3004
 111072433.859 8  86549936.15046  21136378.685    21136373.1544
        48.600          39.7004
 117293717.703 7  91397674.38845  22320260.425    22320258.9384
        46.400          35.1004
 127049134.390 6  98999284.15343  24176653.984    24176648.1604
        40.400          22.2004
 15  9 17  0 55 30.0000000  0 10G22G14G04G16G31G08G18G27G26G21
 108782190.599 8  84765301.17746  20700563.051    20700553.6524
        50.200          41.0004
 116379491.229 7  90685316.20045  22146275.611    22146270.0804
        46.200          30.4004
 126763312.446 6  98776614.55443  24122248.213    24122248.1914
        41.500          20.1004
 113214164.521 8  88218792.12346  21543942.382    21543935.8544
        49.400          37.4004
 133945754.480 5                  25489001.069
        30.100
 125131411.901 6  97504999.62344  23811716.245    23811714.3484
        39.800          26.5004
 121990575.853 7  95057554.18244  23214039.800    23214032.5694
        44.800          29.6004
 111011569.229 8  86502509.18646  21124796.646    21124790.7644
        48.700          40.7004
 117377909.974 7  91463278.60745  22336280.946    22336279.8104
        46.800          34.5004
 127079969.774 6  99023311.62443  24182521.352    24182515.4114
        40.200          21.1004
 15  9 17  0 56  0.0000000  0 10G22G14G04G16G31G08G18G27G26G21
 108826379.731 8  84799734.24746  20708972.187    20708962.4954
        51.100          41.3004
 116330722.008 7  90647314.26645  22136994.475    22136989.5304
        45.400          30.2004
 126710696.916 6  98735615.58243  24112236.364    24112235.8734
        41.200          21.7004
 113262228.890 8  88256244.81446  21553088.739    21553082.0944
        50.300          37.5004
 133947002.001 5                  25489241.844
        32.400
 125036468.957 6  97431018.14244  23793649.250    23793647.4114
        40.700          24.7004
 122073768.051 7  95122379.18544  23229871.114    23229864.0594
        46.100          28.7004
 110950983.644 8  86455299.65146  21113267.961    21113262.0204
        48.900          40.9004
 117462283.485 7  91529024.04945  22352336.944    22352335.4574
        46.700          34.2004
 127110786.587 6  99047324.63343  24188386.459    24188381.6904
        38.900          21.8004
 15  9 17  0 56 30.0000000  0  9G22G14G04G16G08G18G27G26G21
 108870892.548 8  84834419.54346  20717443.093    20717433.0494
        51.300          40.6004
 116282272.175 7  90609561.20544  22127774.556    22127769.8454
        44.200          29.5004
 126658099.857 7  98694631.04443  24102227.549    24102227.8204
        42.100          20.6004
 113310719.468 8  88294029.60646  21562316.221    21562309.6944
        50.400          37.5004
 124941533.995 6  97357042.86444  23775584.123    23775581.9914
        41.400          27.6004
 122157008.154 7  95187241.53844  23245710.791    23245703.5024
        44.300          28.7004
 110890679.517 8  86408309.43546  21101792.099    21101786.8034
        48.800          40.8004
 117546835.038 7  91594908.22045  22368427.395    22368426.0834
        45.600          34.0004
 127141586.051 6  99071324.13443  24194247.128    24194244.0594
        38.300          22.3004
 15  9 17  0 57  0.0000000  0  9G22G14G04G16G08G18G27G26G21
 108915727.781 8  84869356.06846  20725973.928    20725964.8804
        50.700          41.4004
 116234145.057 7  90572059.62344  22118615.950    22118611.1814
        45.400          29.9004
 126605521.611 7  98653661.14643  24092222.779    24092221.8204
        42.200          21.8004
 113359634.693 8  88332145.29646  21571625.129    21571618.0164
        49.800          37.6004
 124846609.922 6  97283076.08444  23757520.797    23757518.4904
        41.400          27.2004
 122240294.446 7  95252139.89044  23261559.966    23261552.6774
        43.200          28.7004
 110830660.397 8  86361541.31046  21090370.938    21090365.6414
        49.700          41.5004
 117631562.619 7  91660929.56245  22384550.382    22384549.4224
        44.300          34.4004
 127172370.192 6  99095311.69443  24200105.937    24200100.8754
        40.300          21.1004
 15  9 17  0 57 30.0000000  0  9G22G14G04G16G08G18G27G26G21
 108960882.497 8  84904541.54746  20734566.919    20734557.6374
        51.200          41.0004
 116186342.315 7  90534810.79645  22109520.104    22109514.8664
        45.700          30.4004
 126552960.676 7  98612704.69043  24082219.991    24082219.3254
        42.000          22.6004
 113408971.480 8  88370589.46946  21581013.399    21581006.2854
        49.100          37.0004
 124751698.010 6  97209118.75644  23739459.572    23739456.9714
        40.400          25.9004
 122323624.455 7  95317072.28444  23277416.916    23277409.8614
        44.100          29.4004
 110770927.934 8  86314996.55846  21079004.468    21078998.9954
        48.000          41.2004
 117716462.300 7  91727085.01145  22400706.544    22400704.9994
        45.700          34.4004
 127203139.302 6  99119287.52743  24205960.229    24205955.8114
        38.000          20.9004
 15  9 17  0 58  0.0000000  0  9G22G14G04G16G08G18G27G26G21
 109006355.714 8  84939975.21946  20743219.752    20743209.8254
        50.000          40.2004
 116138867.542 7  90497817.51245  22100486.142    22100481.0804
        45.800          30.2004
 126500417.504 7  98571762.11643  24072221.869    24072220.2654
        43.200          22.3004
 113458728.043 8  88409360.74246  21590481.335    21590474.8664
        48.700          36.7004
 124656801.502 6  97135173.47044  23721401.679    23721398.6684
        40.700          26.2004
 122406997.379 7  95382038.11944  23293282.763    23293275.1224
        44.700          28.1004
 110711485.484 8  86268677.78546  21067693.019    21067687.3124
        49.200          40.9004
 117801531.897 7  91793372.86145  22416894.769    22416893.5164
        46.200          33.9004
 127233895.047 6  99143252.96443  24211812.397    24211808.3894
        37.700          20.4004
 15  9 17  0 58 30.0000000  0  9G22G14G04G16G08G18G27G26G21
 109052144.933 8  84975655.12246  20751933.156    20751924.2844
        50.500          40.7004
 116091723.333 7  90461081.81244  22091513.654    22091509.1194
        46.000          29.6004
 126447891.242 7  98530832.70643  24062226.658    24062225.1124
        42.200          21.3004
 113508901.876 8  88448457.16246  21600029.013    21600023.0714
        49.400          37.4004
 124561922.356 6  97061241.71844  23703345.670    23703344.3594
        39.400          26.2004
 122490411.029 7  95447035.68744  23309155.404    23309148.5254
        43.000          27.3004
 110652335.543 8  86222586.93046  21056436.988    21056430.9884
        48.700          41.0004
 117886768.293 7  91859790.68845  22433115.045    22433113.5004
        44.800          34.0004
 127264638.529 6  99167208.84243  24217662.112    24217658.3394
        36.500          19.3004
 15  9 17  0 59  0.0000000  0 10G22G14G04G16G31G08G18G27G26G21
 109098248.645 8  85011580.07446  20760706.943    20760697.3674
        50.500          40.7004
 116044912.720 7  90424606.06144  22082606.641    22082600.8174
        45.000          29.1004
 126395381.699 6  98489916.31543  24052233.377    24052232.5354
        40.300          19.9004
 113559491.089 8  88487877.26046  21609655.964    21609649.9644
        49.000          37.0004
                                  25489233.799
        31.200
 124467063.078 6  96987325.43143  23685295.989    23685292.4514
        39.900          23.4004
 122573863.844 7  95512063.80944  23325035.838    23325028.5494
        44.000          28.4004
 110593480.983 8  86176726.24546  21045237.205    21045231.9094
        49.100          40.8004
 117972168.971 7  91926336.51745  22449366.060    22449364.5144
        45.000          33.4004
 127295371.180 6  99191156.28343  24223511.092    24223506.4404
        37.200          20.1004
 15  9 17  0 59 30.0000000  0 10G22G14G04G16G31G08G18G27G26G21
 109144661.492 8  85047745.91846  20769539.197    20769529.4464
        50.500          40.7004
 115998434.827 7  90388389.58345  22073761.947    22073756.5334
        45.700          30.8004
 126342885.242 6  98449010.05743  24042243.083    24042243.1794
        40.000          21.3004
 113610490.078 8  88527616.66846  21619360.977    21619354.5094
        49.700          37.0004
 133945695.341 6                  25488996.490
        36.500
 124372222.421 6  96913423.66043  23667247.379    23667244.6024
        39.000          22.6004
 122657351.006 7  95577118.68244  23340923.370    23340916.0814
        43.700          27.2004
 110534921.093 8  86131095.19346  21034093.422    21034088.5364
        48.700          41.1004
 118057727.523 7  91993005.35045  22465647.067    22465646.1074
        44.700          33.6004
 127326090.978 6  99215093.69243  24229356.394    24229351.7424
        36.700          19.3004
 15  9 17  1  0  0.0000000  0 10G22G14G04G16G31G08G18G27G26G21
 109191386.838 8  85084155.26146  20778430.534    20778421.1344
        49.900          40.7004
 115952297.777 7  90352438.67245  22064982.542    22064977.0104
        45.600          30.4004
 126290406.405 7  98408117.62743  24032257.077    24032256.2354
        42.000          21.5004
 113661901.433 8  88567677.39946  21629144.257    21629137.6134
        48.900          37.3004
 133944082.033 6                  25488689.910
        37.500
 124277408.040 6  96839542.37444  23649204.556    23649202.9524
        40.200          24.7004
 122740876.171 7  95642203.14944  23356817.608    23356811.0224
        43.100          28.4004
 110476663.761 8  86085699.88046  21023007.689    21023002.0404
        50.200          41.2004
 118143446.356 7  92059799.08345  22481958.776    22481958.4614
        44.100          32.8004
 127356804.328 6  99239026.14543  24235201.826    24235196.9404
        36.500          18.6004
 15  9 17  1  0 30.0000000  0 10G22G14G04G16G31G08G18G27G26G21
 109238417.812 8  85120802.76746  20787380.130    20787370.3794
        50.800          40.3004
 115906500.007 7  90316752.17045  22056267.610    22056262.1384
        45.500          30.7004
 126237940.517 6  98367235.29643  24022273.155    24022271.5514
        41.500          22.2004
 113713718.677 8  88608054.39946  21639004.818    21638998.4664
        48.700          38.0004
 133942109.931 5                  25488310.672
        33.800
 124182617.984 6  96765680.04144  23631166.449    23631164.6104
        38.800          25.8004
 122824433.199 7  95707312.45644  23372718.135    23372711.0214
        43.600          27.4004
 110418707.314 8  86040539.02747  21011978.850    21011973.8474
        50.400          42.1004
 118229318.196 7  92126712.03745  22498300.397    22498299.4384
        44.600          32.8004
 127387507.778 5  99262950.83743  24241043.259    24241039.7214
        35.800          18.6004
 15  9 17  1  1  0.0000000  0 10G22G14G04G16G31G08G18G27G26G21
 109285753.468 8  85157687.68346  20796388.004    20796378.5464
        50.000          40.4004
 115861044.771 7  90281332.54645  22047617.822    22047611.4714
        46.300          31.1004
 126185487.869 7  98326363.26043  24012292.115    24012290.5694
        42.600          22.2004
 113765939.919 7  88648746.21146  21648942.641    21648936.0554
        47.800          37.1004
 133939780.684 6                  25487873.358
        37.400
 124087855.285 6  96691839.02444  23613133.622    23613131.3144
        39.000          25.5004
 122908020.960 7  95772445.69244  23388624.409    23388616.8854
        42.800          28.1004
 110361055.123 8  85995615.25946  21001007.708    21001002.5874
        49.900          41.9004
 118315340.869 7  92193742.53045  22514669.808    22514669.1424
        44.200          33.4004
 127418203.192 6  99286869.28643  24246885.552    24246880.3724
        37.000          20.1004
 15  9 17  1  1 30.0000000  0 10G22G14G04G16G31G08G18G27G26G21
 109333391.669 8  85194808.35246  20805453.320    20805444.0964
        50.800          40.5004
 115815934.646 7  90246181.85945  22039033.312    22039028.3674
        45.400          31.2004
 126133047.963 7  98285501.13143  24002312.913    24002311.0744
        42.300          22.3004
 113818562.867 8  88689751.02946  21658956.294    21658950.1774
        49.000          37.7004
 133937094.327 5                  25487361.222
        35.700
 123993122.296 6  96618021.15944  23595106.604    23595104.4734
        39.700          24.2004
 122991637.599 7  95837601.45544  23404535.729    23404528.7334
        43.400          27.6004
 110303709.775 8  85950930.59247  20990095.592    20990090.3544
        50.000          42.1004
 118401511.484 7  92260888.31645  22531068.025    22531066.8314
        45.400          32.5004
 127448892.054 6  99310782.61743  24252725.711    24252720.3564
        37.500          19.6004
 15  9 17  1  2  0.0000000  0 10G22G14G04G16G31G08G18G27G26G21
 109381331.748 8  85232164.24846  20814576.308    20814566.4994
        49.900          41.0004
 115771173.583 7  90211303.17245  22030515.709    22030510.4134
        46.100          31.4004
 126080621.506 6  98244649.51343  23992335.578    23992334.3844
        41.400          22.3004
 113871586.302 8  88731067.92246  21669046.420    21669040.3614
        48.400          37.3004
 133934052.490 5                  25486778.002
        33.700
 123898422.405 6  96544229.07144  23577086.311    23577082.5384
        40.600          26.9004
 123075282.737 7  95902779.42144  23420453.485    23420446.8414
        44.300          27.7004
 110246675.063 8  85906487.98446  20979242.049    20979237.1044
        49.600          41.8004
 118487828.277 7  92328147.99645  22547492.886    22547492.3364
        44.000          33.0004
 127479577.002 6  99334692.86643  24258564.636    24258559.8674
        38.400          19.3004
 15  9 17  1  2 30.0000000  0 10G22G14G04G16G31G08G18G27G26G21
 109429568.859 8  85269751.58646  20823755.604    20823745.6194
        51.000          41.2004
 115726761.481 7  90176696.38045  22022064.231    22022058.5834
        45.400          31.4004
 126028205.050 7  98203805.69443  23982361.613    23982360.0094
        42.400          22.5004
 113925005.065 8  88772692.85946  21679211.604    21679205.9564
        48.000          38.1004
 133930652.913 5                  25486136.634
        34.900
 123803755.292 6  96470462.53244  23559072.237    23559068.2304
        41.300          26.4004
 123158952.095 7  95967976.26844  23436375.843    23436368.6124
        43.900          28.4004
 110189950.839 8  85862287.30246  20968447.700    20968442.1114
        50.200          41.8004
 118574285.618 7  92395517.20145  22563945.654    22563944.9294
        43.900          32.4004
 127510255.971 6  99358598.54443  24264402.666    24264398.3074
        37.600          20.6004
 15  9 17  1  3  0.0000000  0 10G22G14G04G16G31G08G18G27G26G21
 109478101.348 8  85307569.11246  20832990.488    20832981.0304
        50.100          40.6004
 115682701.527 7  90142363.99545  22013679.982    22013674.5684
        46.400          31.6004
 125975799.015 6  98162969.95843  23972388.368    23972387.7014
        40.100          22.2004
 113978817.163 8  88814624.29546  21689451.776    21689445.7764
        48.400          37.6004
 133926896.414 6                  25485452.034
        37.300
 123709123.725 6  96396723.67744  23541064.029    23541060.4914
        41.300          25.8004
 123242644.360 7  96033190.95244  23452301.219    23452294.1644
        44.100          28.2004
 110133540.345 8  85818331.09046  20957712.988    20957707.2224
        49.600          41.5004
 118660881.193 7  92462994.10545  22580424.903    22580423.6514
        44.100          32.6004
 127540930.838 6  99382500.95243  24270240.263    24270235.9634
        38.600          19.9004
 15  9 17  1  3 30.0000000  0 10G22G14G04G16G31G08G18G27G26G21
 109526899.862 8  85345593.91446  20842276.517    20842267.0594
        50.200          40.7004
 115638968.469 7  90108286.32745  22005358.304    22005352.4804
        46.500          31.7004
 125923375.264 6  98122120.40843  23962413.004    23962412.0444
        41.400          22.5004
 114032992.661 8  88856838.88746  21699760.809    21699755.1614
        48.100          37.7004
 133922755.910 5                  25484684.844
        32.200
 123614502.219 7  96322992.65744  23523058.129    23523054.8844
        42.200          27.6004
 123326329.891 7  96098400.39244  23468225.568    23468219.5684
        42.500          28.1004
 110077418.532 8  85774599.81346  20947033.466    20947027.9934
        49.100          41.7004
 118747584.460 7  92530554.92745  22596923.884    22596922.8654
        43.600          31.8004
 127571575.300 6  99406379.69543  24276071.606    24276066.4864
        38.400          20.6004
 15  9 17  1  4  0.0000000  0 10G22G14G04G16G31G08G18G27G26G21
 109576009.913 8  85383861.47146  20851621.744    20851612.6974
        50.300          39.8004
 115595612.846 7  90074502.78645  21997107.515    21997101.9264
        46.300          31.1004
 125870980.878 7  98081293.76343  23952444.196    23952442.1824
        42.300          22.9004
 114087576.726 8  88899371.83946  21710147.774    21710142.2434
        48.300          37.2004
 133918279.264 5                  25483843.432
        32.000
 123519941.434 7  96249308.98744  23505064.458    23505061.2134
        43.700          28.4004
 123410055.273 6  96163640.90044  23484157.221    23484151.5144
        41.300          24.0004
 110021635.772 8  85731132.74246  20936418.400    20936413.1624
        49.600          41.7004
 118834440.191 7  92598234.55445  22613452.097    22613451.0794
        43.600          31.7004
 127602238.304 6  99430272.89743  24281906.977    24281901.1534
        38.600          20.6004
 15  9 17  1  4 30.0000000  0 10G22G14G04G16G31G08G18G27G26G21
 109625460.657 8  85422394.50146  20861032.310    20861022.9114
        49.500          39.3004
 115552668.690 7  90041039.87345  21988935.215    21988929.4504
        46.300          31.2004
 125818647.014 6  98040514.28643  23942484.041    23942482.8474
        41.400          22.8004
 114142598.142 7  88942245.59546  21720618.150    21720612.4444
        46.800          37.7004
 133913487.427 5                  25482865.813
        34.600
 123425474.636 7  96175698.55944  23487087.051    23487084.9204
        42.600          27.0004
 123493849.786 6  96228935.26544  23500103.355    23500097.4724
        40.900          24.7004
 109966225.943 8  85687956.27147  20925874.349    20925868.9944
        50.200          42.2004
 118921476.940 6  92666055.22545  22630014.009    22630013.8124
        41.600          31.8004
 127632952.611 6  99454206.02143  24287752.580    24287747.5774
        38.800          19.6004
 15  9 17  1  5  0.0000000  0 10G22G14G04G16G31G08G18G27G26G21
 109675158.656 8  85461120.20146  20870489.322    20870479.6294
        50.400          40.0004
 115510046.573 7  90007827.86945  21980824.758    21980818.4064
        46.800          31.0004
 125766281.206 6  97999709.87743  23932519.139    23932517.3004
        41.900          22.5004
 114197962.639 8  88985386.67846  21731153.858    21731148.3864
        48.400          37.1004
 133908304.848 5                  25481882.550
        33.400
 123331012.260 7  96102091.56744  23469111.073    23469109.0594
        42.000          26.5004
 123577620.140 7  96294210.80744  23516044.639    23516038.6394
        42.200          25.1004
 109911099.908 8  85645000.92446  20915384.131    20915379.1284
        50.900          41.6004
 119008599.885 7  92733943.06745  22646593.160    22646592.6694
        42.700          31.2004
 127663627.458 6  99478108.46143  24293589.492    24293585.1924
        38.700          20.4004
 15  9 17  1  5 30.0000000  0 10G22G14G04G16G31G08G18G27G26G21
 109725140.921 8  85500067.40946  20880000.308    20879991.3194
        50.100          40.6004
 115467788.516 7  89974899.58345  21972783.369    21972777.0764
        46.000          31.1004
 125713922.712 6  97958911.18843  23922555.672    23922553.5994
        41.700          22.5004
 114253707.126 7  89028823.85946  21741761.716    21741755.9504
        47.900          36.8004
 133902772.890 5                  25480831.401
        34.600
 123236596.672 7  96028521.05244  23451145.580    23451141.6324
        42.600          25.3004
 123661403.968 7  96359496.83944  23531987.236    23531982.4674
        42.700          24.8004
 109856299.627 8  85602299.41747  20904956.181    20904950.8254
        50.700          42.2004
 119095845.573 7  92801926.54145  22663195.131    22663195.4034
        42.200          30.4004
 127694303.252 6  99502011.55343  24299426.288    24299421.1674
        39.000          19.9004
 15  9 17  1  6  0.0000000  0  9G22G14G04G16G08G18G27G26G21
 109775405.943 8  85539234.93846  20889565.993    20889556.4184
        50.300          40.2004
 115425897.652 7  89942257.40045  21964811.962    21964805.1424
        45.800          31.0004
 125661571.279 7  97918118.01243  23912592.952    23912590.5284
        42.500          22.9004
 114309829.588 8  89072555.56446  21752441.817    21752435.9354
        48.200          36.9004
 123142230.148 7  95954988.74644  23433188.471    23433184.2294
        42.300          27.1004
 123745200.104 7  96424792.48144  23547933.113    23547927.9924
        42.100          25.7004
 109801828.232 8  85559854.18047  20894590.464    20894585.6374
        50.700          42.2004
 119183211.671 7  92870003.84545  22679820.713    22679820.9844
        42.500          31.5004
 127724981.666 6  99525916.74443  24305265.228    24305259.6974
        39.300          20.1004
 15  9 17  1  6 30.0000000  0 10G22G14G04G16G31G08G18G27G26G21
 109825948.419 8  85578618.67546  20899183.694    20899174.5884
        50.300          40.8004
 115384372.930 7  89909900.51445  21956909.810    21956903.4594
        45.400          30.6004
 125609223.185 6  97877327.41143  23902630.868    23902629.4984
        40.300          23.0004
 114366323.907 8  89116577.03045  21763191.981    21763185.6884
        48.600          35.6004
 133890698.861 6                  25478525.373
        36.800
 123047911.834 7  95881494.01044  23415239.302    23415235.9404
        42.500          26.2004
 123829003.421 7  96490093.70644  23563881.842    23563875.3734
        42.700          26.7004
 109747684.815 8  85517664.51046  20884287.499    20884282.0264
        49.900          41.9004
 119270691.766 6  92938169.98145  22696467.927    22696468.1394
        41.800          30.8004
 127755660.540 6  99549822.24543  24311103.268    24311097.8544
        39.700          20.4004
 15  9 17  1  7  0.0000000  0 10G22G14G04G16G31G08G18G27G26G21
 109876779.024 8  85618226.92746  20908856.787    20908847.6814
        49.700          40.0004
 115343229.943 7  89877841.08945  21949080.936    21949073.9994
        45.700          30.7004
 125556890.879 6  97836549.13543  23892672.890    23892671.1684
        41.700          23.5004
 114423200.737 8  89160896.56745  21774015.616    21774008.7374
        48.200          35.5004
 133884109.628 6 104325283.80243  25477269.391    25477265.0914
        36.800          19.0004
 122953657.230 7  95808048.91944  23397302.760    23397299.6904
        42.000          26.1004
 123912825.489 7  96555409.52144  23579832.600    23579826.8344
        43.300          26.4004
 109693884.960 8  85475742.54647  20874049.810    20874044.5134
        50.200          42.4004
 119358296.045 7  93006432.86745  22713138.824    22713138.5674
        43.800          30.2004
 127786354.476 6  99573739.47243  24316944.754    24316938.8714
        39.500          21.3004
 15  9 17  1  7 30.0000000  0 10G22G14G04G16G31G08G18G27G26G21
 109927881.712 8  85658047.19146  20918581.516    20918571.5304
        50.100          39.9004
 115302456.920 7  89846069.94545  21941321.566    21941315.5074
        45.600          31.1004
 125504560.236 6  97795772.12943  23882714.785    23882712.8884
        39.100          22.6004
 114480443.376 8  89205501.14746  21784908.724    21784901.9624
        48.800          36.1004
 133877162.498 6 104319870.43743  25475945.463    25475943.5074
        38.200          19.0004
 122859454.448 6  95734644.19744  23379376.552    23379374.1854
        41.700          27.7004
 123996650.538 7  96620727.67744  23595784.179    23595777.7684
        43.300          26.4004
 109640417.293 8  85434079.43147  20863875.370    20863869.6634
        50.100          42.1004
 119446007.602 7  93074779.34145  22729830.612    22729829.5944
        43.400          30.4004
 127817050.499 6  99597658.38843  24322785.386    24322780.0894
        38.900          20.9004
 15  9 17  1  8  0.0000000  0 10G22G14G04G16G31G08G18G27G26G21
 109979258.233 8  85698080.82746  20928357.362    20928347.3764
        49.500          40.5004
 115262060.461 7  89814592.23545  21933633.945    21933628.4724
        44.300          30.2004
 125452234.355 6  97754998.89743  23872758.175    23872754.8134
        41.700          22.8004
 114538053.117 8  89250391.76746  21795871.799    21795864.8034
        48.000          36.0004
 133869861.777 5 104314181.58842  25474557.396    25474554.1514
        35.500          14.8004
 122765310.063 6  95661285.00244  23361461.307    23361459.3514
        41.000          26.3004
 124080481.148 7  96686050.13844  23611736.939    23611729.8844
        43.800          26.8004
 109587288.181 8  85392680.12947  20853765.028    20853759.3214
        50.900          42.3004
 119533827.353 7  93143210.11244  22746541.906    22746541.5914
        42.900          29.8004
 127847753.637 6  99621582.80543  24328628.706    24328622.7644
        39.900          20.9004
 15  9 17  1  8 30.0000000  0 10G22G14G04G16G31G08G18G27G26G21
 110030907.820 8  85738327.24246  20938186.469    20938175.8974
        49.700          39.7004
 115222044.123 7  89783410.73045  21926019.782    21926013.6064
        44.300          31.2004
 125399913.947 7  97714229.88243  23862800.487    23862799.5864
        42.500          23.5004
 114596028.257 7  89295567.10345  21806903.701    21806897.7604
        47.700          35.6004
 133862209.170 5 104308218.46842  25473099.568    25473097.0854
        35.800          14.8004
 122671227.669 6  95587974.12644  23343557.896    23343556.3514
        41.400          28.6004
 124164315.937 7  96751375.87544  23627689.676    23627683.7944
        42.300          24.9004
 109534501.206 8  85351547.42646  20843720.245    20843714.6554
        51.000          41.9004
 119621753.489 7  93211723.79045  22763273.318    22763273.5894
        42.100          30.3004
 127878466.369 6  99645514.70043  24334470.744    24334467.6754
        37.000          19.6004
 15  9 17  1  9  0.0000000  0 10G22G14G04G16G31G08G18G27G26G21
 110082827.369 8  85778784.03846  20948066.187    20948056.2024
        49.600          39.8004
 115182409.864 7  89752526.94245  21918476.725    21918471.4864
        45.100          31.8004
 125347597.783 7  97673464.18243  23852845.765    23852844.2784
        42.700          23.8004
 114654365.823 7  89341024.85945  21818004.917    21817999.0344
        47.400          35.1004
 133854164.296 6 104301983.88842  25471576.456    25471573.7384
        36.100          14.8004
 122577208.691 7  95514712.65544  23325667.168    23325665.3884
        42.600          28.4004
 124248152.928 7  96816703.31844  23643642.975    23643637.6204
        43.100          26.8004
 109482058.256 8  85310682.79246  20833739.617    20833734.7894
        50.300          41.8004
 119709782.409 6  93280317.57844  22780024.836    22780025.4014
        41.800          29.7004
 127909188.786 6  99669454.19643  24340317.841    24340313.4244
        37.600          19.0004
 15  9 17  1  9 30.0000000  0 10G22G14G04G16G31G08G18G27G26G21
 110135014.732 8  85819449.48846  20957997.745    20957987.7604
        49.600          40.2004
 115143159.450 7  89721942.24545  21911007.377    21911002.1394
        44.100          31.9004
 125295285.286 7  97632701.33643  23842890.431    23842889.5304
        42.200          22.9004
 114713062.676 7  89386762.58645  21829174.359    21829168.3004
        47.500          34.8004
 133845807.675 5 104295472.07142  25469981.355    25469984.9094
        30.100          13.9004
 122483255.356 6  95441502.33844  23307787.457    23307785.4434
        41.700          29.1004
 124331990.467 7  96882031.19644  23659596.974    23659591.2094
        42.300          25.6004
 109429961.584 8  85270087.98746  20823825.881    20823821.4054
        50.700          41.8004
 119797910.983 6  93348988.99244  22796794.621    22796795.8304
        41.000          29.0004
 127939922.393 6  99693402.34643  24346166.393    24346161.9754
        37.100          19.6004
 15  9 17  1 10  0.0000000  0 10G22G14G04G16G31G08G18G27G26G21
 110187467.921 8  85860322.08646  20967978.795    20967969.6304
        49.800          40.4004
 115104295.666 7  89691658.82545  21903611.882    21903606.5854
        44.600          31.5004
 125242976.454 6  97591941.33743  23832936.183    23832934.8724
        40.900          22.9004
 114772116.706 7  89432778.62845  21840412.030    21840406.0304
        46.700          34.4004
 133837081.193 5 104288689.94942  25468331.047    25468327.9774
        35.400          13.9004
 122389370.486 6  95368345.35244  23289921.888    23289919.8154
        41.200          27.4004
 124415827.434 7  96947358.62844  23675551.012    23675545.0714
        42.500          26.4004
 109378214.132 8  85229765.30247  20813979.427    20813974.2474
        50.900          42.1004
 119886136.652 6  93417736.07744  22813584.383    22813584.7134
        41.200          29.3004
 127970668.521 6  99717360.31243  24352016.305    24352012.8844
        37.000          19.3004
 15  9 17  1 10 30.0000000  0 10G22G14G04G16G31G08G18G27G26G21
 110240183.864 8  85901399.40946  20978010.720    20978001.2624
        49.100          40.5004
 115065819.686 7  89661677.58645  21896290.354    21896285.1164
        44.300          31.2004
 125190669.466 6  97551182.78343  23822981.549    23822980.5904
        37.700          21.8004
 114831523.806 7  89479069.80445  21851717.480    21851710.8364
        47.900          35.0004
 133828016.833 5 104281638.86242  25466608.335    25466604.0934
        33.300          14.8004
 122295555.094 6  95295242.52144  23272069.071    23272067.0564
        41.500          28.2004
 124499660.565 6  97012683.06843  23691504.017    23691497.6074
        41.700          23.0004
 109326817.129 8  85189715.69447  20804198.825    20804193.7634
        50.100          42.5004
 119974455.318 6  93486555.61044  22830390.660    22830391.6934
        41.800          29.3004
 128001427.161 6  99741328.00343  24357871.486    24357866.8344
        36.700          19.6004
 15  9 17  1 11  0.0000000  0 10G22G14G04G16G31G08G18G27G26G21
 110293160.243 8  85942679.68946  20988091.796    20988081.8114
        49.100          40.6004
 115027733.799 7  89632000.32345  21889042.550    21889037.4884
        44.100          31.2004
 125138363.927 6  97510425.36143  23813028.757    23813026.2154
        40.900          22.9004
 114891281.261 7  89525633.96945  21863088.841    21863082.3134
        47.200          34.5004
 133818609.231 5                  25464815.390
        31.900
 122201811.815 6  95222195.87844  23254230.674    23254228.3674
        41.700          27.9004
 124583488.462 6  97078003.42943  23707455.876    23707449.3494
        41.100          23.3004
 109275772.992 8  85149941.05047  20794485.300    20794480.4134
        50.700          42.6004
 120062864.038 6  93555445.32745  22847214.081    22847214.9974
        40.500          30.1004
 128032199.250 6  99765306.18343  24363727.160    24363722.2744
        37.500          18.6004
 15  9 17  1 11 30.0000000  0 10G22G14G04G16G31G08G18G27G26G21
 110346396.466 8  85984162.42746  20998222.286    20998212.1834
        50.100          39.8004
 114990042.247 7  89602630.32445  21881870.345    21881864.7554
        44.800          31.4004
 125086060.826 6  97469669.82443  23803075.342    23803072.4484
        40.700          22.6004
 114951387.941 7  89572470.26545  21874526.682    21874519.8024
        46.200          34.3004
 133808868.469 5                  25462957.060
        34.600
 122108144.383 6  95149208.33144  23236406.882    23236404.2234
        41.600          28.0004
 124667310.636 6  97143319.33144  23723406.634    23723400.1064
        40.900          24.4004
 109225085.613 8  85110444.40447  20784840.430    20784834.7234
        51.100          42.8004
 120151361.207 6  93624403.96344  22864054.724    22864055.9334
        39.900          29.5004
 128062988.015 6  99789297.36143  24369586.332    24369580.5084
        37.700          20.9004
 15  9 17  1 12  0.0000000  0 10G22G14G04G16G31G08G18G27G26G21
 110399889.605 8  86025845.37046  21008401.377    21008390.8054
        50.000          40.7004
 114952745.853 7  89573568.24045  21874773.015    21874767.1914
        44.700          31.4004
 125033758.883 7  97428915.18343  23793123.436    23793120.0744
        42.600          22.3004
 115011840.467 8  89619576.04245  21886030.332    21886023.7464
        48.000          34.3004
 133798759.582 6                  25461034.512
        37.900
 122014554.391 7  95076281.12444  23218597.289    23218594.5134
        42.000          28.3004
 124751124.766 6  97208629.00543  23739355.732    23739348.6774
        41.100          22.9004
 109174756.798 8  85071227.15747  20775263.064    20775257.1824
        51.200          42.3004
 120239943.363 6  93693428.80044  22880911.985    22880911.9054
        40.600          27.8004
 128093793.787 6  99813301.76743  24375447.004    24375443.0554
        36.100          18.6004
 15  9 17  1 12 30.0000000  0 10G22G14G04G16G31G08G18G27G26G21
 110453637.226 8  86067726.59946  21018629.719    21018619.6744
        49.800          39.9004
 114915846.930 7  89544815.88345  21867750.989    21867744.5784
        44.500          31.0004
 124981457.130 6  97388160.70043  23783170.563    23783167.4354
        41.900          22.5004
 115072634.983 7  89666948.32445  21897599.676    21897592.7384
        47.900          34.7004
 133788301.350 4                  25459041.435
        29.900
 121921044.010 6  95003415.95244  23200803.180    23200799.8774
        41.800          28.3004
 124834928.836 7  97273930.80944  23755304.010    23755297.4244
        42.000          26.0004
 109124788.406 8  85032290.76047  20765754.081    20765748.5504
        51.400          42.1004
 120328606.958 6  93762517.11644  22897784.703    22897785.0334
        41.100          28.4004
 128124616.407 6  99837319.29642  24381313.684    24381309.2084
        37.300          17.8004
 15  9 17  1 13  0.0000000  0 10G22G14G04G16G31G08G18G27G26G21
 110507636.749 8  86109804.12946  21028904.945    21028895.3114
        49.500          40.3004
 114879347.669 7  89516374.95245  21860806.441    21860799.9144
        45.300          32.1004
 124929155.240 6  97347406.10043  23773216.357    23773215.2804
        40.200          21.1004
 115133769.588 7  89714585.59445  21909232.981    21909226.9224
        47.900          34.6004
 133777494.282 6                  25456992.642
        41.600
 121827615.180 7  94930614.34944  23183023.870    23183021.0934
        42.300          28.0004
 124918721.280 7  97339223.55544  23771248.834    23771242.2484
        42.600          25.1004
 109075182.974 8  84993637.19047  20756314.474    20756308.8844
        51.600          42.6004
 120417349.194 6  93831666.70244  22914672.239    22914672.3354
        40.900          28.0004
 128155457.645 6  99861351.34443  24387183.814    24387177.3454
        38.400          18.3004
 15  9 17  1 13 30.0000000  0 10G22G14G04G16G31G08G18G27G26G21
 110561886.036 8  86152076.27146  21039228.468    21039218.8344
        49.400          39.9004
 114843250.153 7  89488247.05845  21853936.627    21853930.6864
        45.800          31.6004
 124876852.659 6  97306651.03143  23763264.303    23763261.7614
        41.200          21.3004
 115195241.142 7  89762485.44545  21920930.245    21920924.7144
        46.100          34.3004
 133766339.039 5                  25454862.515
        35.400
 121734270.666 7  94857878.42444  23165261.206    23165258.6064
        42.600          29.1004
 125002500.294 6  97404505.82744  23787191.682    23787184.8034
        41.900          25.3004
 109025942.779 8  84955268.20847  20746944.825    20746938.8254
        52.100          42.2004
 120506166.941 6  93900875.12244  22931573.533    22931573.4524
        40.400          28.5004
 128186318.637 6  99885398.77143  24393056.161    24393050.5724
        38.300          20.4004
 15  9 17  1 14  0.0000000  0 10G22G14G04G16G31G08G18G27G26G21
 110616383.680 8  86194541.93246  21049598.965    21049589.5654
        50.000          39.4004
 114807557.080 7  89460434.30945  21847144.865    21847138.5144
        46.800          32.4004
 124824549.672 6  97265895.62543  23753310.987    23753309.2074
        40.300          21.5004
 115257047.048 8  89810645.81145  21932692.104    21932686.4564
        48.300          34.8004
 133754836.715 7 104224595.27343  25452676.979    25452675.3164
        44.100          21.8004
 121641013.551 7  94785210.62845  23147514.763    23147511.5774
        42.400          30.1004
 125086264.669 6  97469776.71644  23803131.880    23803125.4694
        41.500          25.8004
 108977070.847 8  84917186.19047  20737644.390    20737639.0344
        51.000          42.7004
 120595058.001 6  93970140.66744  22948489.977    22948489.4284
        41.100          29.1004
 128217201.282 6  99909463.06843  24398932.153    24398927.8534
        36.400          20.4004
 15  9 17  1 14 30.0000000  0 10G22G14G04G16G31G08G18G27G26G21
 110671127.382 8  86237199.33846  21060015.818    21060007.1224
        48.800          39.0004
 114772270.986 7  89432938.68245  21840430.309    21840423.6654
        46.500          32.4004
 124772245.502 6  97225139.29743  23743357.693    23743355.9724
        39.400          21.5004
 115319184.730 7  89859064.70345  21944516.252    21944511.0734
        47.900          34.8004
 133742987.584 7 104215362.19043  25450420.694    25450421.3764
        43.200          22.8004
 121547846.182 7  94712612.72244  23129785.816    23129782.3364
        42.500          29.1004
 125170013.493 6  97535035.46844  23819068.713    23819062.5374
        41.800          24.9004
 108928569.511 8  84879392.96047  20728414.809    20728409.4544
        50.700          43.0004
 120684019.288 6  94039460.91744  22965417.951    22965418.3984
        40.600          28.4004
 128248106.348 6  99933544.85243  24404813.119    24404808.9364
        37.200          19.0004
 15  9 17  1 15  0.0000000  0 10G22G14G04G16G31G08G18G27G26G21
 110726114.643 8  86280046.50246  21070479.469    21070470.7734
        48.900          39.1004
 114737393.068 7  89405761.12245  21833792.098    21833786.9184
        46.300          33.1004
 124719939.422 6  97184381.42243  23733404.870    23733402.5044
        41.100          22.6004
 115381651.252 8  89907739.83745  21956403.963    21956398.0804
        49.500          35.2004
 133730792.102 6 104205859.15043  25448100.570    25448099.3174
        37.900          18.3004
 121454770.427 7  94640086.21944  23112073.854    23112070.8444
        42.400          29.8004
 125253744.377 6  97600280.26344  23835002.493    23834995.5554
        40.700          25.6004
 108880440.903 8  84841890.15647  20719256.254    20719250.8404
        51.500          43.3004
 120773047.678 6  94108833.49344  22982359.047    22982360.2574
        39.900          27.7004
 128279035.345 6  99957645.23943  24410698.847    24410694.2544
        36.400          19.3004
 15  9 17  1 15 30.0000000  0  9G22G14G04G16G08G18G27G26G21
 110781343.527 8  86323081.96146  21080989.536    21080980.8984
        49.500          39.4004
 114702926.624 7  89378904.18245  21827233.735    21827227.9704
        45.800          33.0004
 124667631.424 6  97143622.10143  23723450.414    23723448.1064
        40.700          22.8004
 115444443.951 8  89956669.13545  21968352.803    21968346.9204
        48.000          35.1004
 121361789.105 7  94567633.29645  23094379.777    23094376.8834
        42.100          30.2004
 125337456.313 7  97665510.26643  23850931.659    23850925.6594
        42.100          23.6004
 108832687.646 8  84804679.82947  20710168.992    20710163.3434
        50.700          42.2004
 120862140.483 6  94178256.22644  22999313.835    22999314.1074
        41.200          27.3004
 128309989.235 6  99981765.05743  24416589.459    24416584.9834
        36.700          19.3004
 15  9 17  1 16  0.0000000  0 11G22G14G04G16G31G08G18G27G26G21G19
 110836803.351 8  86366297.36746  21091543.381    21091534.2164
        48.900          39.0004
 114668864.884 7  89352362.61145  21820752.228    21820746.4624
        45.300          33.7004
 124615312.245 7  97102854.05343  23713494.618    23713491.2554
        42.200          21.8004
 115507551.223 8  90005843.56145  21980362.138    21980355.6104
        48.600          35.2004
 133705505.556 5                  25443258.361
        33.200
 121268895.972 6  94495249.12144  23076701.745    23076699.7894
        41.100          29.1004
 125421138.291 6  97730716.94344  23866855.632    23866849.6904
        41.800          24.2004
 108785303.515 8  84767757.13047  20701152.716    20701146.8924
        51.400          43.2004
 120951286.169 6  94247720.18144  23016277.777    23016278.3414
        41.400          27.4004
 128340960.680 6 100005898.51043  24422482.963    24422477.4904
        36.500          18.6004
 129871707.770 6                  24713764.333
        38.000
 15  9 17  1 16 30.0000000  0 11G22G14G04G16G31G08G18G27G26G21G19
 110892515.347 8  86409709.27446  21102145.072    21102135.3794
        48.300          39.1004
 114635233.487 7  89326156.37545  21814352.255    21814346.0794
        45.100          33.2004
 124563004.885 6  97062095.20543  23703539.968    23703538.5394
        40.200          21.5004
 115570993.889 7  90055279.31945  21992433.967    21992429.1394
        47.900          34.8004
 133692281.769 6                  25440745.304
        38.300
 121176117.244 6  94422954.07244  23059047.095    23059044.9054
        41.300          28.8004
 125504812.485 7  97795917.54943  23882778.881    23882771.2404
        42.500          23.4004
 108738314.078 8  84731142.00547  20692210.225    20692205.5734
        51.000          42.9004
 121040505.148 6  94317241.23044  23033255.897    23033255.9344
        40.600          26.7004
 128371974.171 6 100030064.78343  24428382.808    24428379.7394
        36.300          18.6004
 129776131.277 6 101124224.90043  24695576.472    24695568.5384
        41.100          21.1004
 15  9 17  1 17  0.0000000  0 11G22G14G04G16G31G08G18G27G26G21G19
 110948455.974 7  86453299.34246  21112790.048    21112780.5904
        47.300          38.8004
 114602013.068 7  89300270.36745  21808030.703    21808024.9964
        45.000          32.1004
 124510687.790 6  97021328.78843  23693584.932    23693581.9214
        41.700          22.2004
 115634747.765 7  90104957.58545  22004566.080    22004561.0184
        47.100          34.5004
 133678707.896 6                  25438167.546
        37.500
 121083433.805 7  94350733.26744  23041410.313    23041407.2444
        42.700          27.9004
 125588456.251 7  97861094.47444  23898695.578    23898688.4064
        43.000          25.1004
 108691700.773 8  84694819.95647  20683340.398    20683335.2774
        51.900          43.3004
 121129773.477 6  94386800.75344  23050243.605    23050243.5834
        41.100          27.6004
 128403009.798 6 100054248.25743  24434289.584    24434285.5184
        37.200          18.6004
 129680521.498 6 101049723.78243  24677382.956    24677374.4944
        40.300          21.1004
 15  9 17  1 17 30.0000000  0 10G22G14G04G16G08G18G27G26G21G19
 111004630.878 7  86497071.96446  21123479.806    21123470.2314
        47.800          39.2004
 114569213.188 7  89274712.05445  21801788.750    21801783.2784
        44.900          33.0004
 124458367.847 6  96980560.15243  23683628.535    23683625.8764
        41.700          22.9004
 115698817.389 7  90154881.87045  22016758.489    22016753.1924
        47.600          34.9004
 120990855.560 7  94278594.43044  23023792.949    23023789.7044
        42.600          28.3004
 125672075.338 7  97926252.15644  23914607.507    23914600.5694
        42.800          24.6004
 108645473.283 8  84658798.53447  20674543.537    20674538.4744
        51.800          42.9004
 121219095.649 6  94456402.22844  23067241.296    23067241.0404
        41.300          26.7004
 128434076.281 6 100078455.76543  24440203.261    24440197.2614
        37.500          19.3004
 129584887.849 6 100975204.12643  24659184.709    24659176.7744
        41.300          22.5004
 15  9 17  1 18  0.0000000  0 11G22G14G04G16G31G08G18G27G26G21G19
 111061030.205 8  86541019.46446  21134212.552    21134202.8604
        48.100          39.1004
 114536829.008 7  89249477.66945  21795626.461    21795620.6374
        45.100          32.9004
 124406037.879 7  96939783.70243  23673670.669    23673667.4244
        42.400          23.8004
 115763192.675 7  90205044.34245  22029008.824    22029003.2934
        47.600          34.5004
 133650380.373 5                  25432799.928
        31.800
 120898377.907 7  94206533.97144  23006195.739    23006192.3764
        42.700          29.5004
 125755661.208 7  97991383.94744  23930513.995    23930506.5304
        43.600          24.0004
 108599626.771 8  84623073.99047  20665818.900    20665813.7794
        51.100          42.8004
 121308461.632 6  94526037.82444  23084246.548    23084247.9334
        40.500          26.8004
 128465167.746 6 100102682.72343  24446118.561    24446115.5504
        36.700          19.0004
 129489224.759 6 100900661.43343  24640980.074    24640972.8434
        41.300          22.0004
 15  9 17  1 18 30.0000000  0 10G22G14G04G16G08G18G27G26G21G19
 111117662.753 8  86585148.68746  21144988.819    21144979.6544
        48.100          38.8004
 114504873.021 7  89224576.92145  21789545.436    21789539.3784
        45.000          33.3004
 124353707.945 6  96899007.27443  23663711.916    23663709.5504
        41.500          22.6004
 115827881.740 8  90255451.32645  22041318.855    22041313.5004
        48.400          35.1004
 120806014.440 7  94134562.49344  22988619.623    22988616.3784
        42.300          29.7004
 125839223.189 7  98056497.16043  23946415.319    23946407.9134
        43.600          22.5004
 108554174.460 8  84587656.60747  20657169.360    20657163.8294
        51.300          42.6004
 121397879.402 6  94595713.78844  23101261.356    23101263.4454
        39.900          27.6004
 128496296.123 6 100126938.53243  24452042.662    24452038.8894
        37.100          19.0004
 129393545.110 6 100826105.89843  24622772.904    24622765.0294
        40.800          22.2004
 15  9 17  1 19  0.0000000  0 10G22G14G04G16G08G18G27G26G21G19
 111174518.382 8  86629451.75446  21155808.585    21155798.7174
        48.500          38.2004
 114473340.021 7  89200005.79445  21783545.185    21783539.0094
        45.800          34.0004
 124301369.697 7  96858224.37643  23653753.145    23653749.0214
        42.300          22.3004
 115892873.690 8  90306094.31345  22053686.545    22053681.0724
        48.000          34.4004
 120713759.565 7  94062675.64445  22971063.913    22971060.4924
        42.500          30.0004
 125922751.561 7  98121584.11644  23962310.541    23962303.0764
        42.900          25.1004
 108509110.604 8  84552541.91547  20648594.373    20648588.9594
        51.300          42.3004
 121487337.976 6  94665421.54644  23118285.237    23118286.7984
        39.900          26.4004
 128527454.402 6 100151217.60843  24457971.369    24457967.9484
        36.600          19.3004
 129297842.780 6 100751532.62943  24604560.673    24604554.3214
        40.600          22.8004
 15  9 17  1 19 30.0000000  0 10G22G14G04G16G08G18G27G26G21G19
 111231598.577 8  86673929.79846  21166670.984    21166661.2334
        48.300          38.0004
 114442234.820 7  89175768.01945  21777625.984    21777619.6914
        45.800          33.5004
 124249026.028 6  96817437.21843  23643790.892    23643788.8784
        40.500          21.7004
 115958169.058 7  90356973.73545  22066111.627    22066106.3894
        47.500          34.4004
 120621618.761 7  93990877.70745  22953529.937    22953527.6884
        42.400          30.1004
 126006248.179 7  98186646.37443  23978199.807    23978192.1664
        43.600          22.5004
 108464440.971 8  84517734.41947  20640094.068    20640088.5374
        50.300          43.0004
 121576838.042 6  94735161.62044  23135317.189    23135318.4574
        40.800          26.2004
 128558647.333 6 100175523.64943  24463907.415    24463903.1734
        36.200          18.3004
 129202123.033 6 100676945.81443  24586345.305    24586339.4224
        39.200          20.6004
 15  9 17  1 20  0.0000000  0 10G22G14G04G16G08G18G27G26G21G19
 111288899.633 8  86718579.94946  21177574.481    21177564.6714
        48.000          38.3004
 114411558.407 7  89151864.34745  21771788.189    21771781.9554
        45.700          33.6004
 124196675.390 6  96776644.61343  23633829.940    23633826.9884
        41.700          21.7004
 116023763.826 7  90408086.45945  22078594.611    22078588.7284
        47.500          35.5004
 120529593.913 7  93919170.09644  22936018.094    22936014.9084
        42.900          29.7004
 126089710.592 7  98251681.97044  23994080.913    23994075.0894
        43.000          25.7004
 108420166.542 8  84483234.87347  20631668.813    20631663.5754
        51.400          42.6004
 121666375.333 6  94804930.70544  23152356.098    23152357.1904
        40.000          26.5004
 128589874.865 6 100199856.72043  24469850.455    24469846.4484
        37.300          18.3004
 129106386.987 6 100602346.38043  24568128.130    24568121.3684
        39.800          21.1004
 15  9 17  1 20 30.0000000  0 10G22G14G04G16G08G18G27G26G21G19
 111346419.907 7  86763400.90746  21188520.156    21188510.5224
        47.800          38.1004
 114381313.266 7  89128296.74745  21766032.549    21766026.5494
        46.600          33.6004
 124144317.873 6  96735846.69843  23623866.076    23623864.0034
        41.200          23.4004
 116089655.383 7  90459430.43945  22091132.702    22091127.9924
        46.800          34.4004
 120437687.551 7  93847554.82245  22918529.205    22918525.8424
        42.900          30.9004
 126173137.192 7  98316689.69044  24009957.066    24009951.0084
        43.500          25.3004
 108376290.175 8  84449045.50147  20623319.642    20623313.8774
        51.500          42.7004
 121755947.550 6  94874727.01044  23169400.998    23169401.8554
        40.500          26.2004
 128621138.864 6 100224218.14542  24475799.380    24475794.5524
        36.200          17.8004
 129010636.816 6 100527735.83943  24549908.150    24549900.3334
        38.600          21.1004
 15  9 17  1 21  0.0000000  0 10G22G14G04G16G08G18G27G26G21G19
 111404157.010 8  86808390.83446  21199507.578    21199497.8854
        48.700          38.8004
 114351501.313 7  89105066.69745  21760359.879    21760353.5284
        46.600          33.7004
 124091952.860 7  96695042.97144  23613901.603    23613899.2374
        42.900          24.1004
 116155840.767 7  90511003.37645  22103727.721    22103722.3074
        47.700          34.3004
 120345902.164 7  93776033.81544  22901062.445    22901059.3764
        42.600          29.8004
 126256526.919 7  98381668.64043  24025825.547    24025819.1954
        43.400          22.9004
 108332813.945 8  84415167.92647  20615046.696    20615040.8134
        51.600          42.0004
 121845551.673 6  94944548.17544  23186453.047    23186452.9674
        40.900          25.8004
 128652440.142 6 100248608.68742  24481756.268    24481752.4374
        36.100          17.8004
 128914874.158 6 100453115.63443  24531685.125    24531677.3084
        39.200          21.3004
 15  9 17  1 21 30.0000000  0 10G22G14G04G16G08G18G27G26G21G19
 111462109.401 8  86853548.52246  21210535.370    21210526.2644
        48.000          38.6004
 114322125.007 7  89082176.10445  21754768.970    21754763.5564
        46.200          34.5004
 124039580.798 6  96654233.69643  23603935.317    23603933.0684
        41.400          23.3004
 116222317.538 7  90562803.36345  22116378.061    22116372.2964
        47.300          34.3004
 120254240.537 7  93704609.25245  22883620.439    22883616.7834
        43.300          30.3004
 126339878.242 7  98446617.68844  24041686.761    24041681.5234
        43.200          25.6004
 108289740.639 8  84381604.31147  20606849.638    20606843.9894
        51.600          42.1004
 121935185.339 6  95014392.35944  23203508.762    23203510.3234
        40.200          26.3004
 128683780.549 6 100273029.66243  24487719.983    24487716.8554
        36.300          18.6004
 128819101.546 6 100378487.64043  24513460.073    24513452.9014
        39.000          22.3004
 15  9 17  1 22  0.0000000  0 10G22G14G04G16G08G18G27G26G21G19
 111520274.518 8  86898871.96746  21221603.946    21221594.3714
        48.800          38.5004
 114293185.801 7  89059626.11545  21749262.087    21749256.6144
        46.000          34.4004
 123987200.576 6  96613418.07043  23593967.242    23593964.6424
        41.700          23.0004
 116289082.331 7  90614827.78645  22129082.924    22129077.2174
        47.700          33.8004
 120162705.081 7  93633282.99745  22866201.531    22866198.0514
        43.200          30.5004
 126423189.491 7  98511535.49343  24057540.124    24057535.0624
        42.600          22.9004
 108247072.145 8  84348356.14047  20598730.557    20598724.7334
        51.500          43.2004
 122024845.395 6  95084257.09044  23220570.664    23220572.1074
        40.100          24.1004
 128715160.587 5 100297481.59043  24493690.910    24493688.1334
        34.300          19.6004
 128723320.812 6 100303853.28743  24495233.902    24495226.2614
        37.600          22.3004
 15  9 17  1 22 30.0000000  0 10G22G14G04G16G08G18G27G26G21G19
 111578649.994 7  86944359.33046  21232712.659    21232702.4394
        47.600          38.6004
 114264685.529 7  89037418.16545  21743838.912    21743833.0884
        45.800          34.0004
 123934811.745 7  96572595.73344  23583998.195    23583996.0054
        42.600          26.2004
 116356132.034 8  90667074.22245  22141842.284    22141836.6944
        48.100          33.6004
 120071298.232 7  93562056.97045  22848807.578    22848804.2154
        43.100          30.5004
 126506458.878 7  98576420.68644  24073387.620    24073380.8584
        43.400          24.7004
 108204810.474 8  84315424.97347  20590687.347    20590682.8124
        50.900          42.6004
 122114528.612 6  95154139.86444  23237637.124    23237638.1584
        40.600          26.0004
 128746581.427 5 100321965.24143  24499669.561    24499666.7264
        34.200          18.6004
 128627533.458 6 100229213.81643  24477004.571    24476998.1614
        38.300          21.7004
 15  9 17  1 23  0.0000000  0 10G22G14G04G16G08G18G27G26G21G19
 111637233.660 8  86990008.91846  21243860.520    21243850.8864
        48.400          38.8004
 114236626.164 7  89015553.77145  21738499.548    21738493.5484
        47.300          34.0004
 123882413.948 7  96531766.41444  23574027.318    23574024.3664
        42.500          24.3004
 116423463.891 8  90719540.50745  22154655.172    22154649.2894
        48.200          33.3004
 119980022.321 7  93490932.96745  22831438.470    22831434.5804
        43.800          32.5004
 126589685.364 7  98641272.43944  24089224.897    24089218.3114
        43.300          24.7004
 108162957.993 8  84282812.66747  20582723.691    20582718.5124
        51.000          42.8004
 122204232.421 6  95224038.69544  23254707.634    23254708.9614
        40.300          25.8004
 128778044.378 5 100346481.75843  24505657.959    24505654.4794
        35.900          19.9004
 128531741.477 6 100154570.69243  24458776.918    24458770.2744
        38.100          20.6004
 15  9 17  1 23 30.0000000  0 10G22G14G04G16G08G18G27G26G21G19
 111696023.278 8  87035818.98746  21255048.202    21255037.9824
        48.400          38.4004
 114209009.423 7  88994034.26945  21733243.931    21733237.3454
        47.600          34.8004
 123830006.720 6  96490929.72943  23564054.045    23564050.8594
        41.700          22.6004
 116491074.669 7  90772224.16045  22167520.953    22167515.4214
        47.900          33.9004
 119888880.086 7  93419913.10345  22814094.462    22814090.6314
        44.400          31.6004
 126672867.436 7  98706089.58543  24105053.117    24105046.2974
        42.600          22.6004
 108121516.800 8  84250520.84347  20574837.443    20574832.4394
        51.400          43.0004
 122293953.819 6  95293951.22344  23271780.595    23271783.2694
        40.100          24.7004
 128809550.840 6 100371032.12843  24511653.611    24511650.0734
        36.000          19.9004
 128435947.066 6 100079925.74143  24440546.719    24440541.3054
        37.900          20.9004
 15  9 17  1 24  0.0000000  0 10G22G14G04G16G08G18G27G26G21G19
 111755016.558 8  87081787.75946  21266273.897    21266263.9704
        48.100          38.2004
 114181836.734 8  88972860.78545  21728073.077    21728067.2534
        48.200          34.4004
 123777589.456 7  96450085.23944  23554079.135    23554076.7694
        42.400          24.1004
 116558961.312 7  90825122.74945  22180439.365    22180434.5374
        47.200          33.7004
 119797873.595 7  93348999.02745  22796776.644    22796772.9304
        43.700          32.1004
 126756002.885 7  98770870.39043  24120873.159    24120866.1634
        42.200          22.5004
 108080488.908 8  84218551.06047  20567030.046    20567024.9254
        51.300          42.2004
 122383689.805 6  95363875.12144  23288858.555    23288860.6434
        40.400          25.5004
 128841101.563 6 100395617.02743  24517657.500    24517654.6654
        36.800          18.6004
 128340152.005 6 100005280.28143  24422318.292    24422312.6444
        38.200          22.5004
 15  9 17  1 24 30.0000000  0 10G22G14G04G16G08G18G27G26G21G19
 111814211.525 7  87127913.68246  21277538.591    21277528.8404
        47.600          38.8004
 114155110.678 8  88952035.33145  21722987.584    21722981.7604
        48.600          35.7004
 123725162.161 6  96409232.92443  23544102.365    23544100.3504
        40.900          22.9004
 116627121.158 7  90878234.22145  22193410.026    22193405.1984
        47.500          34.1004
 119707005.792 7  93278193.01745  22779484.651    22779481.3474
        43.700          32.6004
 126839090.944 6  98835614.30443  24136684.173    24136677.4114
        41.800          22.0004
 108039876.790 8  84186905.25747  20559302.186    20559296.4794
        51.200          42.4004
 122473437.870 6  95433808.40544  23305936.318    23305938.3474
        40.800          26.8004
 128872697.961 6 100420237.49343  24523671.113    24523667.2814
        36.300          19.0004
 128244358.218 6  99930635.80643  24404089.549    24404083.1974
        39.300          22.3004
 15  9 17  1 25  0.0000000  0 10G22G14G04G16G08G18G27G26G21G19
 111873606.354 8  87174195.33746  21288840.875    21288831.1824
        48.100          38.6004
 114128833.799 8  88931559.90245  21717987.332    21717981.0974
        48.700          35.5004
 123672725.130 6  96368373.02243  23534123.699    23534120.6294
        41.300          22.9004
 116695551.776 7  90931556.67945  22206432.029    22206426.7914
        47.400          34.3004
 119616279.874 7  93207497.55945  22762219.985    22762217.1504
        43.900          32.3004
 126922130.600 6  98900320.48943  24152485.120    24152479.3544
        41.100          22.5004
 107999683.284 8  84155585.64647  20551653.397    20551647.5734
        51.000          42.6004
 122563195.770 6  95503749.39944  23323017.726    23323018.7004
        39.600          24.2004
 128904342.160 5 100444895.21942  24529690.957    24529688.5324
        35.900          17.4004
 128148568.644 6  99855994.60143  24385861.336    24385854.8094
        39.200          22.0004
 15  9 17  1 25 30.0000000  0 10G22G14G04G16G08G18G27G26G21G19
 111933199.189 8  87220631.28946  21300180.967    21300171.5674
        48.700          38.8004
 114103007.562 8  88911435.60945  21713072.253    21713066.3124
        48.000          35.5004
 123620277.656 6  96327504.96643  23524143.887    23524140.7594
        41.400          22.8004
 116764250.208 7  90985087.81945  22219505.006    22219499.4164
        47.600          34.2004
 119525698.036 7  93136914.37045  22744982.877    22744978.9874
        45.400          31.2004
 127005120.058 6  98964987.50343  24168278.489    24168272.1964
        41.600          21.8004
 107959910.298 8  84124593.70647  20544085.141    20544079.0234
        51.300          42.8004
 122652960.519 6  95573695.68943  23340099.845    23340100.1754
        39.900          22.8004
 128936034.738 6 100469590.62443  24535723.610    24535718.7824
        36.600          19.0004
 128052784.967 6  99781358.01043  24367635.041    24367627.4004
        40.400          20.6004
 15  9 17  1 26  0.0000000  0 10G22G14G04G16G08G18G27G26G21G19
 111992986.768 8  87267218.98446  21311557.841    21311548.9694
        48.100          39.0004
 114077632.612 8  88891662.96645  21708243.628    21708237.4524
        48.000          35.2004
 123567818.743 6  96286627.99944  23514160.705    23514157.6364
        41.300          24.2004
 116833212.548 7  91038824.61845  22232628.213    22232622.6234
        47.600          33.6004
 119435262.094 7  93066444.86345  22727773.113    22727770.1034
        44.700          31.9004
 127088057.542 6  99029614.06943  24184061.528    24184054.8244
        41.400          22.9004
 107920559.235 8  84093930.54647  20536596.925    20536590.9844
        51.300          43.2004
 122742728.418 6  95643644.44244  23357180.733    23357182.5284
        39.400          24.7004
 128967776.311 6 100494324.21143  24541763.914    24541759.3204
        36.300          20.4004
 127957008.566 6  99706727.02743  24349410.132    24349401.4944
        40.700          20.9004
 15  9 17  1 26 30.0000000  0 10G22G14G04G16G08G18G27G26G21G19
 112052967.455 7  87313957.16146  21322971.585    21322962.5384
        47.900          38.8004
 114052711.359 7  88872243.87045  21703501.456    21703495.3974
        47.600          35.1004
 123515348.447 7  96245742.17043  23504176.860    23504172.7954
        42.600          23.9004
 116902436.516 8  91092765.27645  22245801.404    22245795.4044
        48.200          33.3004
 119344975.261 7  92996091.55645  22710591.898    22710588.6534
        44.700          32.8004
 127170941.667 6  99094199.06743  24199833.546    24199826.6084
        40.800          22.3004
 107881632.694 8  84063598.18247  20529189.110    20529183.8724
        51.900          43.2004
 122832497.216 6  95713593.90743  23374263.915    23374265.4764
        40.100          22.9004
 128999568.279 6 100519097.09243  24547813.398    24547809.3324
        36.500          19.0004
 127861241.851 6  99632103.65043  24331184.723    24331177.8444
        39.300          22.5004
 15  9 17  1 27  0.0000000  0 10G22G14G04G16G08G18G27G26G21G19
 112113139.030 7  87360844.08946  21334422.512    21334412.4674
        47.800          37.5004
 114028245.123 8  88853179.31345  21698845.858    21698839.8584
        48.800          35.6004
 123462866.198 6  96204847.01343  23494188.389    23494185.8474
        40.900          23.0004
 116971918.699 8  91146907.15445  22259022.990    22259018.0454
        48.300          32.5004
 119254840.105 7  92925856.42645  22693439.850    22693436.5474
        45.200          31.2004
 127253771.058 6  99158741.39343  24215595.010    24215588.4244
        40.100          23.2004
 107843132.678 8  84033598.16347  20521862.801    20521857.2704
        51.300          43.4004
 122922263.945 6  95783541.72944  23391346.269    23391347.8294
        39.600          24.6004
 129031412.036 6 100543910.30943  24553873.322    24553869.7254
        36.900          19.6004
 127765486.787 6  99557489.34843  24312963.333    24312956.4544
        39.600          22.5004
 15  9 17  1 27 30.0000000  0 10G22G14G04G16G08G18G27G26G21G19
 112173499.228 7  87407877.99346  21345908.750    21345899.1164
        47.800          37.7004
 114004236.462 8  88834471.32645  21694276.841    21694271.3094
        48.300          35.9004
 123410372.023 7  96163942.59543  23484198.554    23484196.0124
        42.000          23.5004
 117041656.252 8  91201248.01245  22272293.773    22272288.6524
        48.100          33.4004
 119164859.154 7  92855741.43945  22676316.620    22676313.1994
        45.300          30.9004
 127336544.253 6  99223239.95843  24231346.677    24231340.0324
        40.700          23.3004
 107805061.495 8  84003932.30747  20514618.522    20514612.5804
        51.200          43.1004
 123012026.031 6  95853485.94144  23408427.710    23408429.6814
        40.100          25.4004
 129063308.870 6 100568764.87043  24559943.774    24559939.3574
        37.100          19.6004
 127669745.423 6  99482885.72943  24294743.930    24294737.2274
        38.900          22.0004
 15  9 17  1 28  0.0000000  0 10G22G14G04G16G08G18G27G26G21G19
 112234046.026 8  87455057.28846  21357429.954    21357421.0244
        48.600          37.5004
 113980686.858 8  88816121.05045  21689795.699    21689789.4644
        48.800          35.1004
 123357865.428 7  96123028.48243  23474207.818    23474204.2214
        42.100          22.5004
 117111646.146 7  91255785.49145  22285611.812    22285607.2774
        47.100          31.9004
 119075034.747 7  92785748.44545  22659223.366    22659219.8284
        43.800          31.0004
 127419259.938 6  99287693.68843  24247087.042    24247080.5144
        40.900          22.2004
 107767421.188 8  83974602.20947  20507455.655    20507450.1244
        51.200          43.1004
 123101780.702 6  95923424.35644  23425507.062    23425510.0884
        39.600          24.5004
 129095259.936 6 100593661.70143  24566023.125    24566019.5284
        37.100          20.1004
 127574020.070 6  99408294.56443  24276529.486    24276520.7904
        39.100          22.6004
 15  9 17  1 28 30.0000000  0 10G22G14G04G16G08G18G27G26G21G19
 112294776.492 7  87502379.69246  21368986.438    21368977.3324
        46.700          37.7004
 113957597.179 8  88798129.14445  21685401.308    21685395.6604
        48.000          35.4004
 123305345.412 7  96082103.89243  23464213.546    23464209.1294
        42.500          23.6004
 117181884.728 7  91310516.75145  22298978.493    22298973.3724
        47.500          32.8004
 118985369.041 7  92715879.10045  22642161.120    22642157.4644
        44.600          31.7004
 127501916.171 6  99352101.12443  24262815.904    24262809.0254
        39.800          22.6004
 107730213.058 8  83945608.86047  20500375.348    20500369.1724
        51.600          42.9004
 123191524.277 6  95993354.15544  23442585.585    23442587.9084
        39.700          24.6004
 129127265.539 6 100618601.05243  24572113.587    24572109.6974
        37.300          19.3004
 127478311.819 6  99333716.75543  24258316.369    24258308.3184
        38.600          21.8004
 15  9 17  1 29  0.0000000  0 10G22G14G04G16G08G18G27G26G21G19
 112355690.234 7  87549844.93446  21380578.091    21380569.1614
        47.800          37.8004
 113934970.779 8  88780498.23745  21681096.080    21681089.4944
        49.300          35.7004
 123252813.472 7  96041170.00944  23454217.260    23454213.1944
        43.400          25.4004
 117252370.531 7  91365440.65145  22312390.905    22312386.2534
        47.000          32.7004
 118895866.001 7  92646136.51945  22625128.644    22625125.7504
        43.600          31.0004
 127584513.083 6  99416462.26743  24278534.054    24278527.7024
        40.500          22.5004
 107693440.937 8  83916955.26047  20493377.675    20493372.0854
        51.000          43.8004
 123281255.732 6  96063274.50444  23459660.740    23459664.1174
        39.200          24.6004
 129159328.667 6 100643585.22243  24578215.017    24578210.2484
        36.400          20.1004
 127382624.368 6  99259155.14043  24240107.529    24240099.8884
        39.400          21.7004
 15  9 17  1 29 30.0000000  0 10G22G14G04G16G08G18G27G26G21G19
 112416783.818 7  87597450.30046  21392204.306    21392195.0244
        47.600          38.0004
 113912807.904 8  88763228.51545  21676878.143    21676872.3784
        48.200          35.2004
 123200267.969 7  96000225.57744  23444217.570    23444214.7944
        42.600          24.8004
 117323099.438 7  91420553.97445  22325850.315    22325845.7804
        46.500          32.5004
 118806527.142 7  92576521.90045  22608127.878    22608124.9844
        43.200          30.9004
 127667048.141 6  99480775.25643  24294240.552    24294234.2004
        41.100          22.9004
 107657105.583 8  83888641.98947  20486463.435    20486458.0214
        51.300          43.6004
 123370971.073 6  96133182.24544  23476732.955    23476735.6304
        39.200          24.1004
 129191449.196 6 100668614.11743  24584327.167    24584323.1014
        36.200          18.6004
 127286958.809 6  99184610.55543  24221903.447    24221895.1614
        40.500          22.8004
 15  9 17  1 30  0.0000000  0 10G22G14G04G16G08G18G27G26G21G19
 112478055.477 7  87645194.42946  21403863.447    21403854.4584
        47.200          37.4004
 113891110.620 8  88746321.58745  21672749.419    21672743.3024
        48.300          35.1004
 123147708.936 6  95959270.58144  23434215.397    23434213.3824
        41.500          25.6004
 117394068.970 7  91475854.81945  22339356.224    22339351.1034
        47.500          32.4004
 118717355.414 7  92507037.49945  22591159.944    22591156.0544
        43.600          31.9004
 127749520.143 6  99545039.11443  24309933.282    24309927.8094
        39.900          22.6004
 107621209.569 8  83860671.07247  20479632.695    20479627.3404
        52.100          43.7004
 123460668.033 6  96203075.69943  23493801.722    23493804.3974
        38.900          23.2004
 129223629.082 6 100693689.26343  24590452.257    24590445.9644
        37.900          18.3004
 127191317.694 6  99110085.02243  24203702.069    24203694.7804
        40.100          22.2004
 15  9 17  1 30 30.0000000  0 10G22G14G04G16G08G18G27G26G21G19
 112539502.494 7  87693075.21046  21415556.584    21415547.3604
        47.900          38.0004
 113869880.248 8  88729778.49845  21668709.838    21668703.0764
        48.600          35.5004
 123095135.812 7  95918304.60443  23424212.118    23424208.4044
        43.600          22.3004
 117465275.486 7  91531340.32345  22352906.280    22352900.3394
        46.900          31.1004
 118628353.169 7  92437685.17145  22574222.296    22574219.6954
        42.700          30.9004
 127831927.703 6  99609252.75843  24325615.176    24325609.5274
        39.700          22.6004
 107585754.429 8  83833043.68447  20472885.759    20472880.2284
        51.500          43.6004
 123550343.366 6  96272952.32944  23510867.602    23510869.5734
        39.900          24.5004
 129255869.138 6 100718811.31243  24596586.748    24596581.0414
        37.700          19.3004
 127095702.632 6  99035579.84443  24185507.259    24185500.1454
        39.100          22.5004
 15  9 17  1 31  0.0000000  0 10G22G14G04G16G08G18G27G26G21G19
 112601123.244 8  87741091.35446  21427283.575    21427273.6484
        48.800          38.0004
 113849118.608 8  88713600.65145  21664758.710    21664752.3004
        48.500          35.0004
 123042548.444 7  95877327.52943  23414204.259    23414201.5414
        42.200          23.9004
 117536716.296 7  91587008.38245  22366500.956    22366495.4254
        46.800          31.5004
 118539523.191 7  92368467.08945  22557319.103    22557315.7404
        43.100          31.4004
 127914269.667 6  99673415.30343  24341283.660    24341279.3024
        40.000          22.0004
 107550742.509 8  83805761.67147  20466223.015    20466217.4254
        51.500          43.8004
 123639994.616 6  96342810.16644  23527927.837    23527930.2184
        40.200          24.2004
 129288170.364 5 100743981.04443  24602733.603    24602728.6584
        35.900          18.3004
 127000115.864 6  98961096.67143  24167318.125    24167309.8404
        39.200          22.5004
 15  9 17  1 31 30.0000000  0 10G22G14G04G16G08G18G27G26G21G19
 112662915.776 8  87789241.36046  21439041.768    21439032.3684
        48.400          37.2004
 113828827.929 8  88697789.78245  21660897.674    21660891.2054
        48.200          35.1004
 122989946.980 7  95836339.49243  23404194.072    23404192.2924
        42.100          23.2004
 117608388.745 7  91642856.94245  22380139.828    22380134.2974
        46.400          31.8004
 118450868.246 7  92299385.38445  22540448.083    22540445.6584
        43.400          31.9004
 127996544.539 6  99737525.55943  24356940.419    24356935.4744
        38.900          21.7004
 107516176.098 8  83778826.80847  20459645.745    20459639.9204
        51.500          43.1004
 123729619.380 6  96412647.36543  23544982.431    23544984.9294
        40.500          23.0004
 129320534.393 6 100769199.72442  24608892.239    24608887.6454
        36.700          17.8004
 126904559.748 6  98886637.39043  24149134.479    24149125.9004
        39.900          22.6004
 15  9 17  1 32  0.0000000  0 10G22G14G04G16G08G18G27G26G21G19
 112724877.242 7  87837523.01146  21450832.522    21450823.1824
        47.900          38.0004
 113809008.231 8  88682345.90145  21657125.887    21657119.4774
        48.100          35.3004
 122937330.220 7  95795339.57343  23394183.206    23394178.4374
        44.100          22.8004
 117680288.982 7  91698882.97745  22393821.901    22393816.2524
        46.200          31.9004
 118362390.425 7  92230441.70345  22523611.411    22523608.4594
        43.700          31.8004
 128078750.622 6  99801582.22943  24372584.332    24372578.7424
        40.200          22.2004
 107482056.455 8  83752240.07947  20453152.883    20453146.7074
        51.100          43.5004
 123819214.151 6  96482461.19843  23562032.553    23562034.7594
        40.100          22.6004
 129352961.743 6 100794467.68243  24615062.667    24615058.3664
        36.900          18.3004
 126809036.022 6  98812203.37243  24130956.661    24130948.9034
        39.200          23.6004
 15  9 17  1 32 30.0000000  0 10G22G14G04G16G08G18G27G26G21G19
 112787005.952 7  87885934.97946  21462655.047    21462646.1174
        47.600          37.8004
 113789661.807 8  88667270.81446  21653444.000    21653438.0004
        48.000          36.0004
 122884698.372 7  95754327.81543  23384167.007    23384162.5904
        42.800          22.2004
 117752414.538 7  91755084.60545  22407547.491    22407542.4884
        46.400          32.8004
 118274092.935 7  92161638.51945  22506808.874    22506805.7464
        45.000          32.4004
 128160886.892 6  99865584.51343  24388213.245    24388208.7694
        40.300          22.3004
 107448385.978 8  83726003.34247  20446745.179    20446739.5314
        50.800          43.3004
 123908776.672 6  96552249.88743  23579075.823    23579077.5604
        39.500          22.9004
 129385453.743 6 100819786.07042  24621246.958    24621241.0174
        36.900          17.4004
 126713547.044 6  98737796.43243  24112784.945    24112777.4804
        38.800          22.3004
 15  9 17  1 33  0.0000000  0 10G22G14G04G16G08G18G27G26G21G19
 112849299.341 8  87934475.26046  21474509.097    21474499.7564
        48.400          37.3004
 113770790.053 8  88652565.61345  21649853.290    21649846.9974
        48.100          35.5004
 122832051.101 7  95713304.08144  23374148.232    23374144.5764
        42.400          25.3004
 117824762.015 7  91811459.14345  22421315.010    22421309.6554
        47.300          32.1004
 118185977.463 7  92092977.18345  22490041.269    22490037.7904
        45.300          33.5004
 128242951.610 6  99929531.00643  24403830.364    24403825.3614
        41.600          21.8004
 107415166.312 8  83700117.89747  20440423.617    20440418.3204
        51.100          43.4004
 123998303.882 6  96622011.05343  23596112.658    23596115.8014
        39.000          22.9004
 129418011.340 6 100845155.52942  24627442.297    24627435.4774
        36.300          16.9004
 126618094.635 6  98663417.97444  24094621.714    24094613.4874
        40.800          24.7004
 15  9 17  1 33 30.0000000  0 10G22G14G04G16G08G18G27G26G21G19
 112911755.854 8  87983142.65846  21486394.767    21486384.7814
        48.400          38.0004
 113752394.876 7  88638231.74845  21646352.375    21646346.6684
        47.700          35.0004
 122779388.315 7  95672268.25844  23364126.931    23364122.9824
        42.200          24.8004
 117897328.537 7  91868004.37845  22435123.495    22435118.9604
        46.700          31.7004
 118098047.396 7  92024460.31545  22473308.602    22473305.4164
        45.300          33.3004
 128324944.320 7  99993421.40943  24419432.647    24419428.2894
        42.100          22.6004
 107382400.000 8  83674585.71847  20434188.222    20434182.7494
        50.400          42.9004
 124087793.589 6  96691743.00244  23613141.966    23613145.0504
        39.500          24.2004
 129450636.514 5 100870577.67242  24633650.438    24633644.9654
        35.500          17.4004
 126522681.500 6  98589070.10643  24076464.664    24076457.4334
        40.600          23.6004
 15  9 17  1 34  0.0000000  0 10G22G14G04G16G08G18G27G26G21G19
 112974373.793 8  88031935.84346  21498310.810    21498301.2944
        48.300          38.0004
 113734477.770 8  88624270.40945  21642942.872    21642936.7554
        48.000          35.3004
 122726710.054 7  95631220.39243  23354102.217    23354098.2104
        42.300          23.8004
 117970111.450 7  91924718.21445  22448973.695    22448969.0434
        46.100          32.1004
 118010305.616 7  91956090.15445  22456612.344    22456608.6304
        44.900          33.1004
 128406863.932 7 100057254.85144  24435022.672    24435017.4344
        42.700          25.1004
 107350089.083 8  83649408.39147  20428039.773    20428034.2424
        50.700          43.5004
 124177243.320 6  96761443.80643  23630163.367    23630167.1554
        38.400          22.5004
 129483330.670 5 100896053.53942  24639870.317    24639866.0754
        35.900          17.8004
 126427309.975 6  98514754.67444  24058316.540    24058309.4854
        40.900          24.6004
 15  9 17  1 34 30.0000000  0 10G22G14G04G16G08G18G27G26G21G19
 113037150.599 8  88080852.81546  21510256.758    21510246.7724
        48.700          37.8004
 113717040.268 8  88610682.77345  21639624.837    21639617.8414
        48.400          35.3004
 122674015.989 7  95590160.18644  23344074.734    23344071.8994
        42.800          25.8004
 118043107.702 7  91981598.28545  22462864.770    22462860.2354
        47.200          31.9004
 117922754.805 7  91887868.80245  22439951.488    22439948.1254
        43.700          32.3004
 128488708.882 7 100121030.09644  24450598.069    24450591.6594
        43.100          25.0004
 107318235.441 8  83624587.38247  20421978.424    20421972.7754
        49.300          43.1004
 124266650.307 6  96831111.26444  23647176.709    23647180.9664
        37.700          24.1004
 129516094.842 5 100921583.98043  24646106.444    24646101.4994
        34.600          18.6004
 126331981.825 6  98440473.02144  24040175.262    24040168.3834
        40.200          24.5004
 15  9 17  1 35  0.0000000  0 10G22G14G04G16G08G18G27G26G21G19
 113100083.119 8  88129891.12546  21522232.238    21522222.7214
        48.800          37.5004
 113700082.481 8  88597468.95245  21636398.051    21636391.4064
        48.400          34.5004
 122621304.978 7  95549086.75844  23334044.797    23334040.6724
        43.200          25.6004
 118116313.091 8  92038641.33845  22476795.217    22476790.2724
        48.100          32.1004
 117835396.343 7  91819797.33945  22423327.538    22423324.4684
        43.700          32.1004
 128570476.678 7 100184745.26143  24466156.927    24466150.2234
        42.600          22.2004
 107286839.839 8  83600123.28547  20416003.992    20415998.6954
        50.000          42.9004
 124356010.678 6  96900742.42843  23664182.749    23664185.7754
        38.400          22.6004
 129548929.137 5 100947169.03643  24652354.753    24652351.8594
        35.900          18.6004
 126236698.661 6  98366226.44443  24022043.815    24022036.7604
        40.600          22.5004
 15  9 17  1 35 30.0000000  0 10G22G14G04G16G08G18G27G26G21G19
 113163170.607 7  88179050.17946  21534236.673    21534227.4504
        47.100          37.7004
 113683607.276 8  88584631.17545  21633262.577    21633256.2254
        48.200          35.3004
 122568578.130 6  95508000.99344  23324010.310    23324006.8894
        41.600          26.0004
 118189726.399 8  92095846.38545  22490765.883    22490760.4114
        48.200          32.4004
 117748234.752 7  91751879.28845  22406741.247    22406737.8844
        44.300          31.8004
 128652167.677 7 100248400.54543  24481702.407    24481695.7044
        42.200          22.2004
 107255905.791 8  83576018.85447  20410117.150    20410111.9124
        50.000          43.6004
 124445323.346 6  96970336.43443  23681178.672    23681181.9334
        38.300          22.8004
 129581836.011 5 100972810.63443  24658616.098    24658613.1464
        35.500          19.0004
 126141463.849 6  98292017.53843  24003921.571    24003913.6374
        40.500          22.6004
 15  9 17  1 36  0.0000000  0 10G22G14G04G16G08G18G27G26G21G19
 113226410.099 8  88228327.69046  21546271.623    21546261.8134
        48.000          37.7004
 113667615.359 7  88572169.97145  21630219.260    21630212.7914
        47.800          34.1004
 122515834.276 7  95466901.99844  23313973.514    23313970.2104
        42.300          25.6004
 118263343.347 8  92153210.10445  22504774.607    22504769.8384
        48.000          32.4004
 117661271.353 7  91684115.65145  22390193.302    22390189.7054
        45.700          33.3004
 128733779.677 6 100311994.29143  24497231.965    24497226.6104
        40.400          21.5004
 107225434.052 8  83552274.65747  20404318.690    20404313.2184
        50.000          43.4004
 124534584.695 6  97039890.46043  23698164.230    23698167.2564
        38.000          22.5004
 129614815.885 5 100998509.12643  24664892.345    24664888.7484
        35.700          18.3004
 126046278.710 6  98217847.30844  23985807.704    23985800.4734
        41.400          24.5004
 15  9 17  1 36 30.0000000  0 10G22G14G04G16G08G18G27G26G21G19
 113289800.592 8  88277722.85946  21558334.388    21558324.5784
        48.500          38.2004
 113652108.912 7  88560087.05845  21627268.755    21627262.2864
        47.500          35.1004
 122463074.340 7  95425790.43544  23303933.925    23303930.5044
        42.300          25.6004
 118337161.511 7  92210730.62645  22518821.420    22518817.1784
        46.200          32.0004
 117574509.486 7  91616509.06745  22373682.564    22373679.2604
        45.500          34.3004
 128815312.115 6 100375526.02743  24512746.803    24512742.2104
        40.400          20.6004
 107195427.519 8  83528892.95347  20398608.574    20398603.1604
        50.300          43.8004
 124623792.967 6  97109403.07843  23715139.708    23715143.6134
        36.900          22.5004
 129647870.795 5 101024266.10942  24671182.641    24671179.1614
        35.800          17.8004
 125951146.551 6  98143718.35744  23967704.656    23967697.8354
        41.400          25.1004
 15  9 17  1 37  0.0000000  0 10G22G14G04G16G08G18G27G26G21G19
 113353339.843 7  88327233.94146  21570424.818    21570416.0054
        47.600          38.1004
 113637089.062 7  88548383.30845  21624409.694    21624404.2224
        46.700          34.9004
 122410297.468 7  95384665.68744  23293890.368    23293886.7714
        42.400          25.8004
 118411177.753 7  92268405.49445  22532906.570    22532901.9184
        46.400          31.8004
 117487951.795 7  91549061.57245  22357210.464    22357207.3954
        45.300          33.5004
 128896763.617 6 100438994.70843  24528246.674    24528241.0844
        40.400          19.9004
 107165887.651 8  83505874.89747  20392987.255    20392981.7244
        49.500          43.6004
 124712945.126 6  97178872.01543  23732105.070    23732108.8584
        37.100          22.2004
 129681001.947 5 101050082.51343  24677486.380    24677484.1314
        34.400          18.6004
 125856069.288 6  98069632.19543  23949611.897    23949605.1354
        39.900          23.0004
 15  9 17  1 37 30.0000000  0 10G22G14G04G16G08G18G27G26G21G19
 113417024.745 7  88376858.51246  21582543.822    21582534.0134
        47.000          36.5004
 113622556.226 8  88537059.05845  21621644.902    21621638.7844
        48.200          34.5004
 122357502.828 6  95343527.09344  23283842.774    23283840.4084
        41.300          26.1004
 118485388.185 7  92326231.66745  22547028.085    22547023.9024
        46.000          31.8004
 117401600.071 7  91481774.58145  22340779.263    22340776.4874
        44.700          32.8004
 128978132.106 6 100502398.69043  24543730.399    24543725.3374
        41.500          21.5004
 107136815.546 8  83483221.33247  20387454.814    20387449.6944
        49.200          43.1004
 124802037.921 6  97248294.65243  23749059.825    23749063.4964
        38.500          23.3004
 129714209.646 6 101075958.49943  24683807.190    24683803.4174
        36.100          18.3004
 125761048.200 7  97995589.80244  23931530.625    23931523.7464
        42.100          25.8004
 15  9 17  1 38  0.0000000  0 10G22G14G04G16G08G18G27G26G21G19
 113480853.012 7  88426594.78146  21594690.121    21594680.4284
        47.600          37.5004
 113608511.555 7  88526115.19745  21618972.240    21618965.7714
        47.600          35.0004
 122304690.305 6  95302374.56044  23273793.833    23273790.3534
        41.700          25.6004
 118559789.877 7  92384206.88345  22561185.717    22561182.1794
        45.500          31.5004
 117315456.850 7  91414650.05445  22324386.265    22324383.0204
        45.500          34.1004
 129059416.293 6 100565737.00543  24559198.897    24559193.7174
        41.500          20.9004
 107108212.963 8  83460933.61547  20382011.962    20382006.9584
        49.700          43.5004
 124891068.515 6  97317668.86443  23766002.206    23766006.0534
        38.700          22.8004
 129747494.526 5 101101894.69242  24690140.244    24690136.8824
        34.700          16.9004
 125666085.422 7  97921592.84344  23913459.618    23913452.8564
        43.000          24.9004
 15  9 17  1 38 30.0000000  0 10G22G14G04G16G08G18G27G26G21G19
 113544824.148 7  88476442.39846  21606864.149    21606854.2234
        47.600          37.5004
 113594957.826 8  88515553.88245  21616393.042    21616386.8674
        48.100          35.1004
 122251860.787 6  95261208.83644  23263740.603    23263737.2404
        40.600          25.2004
 118634381.160 7  92442329.84845  22575381.075    22575376.7744
        47.000          31.2004
 117229526.352 7  91347691.27645  22308033.647    22308031.5154
        44.700          34.1004
 129140616.439 6 100629009.83443  24574650.465    24574643.9964
        40.400          19.6004
 107080083.095 8  83439014.24347  20376659.063    20376653.7074
        49.400          43.1004
 124980035.787 6  97386993.69244  23782931.399    23782936.3014
        39.300          26.4004
 129780859.490 5 101127893.27142  24696490.224    24696486.9204
        35.500          17.8004
 125571184.623 7  97847644.19644  23895401.481    23895394.3094
        43.100          25.8004
 15  9 17  1 39  0.0000000  0 10G22G14G04G16G08G18G27G26G21G19
 113608934.496 7  88526398.47746  21619063.440    21619053.6314
        47.300          38.3004
 113581894.407 8  88505374.64245  21613907.315    21613900.4954
        48.400          34.9004
 122199012.810 6  95220028.70344  23253682.542    23253680.1764
        40.500          24.1004
 118709157.456 7  92500596.95845  22589610.795    22589606.6704
        47.400          31.7004
 117143809.625 7  91280899.07845  22291722.348    22291719.9234
        43.900          33.7004
 129221729.641 6 100692214.91543  24590086.486    24590079.9004
        41.100          20.1004
 107052426.212 8  83417463.43247  20371396.372    20371390.9004
        49.600          43.1004
 125068935.592 6  97456265.97444  23799849.542    23799854.1514
        38.900          24.1004
 129814304.225 6 101153954.04742  24702855.893    24702851.1234
        36.200          17.4004
 125476346.481 7  97773744.37444  23877353.786    23877346.8494
        43.000          27.0004
 15  9 17  1 39 30.0000000  0 10G22G14G04G16G08G18G27G26G21G19
 113673182.713 7  88576461.99046  21631289.186    21631280.3724
        47.200          37.0004
 113569323.902 8  88495579.48145  21611514.632    21611508.1634
        48.700          35.6004
 122146147.014 7  95178834.66144  23243623.557    23243619.9604
        42.000          24.7004
 118784116.640 7  92559006.57845  22603875.506    22603870.1514
        47.700          31.7004
 117058310.196 7  91214276.19345  22275452.668    22275449.3064
        44.100          34.3004
 129302755.943 6 100755352.28343  24605505.304    24605497.8394
        40.300          18.3004
 107025244.967 8  83396283.24647  20366224.011    20366218.8324
        49.300          43.6004
 125157766.175 6  97525484.34143  23816754.026    23816758.4004
        38.600          22.8004
 129847830.890 5 101180078.65243  24709233.051    24709230.8024
        34.700          18.3004
 125381574.083 7  97699895.77644  23859319.915    23859312.2154
        43.600          28.5004
 15  9 17  1 40  0.0000000  0 10G22G14G04G16G08G18G27G26G21G19
 113737567.415 7  88626631.86046  21643541.305    21643531.4964
        47.300          37.3004
 113557247.730 8  88486169.52445  21609217.035    21609210.9184
        48.500          35.6004
 122093263.926 7  95137627.16044  23233560.501    23233556.8464
        42.500          26.3004
 118859255.980 7  92617556.57745  22618174.109    22618168.6374
        47.900          31.1004
 116973031.405 7  91147825.22745  22259224.882    22259220.8164
        44.500          33.4004
 129383694.308 6 100818421.10543  24620906.735    24620901.0284
        40.900          20.1004
 106998541.487 8  83375475.34947  20361142.174    20361137.2294
        49.400          44.0004
 125246525.377 6  97594647.04843  23833643.756    23833648.7754
        37.900          22.6004
 129881440.811 5 101206268.10543  24715629.651    24715626.6404
        35.200          19.0004
 125286870.310 7  97626100.65644  23841297.788    23841290.0304
        43.200          27.1004
 15  9 17  1 40 30.0000000  0 10G22G14G04G16G08G18G27G26G21G19
 113802085.758 7  88676905.86846  21655818.527    21655809.3034
        46.900          36.7004
 113545666.578 8  88477145.28645  21607013.709    21607007.0064
        48.700          35.3004
 122040362.504 7  95096405.35544  23223493.459    23223490.3894
        42.200          27.0004
 118934571.877 7  92676244.15545  22632506.258    22632501.0784
        47.100          31.5004
 116887974.884 7  91081547.46645  22243039.086    22243035.1964
        45.100          33.6004
 129464542.925 6 100881420.02243  24636291.969    24636285.2074
        40.800          19.0004
 106972316.934 8  83355040.63347  20356152.121    20356146.7654
        50.500          43.3004
 125335209.956 6  97663751.65543  23850520.098    23850524.3554
        38.900          22.8004
 129915134.670 6 101232523.04542  24722040.677    24722039.0734
        36.000          17.8004
 125192236.672 7  97552360.20544  23823289.810    23823281.9354
        42.800          28.0004
 15  9 17  1 41  0.0000000  0 10G22G14G04G16G08G18G27G26G21G19
 113866735.996 7  88727282.64346  21668121.139    21668112.3264
        47.300          36.7004
 113534581.670 8  88468507.74845  21604903.591    21604897.4154
        48.000          35.6004
 121987442.839 6  95055169.35744  23213423.315    23213419.6604
        41.400          26.5004
 119010061.257 7  92735066.90745  22646871.187    22646866.3594
        46.800          30.0004
 116803143.753 7  91015445.34645  22226896.315    22226892.1324
        43.800          34.0004
 129545300.956 6 100944348.34443  24651659.208    24651653.2084
        41.500          20.6004
 106946573.235 8  83334980.59747  20351252.703    20351247.8754
        49.400          44.0004
 125423817.546 6  97732796.23743  23867382.644    23867386.1984
        38.100          22.8004
 129948913.748 6 101258844.31043  24728469.757    24728466.9224
        36.100          19.0004
 125097675.741 6  97478676.42044  23805294.788    23805287.5574
        41.900          27.3004
 15  9 17  1 41 30.0000000  0 10G22G14G04G16G08G18G27G26G21G19
 113931515.563 7  88777760.19746  21680448.409    21680439.4794
        46.700          36.9004
 113523993.416 7  88460257.20445  21602888.186    21602882.0104
        47.600          35.2004
 121934504.411 7  95013918.72044  23203349.437    23203346.0754
        42.300          27.2004
 119085720.499 7  92794022.02545  22661269.014    22661263.5424
        46.500          32.3004
 116718540.111 7  90949520.49045  22210796.098    22210792.5594
        43.800          33.1004
 129625966.641 6 101007204.67943  24667010.442    24667003.5634
        40.500          20.9004
 106921311.443 8  83315296.07247  20346445.876    20346440.6974
        49.900          44.1004
 125512345.064 6  97801778.41143  23884229.585    23884233.1974
        38.800          22.8004
 129982778.871 6 101285232.64042  24734915.189    24734910.5964
        36.900          17.8004
 125003189.206 6  97405050.60244  23787314.755    23787307.2324
        41.800          27.5004
 15  9 17  1 42  0.0000000  0 10G22G14G04G16G08G18G27G26G21G19
 113996422.704 7  88828337.16046  21692799.942    21692791.3044
        46.900          37.3004
 113513903.910 8  88452395.29445  21600968.991    21600962.2884
        48.700          35.3004
 121881547.622 7  94972653.77744  23193272.875    23193268.5754
        42.100          27.0004
 119161547.161 7  92853107.58945  22675697.636    22675693.5124
        46.900          30.4004
 116634167.101 7  90883775.33945  22194740.300    22194736.3524
        44.100          33.1004
 129706539.481 6 101069988.69743  24682342.176    24682336.0594
        40.500          21.5004
 106896533.868 8  83295988.86747  20341731.158    20341726.2134
        50.200          44.2004
 125600790.499 6  97870696.61443  23901058.932    23901064.0104
        37.600          22.9004
 130016731.711 5 101311689.37443  24741375.238    24741371.5824
        35.900          18.3004
 124908779.958 7  97331485.01244  23769349.361    23769342.2484
        42.500          25.1004
 15  9 17  1 42 30.0000000  0 10G22G14G04G16G08G18G27G26G21G19
 114061455.750 7  88879012.22746  21705175.388    21705166.0474
        46.500          36.9004
 113504314.048 8  88444922.72345  21599144.492    21599137.2034
        48.300          35.8004
 121828572.396 6  94931374.47444  23183190.694    23183187.0394
        40.500          26.8004
 119237538.713 7  92912321.63745  22690158.709    22690154.4084
        46.400          30.7004
 116550027.814 7  90818212.31245  22178729.120    22178725.9334
        45.400          33.8004
 129787018.537 6 101132699.60943  24697657.957    24697650.2574
        40.500          22.8004
 106872242.473 8  83277060.49847  20337108.729    20337103.1394
        50.200          44.0004
 125689151.591 6  97939549.08743  23917873.450    23917879.1134
        38.100          22.6004
 130050773.559 6 101338215.44043  24747853.995    24747849.2264
        36.800          19.0004
 124814450.274 7  97257981.41944  23751399.277    23751392.2804
        43.000          27.6004
 15  9 17  1 43  0.0000000  0 10G22G14G04G16G08G18G27G26G21G19
 114126612.901 7  88929783.99346  21717574.635    21717566.2324
        46.600          37.0004
 113495224.977 7  88437840.36945  21597414.077    21597408.0774
        46.600          34.3004
 121775578.708 6  94890080.78744  23173106.224    23173103.0374
        41.300          26.0004
 119313691.846 7  92971661.57845  22704649.986    22704645.9204
        46.100          30.2004
 116466124.443 7  90752833.09645  22162762.751    22162758.8024
        44.300          33.9004
 129867402.460 6 101195336.36343  24712953.753    24712946.6404
        39.600          20.6004
 106848438.759 8  83258512.12747  20332578.506    20332573.2684
        49.400          43.4004
 125777425.565 6  98008333.70343  23934672.177    23934677.7824
        37.700          22.2004
 130084905.629 5 101364811.79442  24754347.135    24754344.7104
        35.600          17.8004
 124720202.565 7  97184541.69444  23733464.483    23733457.1354
        43.100          27.5004
 15  9 17  1 43 30.0000000  0 10G22G14G04G16G08G18G27G26G21G19
 114191891.012 7  88980650.00746  21729996.328    21729987.8084
        46.500          37.7004
 113486637.139 7  88431148.59145  21595779.069    21595773.8894
        47.200          34.9004
 121722565.692 6  94848772.01844  23163018.096    23163014.9094
        40.900          25.1004
 119390002.549 7  93031124.32345  22719171.497    22719168.0184
        46.400          30.6004
 116382459.056 7  90687639.31745  22146842.183    22146838.0004
        45.000          34.5004
 129947689.530 7 101257897.71943  24728232.813    24728225.5824
        42.400          20.9004
 106825123.563 8  83240344.43847  20328141.802    20328136.5644
        49.900          43.5004
 125865609.218 6  98077047.92043  23951454.278    23951459.1214
        39.300          22.8004
 130119128.354 5 101391478.72942  24760861.097    24760856.4454
        35.500          16.9004
 124626038.437 7  97111167.09444  23715544.940    23715538.2954
        42.300          28.3004
 15  9 17  1 44  0.0000000  0 10G22G14G04G16G08G18G27G26G21G19
 114257289.358 7  89031609.73846  21742441.896    21742431.7344
        46.700          37.0004
 113478552.453 8  88424848.88145  21594240.901    21594234.6664
        48.300          34.6004
 121669534.200 6  94807448.89444  23152926.618    23152923.3734
        40.400          25.6004
 119466469.229 7  93090708.59744  22733722.897    22733719.3004
        46.400          29.3004
 116299035.907 7  90622634.31645  22130967.261    22130963.6064
        45.500          34.9004
 130027879.402 6 101320383.31443  24743491.405    24743484.6434
        40.400          20.4004
 106802299.691 8  83222559.59347  20323798.905    20323793.3744
        50.300          43.2004
 125953701.177 6  98145690.75243  23968216.856    23968222.2854
        38.500          22.5004
 130153443.798 5 101418218.02042  24767389.577    24767387.0354
        34.400          15.6004
 124531961.685 7  97037860.61744  23697643.499    23697635.7994
        43.000          28.5004
 15  9 17  1 44 30.0000000  0 10G22G14G04G16G08G18G27G26G21G19
 114322805.522 7  89082661.27446  21754908.490    21754899.2674
        47.700          36.7004
 113470971.967 7  88418942.07345  21592798.151    21592792.2684
        47.800          34.1004
 121616484.299 6  94766111.39344  23142830.796    23142827.7264
        41.800          26.8004
 119543088.492 7  93150411.76645  22748303.742    22748298.9144
        46.400          30.2004
 116215857.420 7  90557819.98045  22115139.367    22115135.0674
        45.200          34.5004
 130107971.159 6 101382792.48243  24758732.362    24758724.7794
        41.000          19.3004
 106779968.652 8  83205158.78147  20319549.092    20319543.9714
        50.700          44.3004
 126041698.875 6  98214260.12143  23984961.757    23984967.2444
        38.100          21.5004
 130187853.259 5 101445030.56342  24773938.241    24773935.8754
        35.200          17.4004
 124437973.942 7  96964623.49244  23679758.157    23679750.8094
        42.500          27.1004
 15  9 17  1 45  0.0000000  0 10G22G14G04G16G08G18G27G26G21G19
 114388436.618 7  89133802.37046  21767397.880    21767388.5394
        46.900          36.7004
 113463895.517 7  88413428.01245  21591451.362    21591445.5964
        47.500          34.2004
 121563414.619 6  94724758.46744  23132732.358    23132728.8784
        41.800          27.8004
 119619856.093 7  93210230.52244  22762912.536    22762907.4154
        45.900          29.7004
 116132924.777 7  90493197.18845  22099357.376    22099353.0174
        46.000          34.6004
 130187962.656 6 101445123.49043  24773952.955    24773947.5424
        39.900          19.6004
 106758130.774 8  83188142.24147  20315393.601    20315388.8324
        50.300          44.0004
 126129598.572 6  98282753.09243  24001689.178    24001694.3734
        38.600          20.4004
 130222356.613 5 101471916.17343  24780504.749    24780501.7974
        35.600          19.6004
 124344076.716 7  96891456.89944  23661890.787    23661882.4434
        43.000          27.6004
 15  9 17  1 45 30.0000000  0 10G22G14G04G16G08G18G27G26G21G19
 114454181.546 7  89185032.15446  21779908.330    21779899.6924
        46.700          36.9004
 113457324.841 8  88408308.04145  21590201.672    21590195.9654
        48.400          34.7004
 121510325.947 7  94683390.75744  23122630.234    23122626.9314
        42.300          29.6004
 119696769.995 7  93270163.27444  22777548.110    22777544.3374
        45.700          29.3004
 116050241.835 7  90428768.97445  22083623.138    22083619.1314
        44.700          34.1004
 130267853.283 6 101507375.90543  24789155.914    24789149.7974
        40.400          19.3004
 106736788.564 8  83171511.94147  20311332.482    20311327.2444
        50.000          43.8004
 126217398.708 6  98351168.53343  24018397.673    24018401.8724
        38.400          20.1004
 130256955.941 5 101498876.60043  24787088.134    24787085.2994
        34.700          18.3004
 124250273.050 7  96818363.20544  23644040.118    23644031.6564
        43.300          26.8004
 15  9 17  1 46  0.0000000  0 10G22G14G04G16G08G18G27G26G21G19
 114520038.414 7  89236349.16846  21792441.226    21792431.1824
        47.100          36.6004
 113451261.194 7  88403583.17545  21589048.071    21589041.4854
        47.800          34.9004
 121457218.627 7  94642008.51244  23112524.212    23112520.4974
        43.300          28.7004
 119773827.564 7  93330207.99244  22792211.581    22792207.5744
        45.100          28.5004
 115967811.418 7  90364537.52645  22067936.954    22067933.7674
        44.700          34.6004
 130347642.741 6 101569549.50843  24804340.412    24804333.4164
        41.100          19.0004
 106715943.892 8  83155269.33947  20307366.246    20307360.5984
        51.000          44.2004
 126305097.104 6  98419504.67443  24035085.478    24035089.9694
        38.300          22.0004
 130291652.833 5 101525913.03542  24793691.092    24793688.5504
        35.900          17.8004
 124156565.714 7  96745344.57444  23626207.667    23626199.9084
        42.600          27.3004
 15  9 17  1 46 30.0000000  0 10G22G14G04G16G08G18G27G26G21G19
 114586005.022 7  89287751.69446  21804994.040    21804984.1134
        46.600          36.4004
 113445704.790 8  88399253.54245  21587990.433    21587984.0234
        48.500          35.2004
 121404091.890 7  94600611.14944  23102414.121    23102411.3444
        42.100          28.7004
 119851025.033 7  93390361.70144  22806902.417    22806897.7064
        45.100          29.4004
 115885635.479 7  90300504.38545  22052298.720    22052295.3584
        44.900          34.0004
 130427328.952 6 101631642.63043  24819502.857    24819497.1504
        40.300          18.6004
 106695597.540 8  83139415.02947  20303494.273    20303488.6844
        50.900          44.3004
 126392690.550 6  98487759.01343  24051755.651    24051759.7324
        39.400          21.8004
 130326447.591 6 101553025.75443  24800311.941    24800309.2824
        36.800          19.3004
 124062956.412 6  96672402.32944  23608394.227    23608386.1174
        40.600          25.8004
 15  9 17  1 47  0.0000000  0 10G22G14G04G16G08G18G27G26G21G19
 114652079.174 7  89339238.04046  21817567.563    21817557.7534
        47.300          36.2004
 113440656.859 7  88395320.13245  21587029.534    21587023.6524
        47.600          35.5004
 121350945.861 7  94559198.74844  23092301.165    23092297.0414
        43.300          28.6004
 119928359.460 7  93450622.12944  22821619.533    22821614.6474
        45.600          29.3004
 115803717.198 7  90236672.01145  22036710.899    22036707.3614
        45.000          35.1004
 130506911.116 6 101693654.69543  24834648.962    24834641.3214
        39.800          20.1004
 106675751.291 8  83123950.41447  20299717.357    20299712.1194
        50.400          43.9004
 126480176.880 6  98555929.87743  24068404.001    24068407.7894
        39.200          22.0004
 130361341.775 5 101580215.90443  24806952.140    24806950.0674
        34.700          18.3004
 123969447.684 6  96599538.45644  23590600.606    23590591.9694
        41.800          27.2004
 15  9 17  1 47 30.0000000  0 10G22G14G04G16G08G18G27G26G21G19
 114718258.648 7  89390806.44546  21830161.330    21830151.6374
        47.900          37.4004
 113436117.620 8  88391783.10745  21586166.208    21586159.5054
        48.400          34.8004
 121297780.377 7  94517771.17544  23082183.585    23082180.3404
        43.500          27.9004
 120005827.329 7  93510986.53045  22836360.787    22836356.3704
        45.900          30.2004
 115722058.924 7  90173042.25745  22021171.498    22021168.3704
        45.100          35.0004
 130586388.294 6 101755584.92843  24849772.277    24849765.3394
        41.300          18.6004
 106656406.314 8  83108876.39647  20296036.468    20296031.1714
        50.400          44.0004
 126567553.367 6  98624015.20243  24085030.067    24085035.0274
        38.300          22.2004
 130396336.100 5 101607484.13142  24813611.024    24813609.0684
        32.300          14.8004
 123876041.520 7  96526754.48844  23572825.590    23572817.5394
        43.000          26.9004
 15  9 17  1 48  0.0000000  0 10G22G14G04G16G08G18G27G26G21G19
 114784542.435 8  89442456.11446  21842775.008    21842765.0814
        48.800          36.9004
 113432089.154 7  88388644.08445  21585399.241    21585393.1834
        47.000          34.6004
 121244596.179 7  94476329.04244  23072063.358    23072059.2924
        43.100          28.5004
 120083426.871 7  93571453.53445  22851127.748    22851123.4484
        46.400          30.2004
 115640664.054 7  90109617.73546  22005683.254    22005679.3054
        46.800          36.0004
 130665760.005 6 101817433.00743  24864876.799    24864869.9784
        41.400          21.1004
 106637565.050 8  83094194.89647  20292451.422    20292445.8324
        51.200          44.4004
 126654818.457 6  98692013.71743  24101636.285    24101641.6554
        36.600          20.6004
 130431432.541 5 101634831.85742  24820290.458    24820287.9164
        33.900          17.4004
 123782741.443 7  96454053.17144  23555070.891    23555062.6644
        42.300          27.0004
 15  9 17  1 48 30.0000000  0 10G22G14G04G16G08G18G27G26G21G19
 114850928.637 8  89494185.59446  21855407.424    21855397.7904
        48.700          36.8004
 113428572.099 7  88385903.56345  21584729.772    21584723.5384
        47.800          35.4004
 121191393.037 7  94434872.14544  23061938.417    23061935.0544
        42.800          27.3004
 120161154.763 7  93632020.54944  22865918.860    22865914.8524
        46.600          29.9004
 115559535.290 7  90046400.56446  21990244.971    21990240.7874
        47.800          36.0004
 130745025.139 6 101879198.03043  24879959.255    24879954.0174
        39.800          19.6004
 106619228.688 8  83079906.81947  20288961.783    20288956.4284
        52.100          44.0004
 126741969.487 6  98759923.35643  24118221.623    24118225.3524
        38.300          21.1004
 130466632.795 5 101662260.53142  24826988.388    24826985.9634
        33.700          16.3004
 123689549.544 7  96381436.16944  23537336.567    23537328.7504
        42.900          27.4004
 15  9 17  1 49  0.0000000  0 10G22G14G04G16G08G18G27G26G21G19
 114917414.150 8  89545992.48246  21868059.281    21868049.5894
        48.000          36.5004
 113425566.436 7  88383561.50545  21584158.342    21584152.0484
        45.700          34.8004
 121138170.448 7  94393400.09944  23051811.075    23051807.1274
        43.200          27.1004
 120239006.988 7  93692684.44545  22880733.535    22880729.6454
        46.400          30.1004
 115478674.668 7  89983392.32845  21974857.060    21974853.2874
        47.700          35.0004
 130824181.635 6 101940878.42343  24895021.680    24895016.9104
        39.100          20.1004
 106601397.847 8  83066012.66147  20285568.997    20285563.7014
        51.300          44.6004
 126829003.210 6  98827741.55643  24134784.238    24134787.7924
        37.700          21.1004
 130501936.062 5 101689769.43742  24833707.506    24833704.7304
        34.600          16.9004
 123596467.431 7  96308904.72144  23519622.930    23519616.1104
        43.100          29.1004
 15  9 17  1 49 30.0000000  0 10G22G14G04G16G08G18G27G26G21G19
 114983997.737 7  89597875.76645  21880729.618    21880719.9254
        47.600          35.6004
 113423073.577 7  88381619.04945  21583683.511    21583677.1604
        46.800          34.9004
 121084928.668 7  94351913.10144  23041679.133    23041675.8884
        43.600          28.7004
 120316981.396 7  93753443.55644  22895571.989    22895567.7474
        46.300          29.4004
 115398084.949 7  89920595.19845  21959521.435    21959518.0144
        47.000          35.0004
 130903229.264 6 102002473.97342  24910063.380    24910059.7244
        38.100          17.8004
 106584074.505 8  83052513.93847  20282271.637    20282267.0434
        50.900          44.0004
 126915917.871 6  98895466.99543  24151323.763    24151326.6724
        38.600          21.3004
 130537344.752 5 101717360.43842  24840445.806    24840442.9124
        34.300          16.3004
 123503497.962 7  96236461.04244  23501932.051    23501924.8794
        43.900          29.3004
 15  9 17  1 50  0.0000000  0 10G22G14G04G16G08G18G27G26G21G19
 115050677.369 7  89649833.89346  21893418.708    21893408.6644
        47.500          36.0004
 113421093.957 7  88380076.52145  21583307.197    21583300.6114
        46.100          35.1004
 121031667.605 7  94310411.05244  23031543.991    23031539.8664
        45.300          27.6004
 120395074.678 7  93814295.30044  22910432.608    22910428.8354
        46.100          29.9004
 115317768.914 7  89858011.30145  21944237.794    21944233.7874
        46.300          35.1004
 130982167.180 6 102063984.03543  24925084.404    24925080.9244
        38.700          18.3004
 106567259.918 8  83039411.65947  20279072.012    20279067.0674
        51.100          44.0004
 127002710.832 6  98963097.60643  24167839.968    24167843.7564
        38.100          22.3004
 130572859.537 5 101745034.23542  24847202.845    24847201.2994
        33.200          16.9004
 123410643.425 7  96164106.90644  23484262.721    23484254.5524
        44.000          27.9004
 15  9 17  1 50 30.0000000  0 10G22G14G04G16G08G18G27G26G21G19
 115117450.431 7  89701864.84445  21906125.224    21906115.5914
        47.500          35.9004
 113419627.333 7  88378933.73045  21583027.666    21583021.2564
        47.900          34.8004
 120978386.453 7  94268893.35044  23021404.929    23021400.5704
        43.800          28.7004
 120473282.788 7  93875236.52044  22925315.855    22925310.9104
        46.400          29.3004
 115237728.563 7  89795642.23745  21929007.105    21929003.0984
        47.200          35.5004
 131060993.598 6 102125407.29242  24940087.207    24940080.7974
        40.200          17.8004
 106550954.526 8  83026706.14947  20275969.722    20275964.1324
        51.500          44.0004
 127089378.761 6  99030630.80743  24184332.546    24184337.2134
        38.100          21.8004
 130608480.955 5 101772791.04042  24853981.982    24853979.7344
        35.600          16.9004
 123317905.455 7  96091843.61044  23466615.188    23466607.4894
        43.400          28.8004
 15  9 17  1 51  0.0000000  0 10G22G14G04G16G08G18G27G26G21G19
 115184315.375 7  89753967.36246  21918849.171    21918839.7134
        47.200          36.5004
 113418675.676 7  88378192.19745  21582846.889    21582840.0104
        47.500          35.1004
 120925086.260 6  94227360.84844  23011261.441    23011258.1954
        41.700          27.7004
 120551603.666 7  93936265.58944  22940219.750    22940214.6294
        46.400          27.5004
 115157967.484 7  89733490.77745  21913828.425    21913824.9464
        45.600          34.9004
 131139708.092 6 102186743.25743  24955064.325    24955059.4974
        38.400          18.3004
 106535160.714 8  83014399.27547  20272964.163    20272958.5734
        51.500          43.6004
 127175920.475 6  99098065.66943  24200800.832    24200806.0854
        37.600          21.1004
 130644211.113 6 101800632.57642  24860781.898    24860778.3014
        36.300          17.4004
 123225287.421 7  96019673.78644  23448990.922    23448983.3984
        43.600          27.9004
 15  9 17  1 51 30.0000000  0 10G22G14G04G16G08G18G27G26G21G19
 115251270.693 7  89806140.32846  21931589.744    21931580.5794
        47.400          36.0004
 113418239.149 8  88377852.07245  21582763.708    21582757.3574
        48.100          34.9004
 120871767.121 7  94185813.56344  23001115.542    23001112.2384
        44.300          28.5004
 120630034.594 7  93997380.41344  22955144.315    22955140.2494
        45.800          28.4004
 115078488.130 7  89671558.87045  21898704.055    21898700.6334
        46.300          35.3004
 131218309.679 6 102247991.21342  24970022.812    24970015.8164
        38.700          17.4004
 106519879.772 8  83002492.03547  20270056.288    20270050.4644
        51.300          43.9004
 127262333.423 5  99165400.16743  24217243.138    24217249.7394
        35.400          19.3004
 130680050.943 6 101828559.62942  24867603.368    24867597.8954
        37.000          17.4004
 123132791.823 7  95947599.35944  23431389.308    23431381.2574
        44.300          27.8004
 15  9 17  1 52  0.0000000  0 10G22G14G04G16G08G18G27G26G21G19
 115318315.193 8  89858382.77245  21944348.549    21944338.3294
        48.100          35.3004
 113418319.520 8  88377914.72245  21582778.632    21582772.2804
        48.600          34.7004
 120818429.884 7  94144252.18744  22990964.759    22990961.5144
        42.900          27.9004
 120708573.131 7  94058579.09144  22970090.523    22970085.4614
        47.000          28.1004
 114999294.243 7  89609849.39146  21883633.959    21883630.3034
        45.600          36.2004
 131296797.966 6 102309150.96443  24984958.573    24984951.6364
        39.200          18.3004
 106505113.816 8  82990986.08647  20267246.024    20267240.4934
        51.300          44.1004
 127348616.136 5  99232633.24443  24233663.219    24233669.5864
        35.200          19.3004
 130716002.425 5 101856573.63842  24874442.860    24874440.6704
        34.200          16.3004
 123040421.779 7  95875622.73544  23413811.393    23413803.7524
        44.500          28.5004
 15  9 17  1 52 30.0000000  0 10G22G14G04G16G08G18G27G26G21G19
 115385445.936 8  89910692.42745  21957123.457    21957113.1204
        48.400          35.3004
 113418916.479 7  88378379.91145  21582892.629    21582885.6334
        47.700          35.6004
 120765073.246 7  94102675.68044  22980811.514    22980808.0934
        43.200          29.9004
 120787215.067 7  94119858.33044  22985054.694    22985051.0974
        45.900          29.1004
 114920387.230 7  89548363.43046  21868618.554    21868614.7814
        46.400          36.4004
 131375171.264 6 102370221.10742  24999872.288    24999865.8774
        38.600          17.4004
 106490863.102 8  82979881.62647  20264534.287    20264529.1664
        51.900          43.5004
 127434765.085 6  99299762.04443  24250056.393    24250063.5214
        36.100          19.0004
 130752066.277 5 101884675.25442  24881305.825    24881304.4554
        33.400          16.3004
 122948178.567 7  95803744.97244  23396257.914    23396251.0944
        44.600          28.8004
 15  9 17  1 53  0.0000000  0 10G22G14G04G16G08G18G27G26G21G19
 115452661.911 7  89963068.48745  21969913.716    21969904.3164
        47.900          35.6004
 113420031.388 8  88379248.69846  21583104.859    21583098.4484
        48.600          36.3004
 120711698.329 7  94061084.94144  22970655.086    22970651.7834
        42.600          28.2004
 120865958.388 7  94181216.56644  23000039.153    23000036.2594
        44.700          28.5004
 114841770.813 7  89487103.91645  21853657.615    21853654.5454
        45.300          35.8004
 131453429.328 6 102431201.42642  25014764.360    25014758.0674
        37.300          16.9004
 106477129.622 8  82969180.21347  20261920.979    20261915.9754
        51.900          44.1004
 127520778.798 6  99366785.48743  24266425.798    24266431.3454
        36.900          19.3004
 130788243.417 5 101912865.12942  24888189.963    24888188.3594
        34.400          15.6004
 122856065.441 7  95731968.54744  23378729.475    23378722.3024
        44.100          28.4004
 15  9 17  1 53 30.0000000  0 10G22G14G04G16G08G18G27G26G21G19
 115519960.139 7  90015508.63646  21982719.956    21982710.9094
        47.900          36.5004
 113421663.627 7  88380520.59046  21583415.673    21583409.2044
        45.900          36.5004
 120658304.253 7  94019479.27144  22960494.050    22960490.5114
        44.100          28.6004
 120944799.141 7  94242650.72644  23015042.030    23015039.3124
        44.700          28.1004
 114763446.620 7  89426072.11445  21838753.588    21838749.9334
        45.400          35.5004
 131531570.469 6 102492090.67443  25029635.337    25029628.2824
        37.600          18.3004
 106463913.800 8  82958882.16247  20259406.206    20259400.9674
        51.800          44.8004
 127606654.150 6  99433701.13643  24282768.236    24282773.3134
        37.000          18.6004
 130824534.189 5 101941143.53142  24895095.810    24895094.9094
        33.200          14.8004
 122764084.180 7  95660294.89044  23361225.648    23361218.7104
        43.200          29.1004
 15  9 17  1 54  0.0000000  0 11G22G14G04G16G11G08G18G27G26G21G19
 115587339.650 7  90068012.13645  21995542.189    21995532.4974
        47.500          35.5004
 113423814.661 7  88382196.75045  21583824.537    21583818.4794
        46.800          35.5004
 120604891.611 7  93977859.12844  22950330.255    22950326.5414
        42.900          27.1004
 121023734.826 7  94304158.85544  23030063.629    23030060.6184
        42.800          28.9004
 128699594.372 6                  24490718.496
        41.300
 114685418.023 7  89365270.64845  21823905.255    21823901.3654
        46.200          35.5004
 131609594.433 6 102552888.64543  25044481.801    25044474.8634
        37.100          18.3004
 106451217.363 8  82948988.82447  20256990.532    20256985.0604
        51.600          44.9004
 127692389.209 6  99500507.39842  24299082.725    24299087.8614
        37.100          17.8004
 130860940.428 5 101969511.99042  24902022.802    24902022.6054
        32.800          16.9004
 122672237.680 7  95588726.23344  23343747.929    23343741.3434
        43.600          29.0004
 15  9 17  1 54 30.0000000  0 11G22G14G04G16G11G08G18G27G26G21G19
 115654799.136 7  90120577.95545  22008379.691    22008369.5884
        47.900          35.1004
 113426485.843 7  88384278.22045  21584333.051    21584326.5234
        46.600          35.9004
 120551461.426 7  93936225.28944  22940162.477    22940159.6424
        42.500          27.4004
 121102763.535 7  94365739.46344  23045102.349    23045099.4564
        43.100          29.6004
 128615636.515 6 100219960.37243  24474742.276    24474737.9174
        40.100          19.0004
 114607688.447 7  89304702.18546  21809113.303    21809110.1754
        46.500          36.0004
 131687501.195 6 102613595.23642  25059307.252    25059300.4314
        37.800          17.4004
 106439042.519 8  82939501.92247  20254673.596    20254668.3584
        51.900          44.6004
 127777982.608 6  99567203.34642  24315370.190    24315375.8534
        36.000          17.8004
 130897464.649 5 101997972.30442  24908975.129    24908973.0564
        34.100          16.3004
 122580529.243 7  95517265.18445  23326296.678    23326290.2684
        43.500          30.0004
 15  9 17  1 55  0.0000000  0 11G22G14G04G16G11G08G03G27G26G21G19
 115722330.432 7  90173199.72945  22021229.829    22021220.0784
        47.400          35.4004
 113429671.386 8  88386760.49045  21584939.121    21584932.4764
        48.300          35.7004
 120498007.487 7  93894572.95244  22929990.841    22929986.3064
        43.200          27.3004
 121181875.673 7  94427385.08144  23060157.349    23060154.3964
        43.900          28.7004
 128531604.352 6 100154480.81843  24458751.785    24458746.7234
        40.800          19.6004
 114530254.310 7  89244363.93445  21794377.853    21794374.0804
        47.100          35.5004
 130442770.308 6 101643746.45243  24822433.931    24822441.0014
        39.400          19.6004
 106427383.951 8  82930417.31947  20252455.067    20252449.4194
        51.700          44.4004
 127863425.749 5  99633782.23542  24331628.813    24331635.0044
        35.200          15.6004
 130934101.176 5 102026520.17542  24915946.849    24915944.1314
        35.000          17.8004
 122488955.062 7  95445908.73945  23308870.765    23308863.8274
        42.800          30.0004
 15  9 17  1 55 30.0000000  0 11G22G14G04G16G11G08G03G27G26G21G19
 115789935.700 7  90225879.13945  22034094.697    22034085.2984
        47.600          35.4004
 113433375.451 8  88389646.81146  21585644.384    21585637.5054
        49.300          36.2004
 120444533.961 7  93852905.34844  22919815.282    22919810.4554
        43.200          26.9004
 121261072.177 7  94489096.44444  23075228.007    23075224.6454
        43.000          28.8004
 128447502.712 6 100088947.16943  24442747.125    24442743.1184
        37.900          19.6004
 114453122.074 8  89184260.95245  21779700.293    21779696.9894
        48.200          35.7004
 130367078.758 6 101584765.91743  24808030.431    24808038.2054
        38.900          19.6004
 106416246.818 8  82921739.02247  20250335.508    20250330.1534
        51.300          44.0004
 127948720.178 6  99700245.18142  24347861.826    24347866.9034
        36.300          17.4004
 130970854.762 5 102055159.29842  24922940.638    24922936.9824
        34.600          17.4004
 122397521.611 6  95374661.96045  23291470.345    23291464.1104
        41.600          30.2004
 15  9 17  1 56  0.0000000  0 11G22G14G04G16G11G08G03G27G26G21G19
 115857620.334 7  90278620.38445  22046974.603    22046964.6764
        47.400          35.3004
 113437606.006 8  88392943.38245  21586448.963    21586442.5524
        48.000          35.6004
 120391048.211 6  93811228.22144  22909636.602    22909632.8884
        41.900          27.3004
 121340357.293 7  94550876.87244  23090315.773    23090312.1184
        43.000          27.4004
 128363339.564 6 100023365.60243  24426731.503    24426726.2654
        36.900          18.3004
 114376302.056 7  89124401.24245  21765082.315    21765078.4844
        47.000          35.6004
 130291620.007 6 101525966.81843  24793671.210    24793678.1634
        39.100          20.1004
 106405639.657 8  82913473.69447  20248317.061    20248311.7064
        50.200          44.7004
 128033871.166 6  99766596.39742  24364064.908    24364071.0404
        36.800          17.4004
 131007734.159 5 102083896.36642  24929958.094    24929956.0214
        35.200          16.3004
 122306238.510 7  95303532.34144  23274099.806    23274093.1034
        42.700          28.7004
 15  9 17  1 56 30.0000000  0 11G22G14G04G16G11G08G03G27G26G21G19
 115925377.286 7  90331417.99645  22059868.330    22059858.8724
        47.600          35.3004
 113442358.160 7  88396646.37345  21587353.299    21587347.0654
        47.000          35.9004
 120337544.908 7  93769537.44844  22899455.419    22899451.1184
        42.700          27.5004
 121419722.797 7  94612719.90144  23105418.831    23105414.4724
        42.300          28.6004
 128279110.339 5  99957732.57342  24410702.400    24410697.4554
        34.300          14.8004
 114299791.234 8  89064782.46446  21750523.093    21750519.3784
        48.200          36.8004
 130216389.359 6 101467345.44943  24779354.845    24779363.0874
        38.200          21.1004
 106395558.183 8  82905618.00047  20246398.894    20246393.3634
        51.100          44.2004
 128118870.819 5  99832829.71042  24380239.454    24380245.4104
        33.800          16.3004
 131044735.206 5 102112728.32442  24936999.743    24936996.2054
        34.600          16.3004
 122215102.821 7  95232517.56844  23256757.894    23256751.2494
        42.300          28.6004
 15  9 17  1 57  0.0000000  0 11G22G14G04G16G11G08G03G27G26G21G19
 115993203.574 7  90384269.63045  22072774.943    22072765.2504
        47.800          34.3004
 113447631.176 7  88400755.24645  21588356.607    21588350.4324
        47.200          35.5004
 120284023.230 7  93727832.31144  22889270.970    22889266.2594
        42.600          28.0004
 121499164.989 7  94674622.69944  23120536.155    23120532.1484
        42.800          28.5004
 128194815.150 5  99892048.10642  24394661.335    24394656.3314
        34.100          14.8004
 114223591.291 7  89005405.92446  21736022.307    21736018.8274
        47.000          36.9004
 130141386.429 6 101408901.60343  24765083.994    24765090.4204
        37.700          22.0004
 106386002.381 8  82898171.91447  20244580.215    20244575.0944
        50.700          44.5004
 128203715.895 5  99898942.56542  24396385.950    24396391.4964
        33.400          15.6004
 131081858.358 5 102141655.43342  24944065.084    24944061.1944
        35.900          17.4004
 122124116.190 7  95161618.95944  23239443.763    23239436.0634
        42.100          28.7004
 15  9 17  1 57 30.0000000  0 11G22G14G04G16G11G08G03G27G26G21G19
 116061097.063 7  90437173.62345  22085694.717    22085685.2594
        46.500          34.8004
 113453425.291 7  88405270.17645  21589458.933    21589452.6994
        46.500          35.5004
 120230483.012 7  93686112.73744  22879081.674    22879077.6084
        43.000          26.2004
 121578680.530 7  94736582.64944  23135667.157    23135663.7944
        42.200          27.4004
 128110454.286 5  99826312.59542  24378608.202    24378602.6714
        35.000          16.3004
 114147704.551 7  88946273.46846  21721581.584    21721578.1634
        47.800          37.7004
 130066611.454 6 101350635.37643  24750853.748    24750861.2874
        36.800          21.1004
 106376973.075 8  82891136.08547  20242862.050    20242856.4024
        51.500          44.1004
 128288403.968 5  99964933.12342  24412501.614    24412507.6884
        34.200          16.3004
 131119103.773 5 102170677.75342  24951151.566    24951148.4974
        33.800          16.9004
 122033280.725 7  95090838.12645  23222158.403    23222150.9964
        43.200          30.3004
 15  9 17  1 58  0.0000000  0 11G22G14G04G16G11G08G03G27G26G21G19
 116129057.170 7  90490129.52745  22098627.000    22098618.0114
        46.400          35.2004
 113459741.780 7  88410192.13746  21590660.584    21590654.5264
        46.700          36.0004
 120176925.446 6  93644379.65544  22868890.581    22868885.9294
        41.600          25.3004
 121658267.516 7  94798598.28344  23150812.106    23150809.0954
        44.100          26.9004
 128026029.994 6  99760527.44942  24362543.441    24362537.0904
        36.800          17.4004
 114072135.234 8  88887388.33346  21707201.294    21707196.9354
        49.000          37.4004
 129992066.303 6 101292548.22543  24736668.130    24736674.6144
        37.200          20.4004
 106368472.480 8  82884512.23647  20241244.388    20241239.5604
        51.800          44.6004
 128372933.824 5 100030800.36242  24428587.778    24428593.2654
        33.400          16.9004
 131156473.728 5 102199797.19842  24958262.376    24958260.7724
        33.400          15.6004
 121942600.237 7  95020178.06444  23204902.932    23204895.7604
        43.000          29.4004
 15  9 17  1 58 30.0000000  0 11G22G14G04G16G11G08G03G27G26G21G19
 116197081.809 7  90543135.71745  22111571.945    22111562.8394
        46.800          35.6004
 113466581.075 7  88415521.48545  21591962.134    21591956.1934
        45.800          35.0004
 120123351.030 7  93602633.43444  22858695.915    22858691.3804
        43.500          28.7004
 121737922.618 7  94860666.98444  23165970.780    23165967.4764
        44.100          28.4004
 127941542.700 6  99694693.31642  24346466.510    24346459.5724
        37.900          16.9004
 113996885.684 8  88828752.37146  21692881.324    21692877.1414
        48.800          36.4004
 129917751.618 6 101234640.69943  24722526.520    24722532.7114
        37.300          19.3004
 106360501.675 8  82878301.22047  20239727.703    20239722.8754
        51.900          44.5004
 128457303.353 5 100096542.61742  24444642.537    24444647.5564
        30.800          16.3004
 131193968.887 5 102229014.10142  24965399.562    24965395.7314
        34.600          17.4004
 121852076.953 7  94949640.52145  23187675.894    23187669.4254
        42.500          31.1004
 15  9 17  1 59  0.0000000  0 11G22G14G04G16G11G08G03G27G26G21G19
 116265168.225 7  90596190.03445  22124528.663    22124519.3234
        47.200          35.4004
 113473942.618 7  88421257.77645  21593362.994    21593356.6424
        46.700          35.2004
 120069758.836 7  93560873.35144  22848497.702    22848493.4604
        42.500          26.9004
 121817641.805 7  94922785.59044  23181141.126    23181137.8224
        44.700          26.9004
 127856992.366 6  99628809.98542  24330376.663    24330370.8394
        37.600          16.9004
 113921957.722 8  88770367.00446  21678623.258    21678618.9574
        48.100          36.8004
 129843666.886 6 101176912.30043  24708428.800    24708435.2844
        37.200          19.6004
 106353060.576 8  82872502.96247  20238311.627    20238306.4474
        51.600          44.6004
 128541509.203 5 100162157.42642  24460668.279    24460672.2434
        31.300          14.8004
 131231589.651 5 102258328.96342  24972557.239    24972555.2254
        33.400          16.3004
 121761712.660 7  94879226.88745  23170480.186    23170473.4834
        42.800          30.0004
 15  9 17  1 59 30.0000000  0 11G22G14G04G16G11G08G03G27G26G21G19
 116333316.061 7  90649292.22245  22137496.696    22137487.4734
        47.700          35.3004
 113481827.514 7  88427401.87545  21594863.431    21594857.1384
        47.900          35.1004
 120016149.781 6  93519100.15644  22838295.966    22838291.7244
        41.000          26.8004
 121897423.524 7  94984952.94644  23196324.011    23196320.2394
        44.500          27.9004
 127772381.424 6  99562879.54242  24314274.759    24314270.4594
        38.300          17.4004
 113847355.132 8  88712235.17246  21664426.420    21664422.6474
        48.400          36.6004
 129769813.795 6 101119364.49843  24694375.406    24694381.7154
        39.000          20.6004
 106346151.258 8  82867119.08047  20236996.609    20236992.0754
        52.000          44.0004
 128625550.355 5 100227643.85642  24476661.168    24476665.5424
        32.500          13.9004
 131269338.643 5 102287743.76642  24979739.271    24979738.3704
        33.300          16.9004
 121671510.705 7  94808939.72245  23153316.301    23153308.7194
        44.200          31.1004
 15  9 17  2  0  0.0000000  0 11G22G14G04G16G11G08G03G27G26G21G19
 116401523.444 8  90702440.79245  22150476.822    22150467.3644
        48.300          35.4004
 113490236.573 7  88433954.41445  21596463.861    21596457.3924
        47.500          34.8004
 119962524.418 7  93477314.23344  22828090.983    22828087.3274
        43.000          28.3004
 121977264.866 7  95047166.75444  23211516.968    23211513.6064
        44.300          27.6004
 127687710.643 6  99496902.35642  24298163.445    24298158.7934
        38.300          17.4004
 113773080.437 8  88654358.84346  21650292.663    21650288.3044
        48.300          37.1004
 129696193.267 6 101061997.85243  24680364.710    24680371.7214
        36.100          19.0004
 106339774.862 8  82862150.46547  20235783.575    20235778.3374
        51.300          43.9004
                 100293181.02952  24492619.141
        30.100          15.6004
 131307216.956 5 102317259.22942  24986947.662    24986946.6444
        33.700          15.6004
 121581473.813 7  94738781.18145  23136182.994    23136175.2364
        44.600          31.2004
 15  9 17  2  0 30.0000000  0 11G22G14G04G16G11G08G03G27G26G21G19
 116469789.468 8  90755635.06645  22163466.913    22163457.3384
        48.100          35.2004
 113499170.194 7  88440915.71145  21598164.172    21598157.7034
        46.600          35.1004
 119908883.215 7  93435515.95244  22817882.831    22817879.9384
        43.700          27.9004
 122057163.176 7  95109424.95344  23226720.548    23226718.0064
        43.000          27.2004
 127602981.168 6  99430879.53042  24282040.645    24282034.7624
        38.300          16.3004
 113699136.590 7  88596740.31046  21636221.585    21636217.2854
        47.600          36.9004
 129622805.848 6 101004812.90943  24666400.998    24666407.4824
        39.100          21.7004
 106333932.481 8  82857597.96747  20234671.898    20234666.5434
        52.200          44.2004
 128793312.229 4 100358441.29842  24508549.097    24508555.6404
        29.400          15.6004
 131345225.539 5 102346876.34442  24994180.788    24994178.6564
        32.400          14.8004
 121491604.905 7  94668753.55045  23119080.895    23119073.7824
        44.600          31.0004
 15  9 17  2  1  0.0000000  0 11G22G14G04G16G11G08G03G27G26G21G19
 116538108.373 7  90808870.53745  22176467.580    22176457.8284
        47.500          33.8004
 113508625.548 7  88448283.52845  21599963.475    21599956.5954
        47.300          34.5004
 119855223.512 7  93393703.28544  22807672.264    22807667.9634
        43.200          28.5004
 122137112.817 7  95171723.15444  23241934.913    23241932.1954
        44.200          27.3004
 127518191.191 6  99364809.52242  24265904.285    24265899.0474
        36.700          15.6004
 113625523.295 8  88539379.36246  21622213.068    21622209.4714
        48.000          36.3004
 129549649.405 6 100947807.94443  24652480.121    24652486.3124
        38.300          21.1004
 106328622.304 8  82853460.17047  20233661.431    20233655.9004
        50.500          44.6004
 128876844.105 5 100423530.81742  24524445.156    24524450.9374
        31.900          16.3004
 131383362.858 5 102376593.65342  25001439.053    25001435.6914
        33.600          17.4004
 121401903.496 7  94598856.41345  23102011.936    23102003.8854
        44.900          31.6004
 15  9 17  2  1 30.0000000  0 11G22G14G04G16G11G08G03G27G26G21G19
 116606482.761 7  90862149.26245  22189478.729    22189468.8614
        47.100          34.5004
 113518606.500 7  88456060.93145  21601862.272    21601855.8044
        47.600          35.1004
 119801549.369 7  93351879.36644  22797457.913    22797454.2584
        43.200          25.4004
 122217114.444 7  95234061.86744  23257159.458    23257155.6274
        43.900          26.5004
 127433345.272 6  99298695.93642  24249758.849    24249752.7914
        38.100          15.6004
 113552247.373 8  88482281.28846  21608269.525    21608265.4594
        48.700          36.8004
 129476728.295 6 100890986.39343  24638603.088    24638609.9244
        38.100          22.6004
 106323848.985 8  82849740.70547  20232752.940    20232747.2924
        51.100          43.6004
 128960203.733 5 100488486.21942  24540306.326    24540312.3994
        30.800          14.8004
 131421633.847 5 102406415.21242  25008722.078    25008718.8324
        34.300          15.6004
 121312376.018 7  94529094.81945  23084974.693    23084967.4034
        43.400          30.9004
 15  9 17  2  2  0.0000000  0 11G22G14G04G16G11G08G03G27G26G21G19
 116674908.800 8  90915468.23445  22202499.789    22202490.5064
        48.200          34.8004
 113529111.279 7  88464246.50245  21603861.574    21603854.4024
        47.800          35.1004
 119747858.659 7  93310042.54144  22787242.077    22787237.1324
        44.100          27.4004
 122297162.680 7  95296436.87944  23272392.243    23272388.6464
        43.800          27.6004
 127348442.500 6  99232537.98542  24233602.417    24233594.7764
        39.100          16.3004
 113479308.598 8  88425445.92946  21594389.713    21594385.8234
        48.300          37.6004
 129404040.528 6 100834346.66443  24624769.871    24624777.8214
        36.300          21.1004
 106319610.867 8  82846438.27547  20231946.121    20231941.1174
        51.000          44.4004
 129043386.635 5 100553303.89242  24556137.598    24556141.4444
        33.000          14.8004
 131460036.973 5 102436339.66642  25016031.163    25016026.2184
        35.100          16.9004
 121223023.110 7  94459469.23845  23067971.389    23067963.5724
        43.300          30.8004
 15  9 17  2  2 30.0000000  0 11G22G14G04G16G11G08G03G27G26G21G19
 116743385.838 7  90968826.92145  22215530.172    22215521.7114
        47.500          34.2004
 113540141.106 7  88472841.19445  21605960.323    21605953.9134
        47.900          34.6004
 119694152.994 7  93268194.05644  22777021.667    22777016.1364
        44.500          27.7004
 122377255.903 7  95358846.94044  23287633.799    23287629.4404
        43.800          26.2004
 127263484.524 6  99166337.04542  24217435.601    24217427.8434
        37.800          15.6004
 113406711.173 8  88368876.55546  21580574.629    21580570.9154
        48.600          37.6004
 129331588.142 6 100777890.33243  24610984.346    24610989.5994
        39.200          22.0004
 106315910.325 8  82843554.73847  20231242.403    20231236.8144
        51.200          43.6004
 129126392.093 5 100617983.31942  24571931.930    24571937.5354
        32.600          15.6004
 131498574.439 5 102466368.79642  25023362.640    25023360.7434
        34.300          16.3004
 121133847.668 7  94389981.94245  23051001.294    23050993.7714
        43.100          30.2004
 15  9 17  2  3  0.0000000  0 10G22G14G04G16G11G08G03G27G26G19
 116811912.087 7  91022223.96045  22228570.293    22228561.4804
        47.600          34.0004
 113551696.159 8  88481845.16645  21608159.316    21608152.3784
        48.000          35.2004
 119640432.435 7  93226333.96644  22766799.309    22766793.3094
        44.600          27.2004
 122457391.504 7  95421290.04544  23302883.000    23302879.1104
        43.100          27.7004
 127178472.375 6  99100093.95042  24201256.773    24201251.3594
        37.700          16.9004
 113334457.871 7  88312575.32946  21566825.157    21566821.2674
        47.800          37.2004
 129259371.789 6 100721617.96543  24597240.656    24597247.3754
        38.400          21.8004
 106312748.355 8  82841090.86247  20230640.568    20230635.3884
        51.900          43.7004
 129209218.290 5 100682523.03642  24587692.546    24587699.6744
        31.600          15.6004
 121044852.835 7  94320635.38445  23034066.343    23034059.5814
        43.800          30.4004
 15  9 17  2  3 30.0000000  0 10G22G14G04G16G11G08G03G27G26G19
 116880484.757 7  91075657.16945  22241619.142    22241610.3884
        47.300          34.9004
 113563775.667 8  88491257.78845  21610458.037    21610451.4514
        48.800          35.9004
 119586696.559 7  93184461.91644  22756573.426    22756568.9504
        45.100          26.8004
 122537565.305 7  95483762.90244  23318139.744    23318137.1434
        42.600          28.3004
 127093406.336 6  99033808.81342  24185069.045    24185063.6314
        37.100          16.3004
 113262550.268 7  88256543.48246  21553141.972    21553137.5544
        47.400          37.7004
 129187390.746 6 100665528.91643  24583542.667    24583549.5614
        39.000          20.9004
 106310124.514 8  82839046.31047  20230140.866    20230136.0974
        51.600          44.4004
 129291861.550 5                  24603419.745
        33.900
 120956039.842 7  94251430.50745  23017165.484    23017158.5474
        43.300          30.8004
 15  9 17  2  4  0.0000000  0 10G22G14G04G16G11G08G03G27G26G19
 116949101.160 8  91129124.46345  22254677.283    22254668.0014
        48.200          34.8004
 113576378.256 8  88501078.01546  21612856.388    21612850.0954
        49.300          36.5004
 119532944.322 7  93142577.14444  22746343.947    22746339.8234
        43.400          27.1004
 122617773.350 7  95546262.43044  23333402.984    23333400.5594
        43.400          28.0004
 127008285.874 6  98967481.24242  24168871.700    24168865.2314
        36.200          16.9004
 113190989.675 7  88200782.02646  21539524.583    21539520.1064
        46.800          38.2004
 129115644.391 6 100609622.77343  24569889.931    24569896.4734
        37.900          21.7004
 106308038.381 8  82837420.74247  20229744.239    20229738.7664
        51.100          44.1004
 129374318.926 5                  24619113.490
        34.600
 120867410.104 7  94182368.43845  23000299.964    23000292.7924
        44.300          31.3004
 15  9 17  2  4 30.0000000  0 10G22G14G04G16G11G08G03G27G26G19
 117017761.525 8  91182626.01445  22267742.779    22267733.2044
        48.200          35.0004
 113589506.071 8  88511307.51345  21615354.776    21615347.7214
        48.300          35.6004
 119479177.962 7  93100681.36344  22736112.894    22736108.1834
        44.100          27.0004
 122698014.810 7  95608787.98944  23348672.439    23348670.1904
        42.300          27.2004
 126923114.281 5  98901113.91742  24152662.837    24152657.3064
        34.600          17.4004
 113119780.716 7  88145294.57246  21525973.377    21525969.1364
        46.800          38.0004
 129044135.315 6 100553901.56243  24556282.193    24556289.0284
        38.600          20.4004
 106306492.908 8  82836216.48147  20229450.128    20229444.7144
        49.900          43.7004
 129456590.304 6                  24634767.882
        36.000
 120778967.849 7  94113452.45845  22983469.709    22983463.5334
        44.700          31.4004
 15  9 17  2  5  0.0000000  0 10G22G14G04G16G11G08G03G27G26G19
 117086464.421 8  91236160.71345  22280816.774    22280807.6684
        48.700          34.8004
 113603159.756 8  88521946.77245  21617952.567    21617945.9814
        48.700          35.4004
 119425398.363 7  93058775.29644  22725878.462    22725874.4554
        42.800          26.8004
 122778287.129 7  95671337.60944  23363947.417    23363944.6994
        42.700          26.7004
 126837892.765 6  98834707.63942  24136446.490    24136439.5524
        37.200          16.9004
 113048926.563 7  88090083.59046  21512490.175    21512486.4024
        46.200          38.0004
 128972864.273 6 100498365.83143  24542720.084    24542726.3334
        37.700          20.1004
 106305489.196 8  82835434.35547  20229258.661    20229253.6574
        50.700          44.0004
 129538673.970 5                  24650386.593
        34.800
 120690717.111 7  94044685.71945  22966676.743    22966669.2194
        44.500          32.3004
 15  9 17  2  5 30.0000000  0 10G22G14G04G16G11G08G03G27G26G19
 117155207.363 7  91289726.60745  22293897.585    22293889.0654
        47.200          34.2004
 113617338.219 8  88532994.95945  21620650.389    21620643.9794
        48.900          35.4004
 119371604.743 7  93016858.27244  22715641.400    22715637.5104
        42.700          26.0004
 122858586.084 6  95733907.99144  23379228.108    23379225.7424
        41.800          25.3004
 126752621.443 6  98768262.57442  24120220.159    24120214.3354
        38.800          17.8004
 112978428.835 7  88035150.34246  21499075.207    21499070.9074
        46.400          37.8004
 128901830.855 6 100443015.22843  24529202.018    24529208.9714
        38.000          21.8004
 106305026.903 8  82835074.12347  20229170.945    20229165.2964
        50.900          44.4004
 129620566.815 5                  24665970.635
        34.300
 120602658.900 7  93976069.00345  22949919.784    22949912.2604
        44.300          32.1004
 15  9 17  2  6  0.0000000  0 10G22G14G04G16G11G08G03G27G26G19
 117223989.585 7  91343323.11245  22306986.006    22306977.7204
        47.600          34.0004
 113632042.182 8  88544452.62045  21623449.012    21623441.7234
        49.200          35.6004
 119317798.185 7  92974931.18444  22705404.055    22705398.5834
        43.900          27.4004
 122938909.858 6  95796497.71144  23394513.005    23394511.1074
        41.000          25.2004
 126667302.370 6  98701780.25843  24103984.987    24103979.7494
        38.100          18.3004
 112908290.906 7  87980497.46546  21485727.953    21485724.4154
        46.100          38.1004
 128831036.283 6 100387850.77543  24515730.264    24515737.2764
        38.600          21.8004
 106305107.581 8  82835136.97447  20229186.270    20229180.9734
        51.100          43.4004
 129702267.617 5                  24681519.143
        35.100
 120514796.558 7  93907604.89845  22933199.935    22933191.7674
        44.500          31.8004
 15  9 17  2  6 30.0000000  0 10G22G14G04G16G11G08G03G27G26G19
 117292807.906 7  91396947.75245  22320082.097    22320072.9914
        47.500          33.9004
 113647270.359 8  88556318.76745  21626346.298    21626339.2434
        48.300          35.7004
 119263977.640 7  92932993.18344  22695160.818    22695156.5764
        43.600          26.8004
 123019254.282 6  95859103.49144  23409802.049    23409801.1494
        41.100          24.7004
 126581935.202 6  98635260.51443  24087738.965    24087734.5474
        37.200          18.3004
 112838514.411 7  87926126.23246  21472449.838    21472446.6514
        46.700          37.7004
 128760479.704 6 100332871.77343  24502304.324    24502310.5154
        38.800          19.9004
 106305730.651 8  82835622.47547  20229305.158    20229299.4514
        50.200          44.2004
 129783773.121 5                  24697030.092
        33.700
 120427131.331 7  93839294.40545  22916518.050    22916510.7024
        44.300          32.3004
 15  9 17  2  7  0.0000000  0 10G22G14G04G16G11G08G03G27G26G19
 117361662.650 7  91450600.76745  22333184.457    22333175.8784
        47.000          34.0004
 113663024.588 8  88568594.81245  21629344.084    21629337.3224
        48.300          35.6004
 119210145.308 7  92891046.02444  22684916.779    22684912.1864
        43.300          26.2004
 123099618.302 6  95921724.53044  23425095.092    23425093.4294
        41.300          24.6004
 126496522.711 5  98568705.39343  24071484.834    24071481.7064
        35.000          20.1004
 112769103.124 7  87872039.56446  21459241.506    21459237.6744
        47.500          38.5004
 128690163.313 6 100278079.89643  24488922.240    24488929.3104
        38.600          22.2004
 106306898.447 8  82836532.43247  20229527.458    20229521.6344
        49.900          44.1004
 129865083.075 5                  24712500.174
        31.500
 120339667.609 7  93771140.94345  22899873.535    22899865.8944
        43.100          32.7004
 15  9 17  2  7 30.0000000  0 10G22G14G04G16G11G08G03G27G26G19
 117430551.830 7  91504280.60445  22346293.530    22346285.1274
        47.000          33.7004
 113679304.259 8  88581280.31945  21632442.548    21632435.7274
        49.000          35.4004
 119156301.294 7  92849089.73644  22674670.525    22674667.1624
        43.600          28.3004
 123179998.698 6  95984358.35144  23440391.908    23440389.3664
        41.700          24.4004
 126411065.358 6  98502115.42442  24055223.840    24055219.7154
        37.100          17.4004
 112700059.409 8  87818239.31146  21446103.232    21446099.3424
        48.100          38.0004
 128620087.279 6 100223475.39143  24475588.165    24475594.2394
        38.400          22.0004
 106308611.315 8  82837867.12147  20229853.097    20229847.6244
        51.400          43.9004
 129946195.039 5                  24727934.650
        31.500
 120252407.748 7  93703146.32945  22883268.741    22883261.3344
        43.100          32.3004
 15  9 17  2  8  0.0000000  0 10G22G14G04G16G11G08G03G27G26G19
 117499472.129 7  91557984.70445  22359409.478    22359400.3724
        47.100          34.1004
 113696107.822 8  88594374.03345  21635639.739    21635633.2114
        48.700          35.3004
 119102444.485 7  92807123.49244  22664422.607    22664417.8384
        44.000          28.6004
 123260391.237 6  96047001.62344  23455689.744    23455687.7884
        41.400          25.6004
 126325562.957 6  98435490.28943  24038953.100    24038948.2724
        36.900          18.6004
 112631384.418 7  87764726.37246  21433034.316    21433030.5434
        46.600          38.5004
 128550250.522 6 100169057.28643  24462298.650    24462304.1974
        37.000          23.6004
 106310868.375 8  82839625.84947  20230282.861    20230277.2124
        50.600          44.1004
 130027105.533 5                  24743332.522
        31.600
 120165352.747 7  93635311.35345  22866703.020    22866695.3204
        43.700          32.5004
 15  9 17  2  8 30.0000000  0 10G22G14G04G16G11G08G03G27G26G19
 117568421.917 7  91611711.77645  22372529.869    22372520.5294
        47.700          34.4004
 113713434.772 8  88607875.58545  21638936.644    21638930.5274
        48.800          35.3004
 119048574.880 7  92765147.25644  22654171.846    22654165.9634
        44.800          26.5004
 123340792.730 7  96109651.86344  23470990.500    23470987.7244
        42.600          24.1004
 126240016.557 6  98368830.83743  24022674.457    24022669.5124
        37.400          19.9004
 112563080.579 7  87711502.66646  21420037.031    21420032.7894
        47.300          38.2004
 128480653.124 6 100114825.76943  24449054.948    24449060.7294
        36.500          21.1004
 106313669.924 8  82841808.85747  20230815.950    20230810.5364
        50.700          44.3004
 130107812.243 5                  24758691.331
        34.700
 120078504.857 7  93567637.77045  22850175.940    22850168.4754
        43.100          31.5004
 15  9 17  2  9  0.0000000  0 10G22G14G04G16G11G08G03G27G26G19
 117637400.448 7  91665461.24245  22385656.473    22385646.8394
        46.900          33.6004
 113731286.452 8  88621785.99645  21642334.134    21642327.1964
        49.100          35.3004
 118994694.256 7  92723162.40744  22643918.090    22643912.3244
        45.100          27.2004
 123421201.599 6  96172307.84143  23486291.148    23486289.4854
        41.800          23.4004
 126154428.403 6  98302138.87743  24006387.137    24006382.7784
        37.400          20.9004
 112495151.764 8  87658571.15846  21407110.343    21407106.0424
        48.200          38.3004
 128411296.837 6 100060782.14643  24435855.653    24435862.7824
        39.000          22.2004
 106317017.862 8  82844417.62947  20231452.936    20231448.0504
        51.700          44.1004
 130188314.595 5                  24774009.622
        35.100
 119991868.260 7  93500128.83645  22833689.470    22833681.5364
        42.800          31.9004
 15  9 17  2  9 30.0000000  0 10G22G14G04G16G11G08G03G27G26G19
 117706406.497 7  91719232.15845  22398787.195    22398778.1484
        46.700          33.6004
 113749662.852 8  88636105.32145  21645830.898    21645823.9604
        48.400          35.2004
 118940802.986 7  92681169.28344  22633663.080    22633657.7834
        43.500          27.9004
 123501615.028 6  96234967.39343  23501593.658    23501592.4644
        41.400          23.8004
 126068799.838 6  98235415.40943  23990092.269    23990088.0274
        36.700          19.3004
 112427600.641 7  87605933.96646  21394255.220    21394251.6814
        47.600          37.8004
 128342182.188 6 100006926.78943  24422704.121    24422710.7814
        39.400          21.3004
 106320912.857 8  82847452.67147  20232194.473    20232189.1774
        50.200          44.8004
 130268610.688 5                  24789288.230
        34.800
 119905445.371 7  93432786.42545  22817243.485    22817235.6104
        43.400          32.3004
 15  9 17  2 10  0.0000000  0 10G22G14G04G16G11G08G03G27G26G19
 117775438.131 7  91773023.00645  22411923.674    22411915.0374
        47.000          32.7004
 113768563.234 8  88650832.92945  21649427.470    21649421.0014
        48.900          35.8004
 118886901.141 7  92639167.93744  22623405.932    22623400.5774
        43.600          27.5004
 123582029.613 7  96297627.82844  23516896.796    23516895.4274
        42.300          24.7004
 125983131.166 6  98168660.72643  23973790.720    23973785.7744
        37.700          20.4004
 112360429.146 8  87553592.59346  21381473.184    21381468.8844
        48.200          38.2004
 128273308.966 6  99953259.55543  24409596.863    24409603.7584
        39.800          22.5004
 106325354.717 8  82850913.84747  20233039.356    20233034.4114
        50.400          44.1004
 130348697.944 5                  24804528.143
        35.000
 119819238.317 7  93365612.16945  22800838.070    22800830.6044
        43.100          32.6004
 15  9 17  2 10 30.0000000  0 10G22G14G04G16G11G08G03G27G26G19
 117844493.495 7  91826832.36045  22425063.914    22425056.2734
        46.300          32.8004
 113787987.213 7  88665968.53145  21653123.137    21653116.7864
        47.600          35.5004
 118832988.929 7  92597158.50344  22613146.695    22613141.2814
        43.900          28.2004
 123662442.495 6  96360286.92044  23532199.171    23532197.6254
        41.000          24.7004
 125897423.807 6  98101875.87743  23957480.011    23957474.9494
        37.400          19.6004
 112293639.451 8  87501548.73746  21368763.204    21368759.9584
        48.100          38.8004
 128204677.294 6  99899780.59343  24396537.359    24396543.1984
        39.700          21.8004
 106330343.931 8  82854801.54147  20233989.243    20233984.1804
        50.000          44.3004
 130428574.415 5                  24819730.465
        34.400
 119733249.564 7  93298608.02345  22784475.680    22784467.2774
        43.000          32.1004
 15  9 17  2 11  0.0000000  0 10G22G14G04G16G11G08G03G27G26G19
 117913571.618 7  91880659.43145  22438209.666    22438201.1464
        46.000          31.9004
 113807935.094 8  88681512.37545  21656919.557    21656912.2094
        48.300          35.2004
 118779067.414 7  92555141.80844  22602886.414    22602880.3554
        43.900          28.6004
 123742851.708 6  96422943.16844  23547499.838    23547499.3474
        41.500          25.1004
 125811679.124 6  98035061.97643  23941163.625    23941158.2694
        38.100          19.9004
 112227235.156 7  87449805.17646  21356126.969    21356123.0794
        47.600          37.7004
 128136288.283 6  99846490.69343  24383523.231    24383528.3084
        39.800          22.8004
 106335881.665 8  82859116.64647  20235042.879    20235037.3474
        50.000          44.2004
 130508238.730 5                  24834888.847
        34.000
 119647482.243 7  93231776.44645  22768153.994    22768146.9394
        43.000          32.7004
 15  9 17  2 11 30.0000000  0 10G22G14G04G16G11G08G03G27G26G19
 117982669.632 7  91934502.02745  22451358.256    22451349.2674
        46.500          32.3004
 113828405.757 8  88697463.58245  21660815.179    21660808.2414
        48.000          35.1004
 118725135.702 7  92513117.17044  22592622.063    22592616.8254
        42.900          28.1004
 123823253.172 6  96485593.36544  23562800.310    23562799.8784
        40.500          24.7004
 125725897.366 6  97968219.16043  23924839.782    23924834.4854
        38.600          20.6004
 112161217.551 7  87398362.94246  21343564.678    21343560.1434
        47.600          38.8004
 128068141.162 6  99793389.26343  24370555.022    24370561.3894
        40.000          22.9004
 106341967.123 8  82863858.54347  20236200.711    20236195.5914
        50.400          44.0004
 130587687.922 6                  24850008.485
        36.200
 119561938.102 7  93165118.77445  22751876.108    22751868.3494
        44.100          32.8004
 15  9 17  2 12  0.0000000  0 10G22G14G04G16G11G08G03G27G26G19
 118051787.977 7  91988360.44145  22464510.568    22464501.5794
        45.400          31.8004
 113849399.762 7  88713822.58645  21664809.929    21664803.2844
        47.500          35.5004
 118671195.700 7  92471086.10744  22582358.413    22582352.9994
        43.200          28.4004
 123903645.186 6  96548236.20844  23578098.487    23578097.9964
        40.900          24.3004
 125640080.782 6  97901349.21343  23908510.086    23908504.6134
        39.300          21.3004
 112095590.393 8  87347224.93446  21331076.712    21331071.8854
        48.500          39.0004
 128000237.336 6  99740477.43543  24357632.137    24357638.3864
        38.400          21.8004
 106348601.848 8  82869028.44447  20237463.180    20237458.2354
        50.500          43.7004
 130666921.067 5                  24865085.289
        35.600
 119476620.733 7  93098637.78645  22735640.835    22735632.6084
        44.700          32.7004
 15  9 17  2 12 30.0000000  0 10G22G14G04G16G11G08G03G27G26G19
 118120923.693 7  92042232.41045  22477666.816    22477658.2384
        44.600          32.7004
 113870916.435 8  88730588.84845  21668904.166    21668897.7554
        48.400          35.9004
 118617247.354 7  92429048.51344  22572092.345    22572086.8724
        43.900          29.4004
 123984024.412 7  96610869.08344  23593394.954    23593393.5854
        42.200          25.6004
 125554230.223 6  97834452.77443  23892172.168    23892166.9884
        38.900          20.6004
 112030355.704 8  87296392.74446  21318662.458    21318658.1584
        48.100          38.7004
 127932576.729 6  99687755.12043  24344756.887    24344762.3164
        39.100          20.4004
 106355785.846 8  82874626.33747  20238830.331    20238825.4444
        50.200          44.0004
 130745936.005 6                  24880122.070
        36.900
 119391532.227 7  93032335.13945  22719449.135    22719441.2014
        45.500          33.2004
 15  9 17  2 13  0.0000000  0 10G22G14G04G16G11G08G03G27G26G19
 118190075.325 7  92096116.77345  22490825.741    22490817.6314
        44.000          32.4004
 113892955.381 8  88747762.08146  21673098.052    21673091.6424
        48.000          36.1004
 118563290.983 7  92387004.65044  22561824.991    22561818.8154
        43.700          28.2004
 124064388.169 7  96673489.89943  23608687.779    23608686.4684
        42.400          22.8004
 125468346.766 6  97767530.74543  23875829.410    23875823.4104
        40.100          20.9004
 111965516.051 8  87245868.37746  21306323.591    21306319.4674
        48.700          38.7004
 127865159.650 6  99635222.62443  24331926.360    24331933.7234
        36.000          20.4004
 106363519.555 8  82880652.58447  20240302.020    20240296.9584
        50.900          43.9004
 130824730.726 5 101941379.98442  24895114.698    24895123.5264
        35.800          16.9004
 119306675.285 7  92966212.91745  22703301.117    22703293.1824
        45.600          33.2004
 15  9 17  2 13 30.0000000  0 10G22G14G04G16G11G08G03G27G26G19
 118259241.815 7  92150012.72245  22503988.060    22503979.4234
        44.600          32.0004
 113915516.369 8  88765342.10346  21677392.014    21677384.7834
        48.600          36.3004
 118509327.334 7  92344955.13444  22551555.057    22551549.9954
        43.800          28.9004
 124144733.833 7  96736096.59444  23623977.511    23623975.8484
        43.200          24.4004
 125382431.708 6  97700584.04543  23859480.243    23859474.5954
        39.700          20.1004
 111901073.987 8  87195653.81846  21294060.910    21294056.4924
        48.600          38.5004
 127797986.391 6  99582880.07743  24319144.054    24319151.0074
        37.600          21.5004
 106371803.303 8  82887107.43747  20241878.479    20241873.0654
        50.900          44.1004
 130903303.503 6 102002605.50742  24910066.879    24910073.7734
        36.800          16.3004
 119222052.604 7  92900273.22245  22687197.996    22687190.4724
        47.200          34.2004
 15  9 17  2 14  0.0000000  0 10G22G14G04G16G11G08G03G27G26G19
 118328421.141 7  92203918.64745  22517152.306    22517143.9034
        44.600          32.3004
 113938598.273 8  88783328.01346  21681783.793    21681777.2664
        48.300          36.5004
 118455356.235 7  92302899.78944  22541285.517    22541280.0454
        45.300          29.1004
 124225058.094 7  96798686.63943  23639262.316    23639261.0054
        42.600          22.6004
 125296485.727 6  97633613.27343  23843124.436    23843119.3154
        39.700          21.5004
 111837031.503 8  87145750.61646  21281874.321    21281869.9044
        48.800          39.3004
 127731056.771 6  99530727.40343  24306408.013    24306415.3184
        38.900          23.4004
 106380636.931 8  82893990.77947  20243559.185    20243553.9474
        51.100          44.1004
 130981651.946 6 102063656.30543  24924976.892    24924983.4934
        37.400          18.6004
 119137666.363 7  92834517.76845  22671139.414    22671132.0664
        46.400          33.4004
 15  9 17  2 14 30.0000000  0 10G22G14G04G16G11G08G03G27G26G19
 118397612.130 7  92257833.66645  22530319.091    22530310.3954
        43.100          32.7004
 113962201.382 8  88801720.08045  21686275.361    21686268.0724
        48.500          35.4004
 118401378.756 7  92260839.50045  22531013.385    22531008.4994
        46.100          30.5004
 124305358.741 7  96861258.24443  23654543.264    23654542.9494
        42.200          22.6004
 125210510.477 6  97566619.68143  23826765.504    23826759.2704
        39.200          21.7004
 111773391.400 8  87096160.96546  21269763.865    21269759.4474
        48.400          38.9004
 127664371.549 6  99478765.16043  24293718.599    24293724.6144
        39.300          22.9004
 106390021.222 8  82901303.20047  20245345.480    20245339.4214
        50.300          44.3004
 131059774.605 6 102124531.11743  24939843.148    24939850.0424
        37.700          18.6004
 119053519.672 7  92768948.98145  22655126.574    22655119.1084
        45.200          33.3004
 15  9 17  2 15  0.0000000  0 10G22G14G04G16G11G08G03G27G26G19
 118466812.924 7  92311756.34945  22543487.532    22543478.7774
        43.100          31.9004
 113986324.831 7  88820517.58445  21690865.554    21690858.9684
        47.400          35.7004
 118347394.856 7  92218774.19144  22520740.364    22520735.7124
        45.400          28.8004
 124385632.387 7  96923808.80244  23669819.765    23669819.1574
        42.400          24.8004
 125124506.944 6  97499604.06743  23810397.623    23810393.7924
        40.600          22.3004
 111710155.598 7  87046886.36546  21257729.855    21257725.8474
        47.000          38.6004
 127597930.658 6  99426993.29544  24281074.899    24281081.2074
        39.800          25.6004
 106399956.034 8  82909044.59747  20247235.688    20247230.3334
        50.500          43.5004
 131137669.369 6 102185228.40242  24954666.926    24954672.6484
        38.400          17.8004
 118969614.613 7  92703568.48145  22639159.693    22639151.5834
        45.000          32.2004
 15  9 17  2 15 30.0000000  0 11G22G14G04G16G11G08G03G27G26G01G19
 118536022.838 7  92365686.12845  22556658.133    22556649.4954
        44.300          32.6004
 114010969.192 7  88839721.00745  21695555.157    21695548.8054
        47.800          35.2004
 118293406.060 7  92176705.08744  22510467.208    22510461.7944
        44.900          28.9004
 124465876.936 7  96986336.70643  23685089.967    23685089.6524
        43.100          23.8004
 125038477.220 6  97432567.97343  23794027.644    23794022.5234
        40.800          22.9004
 111647327.900 8  86997929.76746  21245774.401    21245770.2184
        48.600          38.3004
 127531735.035 6  99375412.57343  24268478.399    24268484.2394
        38.600          22.9004
 106410442.338 8  82917215.73347  20249231.218    20249226.5074
        50.700          44.2004
 131215335.078 6 102245747.21242  24969443.971    24969451.2174
        36.900          17.4004
 129294136.096 5                  24603856.065
        34.300
 118885954.448 7  92638378.83345  22623239.901    22623232.0264
        44.700          32.2004
 15  9 17  2 16  0.0000000  0 11G22G14G04G16G11G08G03G27G26G01G19
 118605241.692 7  92419622.89045  22569830.394    22569821.2294
        44.000          32.1004
 114036134.836 8  88859330.61145  21700344.272    21700337.5694
        48.000          35.3004
 118239413.798 7  92134633.29145  22500192.035    22500187.0904
        43.000          30.6004
 124546091.065 7  97048840.90543  23700355.042    23700353.8484
        43.000          22.6004
 124952423.304 6  97365513.09043  23777651.646    23777646.6424
        40.400          21.5004
 111584911.684 8  86949293.79546  21233896.915    21233892.8504
        48.600          39.9004
 127465785.950 6  99324023.96644  24255928.536    24255933.9654
        39.900          24.8004
 106421481.467 8  82925817.62947  20251331.851    20251326.7894
        51.100          44.3004
 131292771.060 6 102306087.00242  24984181.068    24984186.8484
        37.100          17.4004
 129234912.006 6 100702530.60943  24592585.924    24592586.3724
        38.800          20.9004
 118802543.101 7  92573383.05145  22607367.663    22607359.8464
        43.900          33.0004
 15  9 17  2 16 30.0000000  0 11G22G14G04G16G11G08G03G27G26G01G19
 118674464.491 7  92473562.70745  22583002.716    22582993.3754
        46.100          32.0004
 114061818.383 7  88879343.77845  21705231.503    21705224.6824
        46.300          35.7004
 118185415.953 7  92092557.12344  22489916.518    22489911.5154
        44.000          29.8004
 124626269.428 7  97111317.23043  23715612.154    23715611.2534
        42.700          22.9004
 124866343.917 6  97298438.30443  23761271.639    23761267.2214
        41.300          22.8004
 111522906.352 8  86900977.99946  21222097.738    21222093.8484
        48.600          39.5004
 127400081.008 6  99272825.55843  24243425.610    24243431.0974
        40.100          22.5004
 106433070.845 8  82934848.29747  20253537.459    20253531.9284
        51.500          44.5004
 131369972.627 6 102366244.14042  24998870.789    24998878.3874
        36.500          17.8004
 129175591.200 5 100656306.71843  24581298.816    24581298.2084
        34.800          20.1004
 118719380.526 7  92508581.12445  22591542.298    22591533.7194
        44.300          32.6004
 15  9 17  2 17  0.0000000  0 11G22G14G04G16G11G08G03G27G26G01G19
 118743691.297 7  92527505.67645  22596176.237    22596166.8384
        46.600          32.5004
 114088020.208 7  88899760.80245  21710217.961    21710210.7304
        46.700          35.1004
 118131413.756 7  92050477.57345  22479640.521    22479635.4004
        44.700          31.1004
 124706409.720 7  97173763.91843  23730861.926    23730861.8464
        42.800          22.6004
 124780241.057 6  97231345.25343  23744886.369    23744881.4244
        41.600          22.6004
 111461315.407 8  86852985.08146  21210377.251    21210372.8924
        48.700          39.5004
 127334621.147 6  99221818.18543  24230968.957    24230974.1524
        39.000          22.2004
 106445211.498 8  82944308.52847  20255847.585    20255842.6404
        51.200          44.2004
 131446938.905 6 102426217.92342  25013517.141    25013524.7394
        36.100          17.4004
 129116174.394 6 100610008.01543  24569989.429    24569990.7554
        36.300          19.6004
 118636469.954 7  92443975.57545  22575764.388    22575757.0984
        43.800          33.1004
 15  9 17  2 17 30.0000000  0 11G22G14G04G16G11G08G03G27G26G01G19
 118812920.860 7  92581450.78145  22609349.732    22609341.2124
        45.500          31.6004
 114114740.312 7  88920581.67046  21715302.550    21715295.9054
        47.700          36.0004
 118077408.278 7  92008395.45645  22469363.824    22469358.4104
        43.500          30.1004
 124786509.797 7  97236179.25443  23746105.134    23746104.3514
        43.400          22.5004
 124694116.643 6  97164235.43943  23728496.735    23728492.1424
        40.200          21.8004
 111400141.395 7  86805317.06446  21198736.098    21198732.3834
        47.300          39.7004
 127269406.973 6  99171002.19843  24218557.768    24218563.9594
        40.400          22.0004
 106457903.928 8  82954198.72247  20258263.058    20258257.4094
        51.100          44.2004
 131523668.500 6 102486007.28042  25028118.496    25028124.1604
        36.500          17.8004
 129056661.714 5 100563634.71743  24558665.916    24558665.8954
        34.500          19.3004
 118553814.226 7  92379568.60845  22560035.204    22560027.7384
        43.200          32.8004
 15  9 17  2 18  0.0000000  0 11G22G14G04G16G11G08G03G27G31G01G19
 118882154.331 7  92635398.91145  22622524.879    22622516.0664
        44.800          32.0004
 114141980.604 7  88941807.89045  21720486.079    21720479.0244
        46.800          35.7004
 118023402.433 7  91966313.07045  22459086.329    22459081.9704
        44.800          31.5004
 124866569.254 7  97298562.93043  23761340.896    23761339.6444
        43.200          23.8004
 124607974.132 6  97097111.47843  23712104.717    23712099.4214
        41.100          22.2004
 111339389.386 7  86757977.87246  21187175.353    21187171.1704
        47.200          39.8004
 127204441.046 6  99120379.71543  24206195.941    24206200.9014
        39.800          22.0004
 106471150.619 8  82964520.79547  20260783.605    20260778.7184
        51.300          43.4004
                                  24692623.646
        30.500
 128997055.565 5 100517188.48043  24547323.127    24547323.7504
        33.800          20.6004
 118471418.669 7  92315364.36945  22544355.899    22544347.9654
        45.000          33.6004
 15  9 17  2 18 30.0000000  0 11G22G14G04G16G11G08G03G27G31G01G19
 118951384.790 7  92689344.71545  22635698.735    22635690.0394
        44.500          31.5004
 114169735.066 7  88963434.77145  21725767.849    21725760.7944
        46.800          35.7004
 117969391.518 7  91924226.73445  22448807.568    22448803.6784
        44.600          31.1004
 124946580.124 7  97360908.75043  23776566.905    23776565.8874
        42.900          21.8004
 124521809.737 6  97029970.46543  23695707.279    23695703.0374
        40.300          22.5004
 111279056.243 7  86710965.06146  21175694.239    21175690.0564
        47.500          39.4004
 127139718.200 6  99069946.62143  24193877.968    24193883.6324
        39.600          20.6004
 106484946.441 8  82975270.76847  20263409.088    20263404.1434
        51.500          44.0004
                                  24683676.239
        29.400
 128937350.412 5 100470665.18343  24535961.867    24535962.2564
        35.500          18.3004
 118389280.726 7  92251360.85345  22528725.126    22528717.8374
        44.900          33.7004
 15  9 17  2 19  0.0000000  0 11G22G14G04G16G11G08G03G27G31G01G19
 119020611.083 7  92743287.26845  22648872.101    22648863.4634
        44.000          31.5004
 114198003.538 7  88985462.18145  21731147.059    21731140.0044
        45.600          35.1004
 117915376.524 7  91882137.22545  22438529.026    22438524.4914
        44.100          30.2004
 125026540.236 7  97423215.00343  23791782.775    23791782.0504
        42.900          22.6004
 124435624.948 6  96962813.58843  23679307.582    23679302.6964
        40.900          22.8004
 111219145.146 8  86664281.12646  21164294.116    21164289.6984
        48.400          40.0004
 127075239.227 6  99019703.54243  24181608.496    24181612.6354
        39.000          19.0004
 106499291.879 8  82986449.01347  20266138.821    20266133.9354
        51.000          44.1004
 129666539.485 5                  24674698.831
        31.800
 128877546.700 5 100424064.95443  24524581.126    24524581.4564
        35.500          19.9004
 118307403.050 7  92187560.15345  22513144.798    22513136.6294
        44.700          33.7004
 15  9 17  2 19 30.0000000  0 11G22G14G04G16G11G08G03G27G31G01G19
 119089836.649 7  92797229.25245  22662045.289    22662036.7104
        45.100          31.8004
 114226789.961 7  89007893.17845  21736624.598    21736617.7194
        45.400          34.8004
 117861363.000 7  91840048.85345  22428251.046    22428246.0424
        44.900          30.5004
 125106451.491 6  97485483.19343  23806988.585    23806988.5054
        41.600          20.9004
 124349425.805 6  96895645.49243  23662904.113    23662899.6374
        39.200          22.6004
 111159662.999 8  86617931.42746  21152975.242    21152970.7664
        48.100          40.3004
 127011008.897 6  98969654.24343  24169385.195    24169390.2724
        39.100          19.9004
 106514191.721 8  82998059.25747  20268974.044    20268969.2174
        51.200          44.5004
 129619195.030 5                  24665688.284
        33.800
 128817648.831 5 100377391.40642  24513181.980    24513182.3694
        35.200          17.8004
 118225792.993 7  92123967.96845  22497615.124    22497606.7214
        46.600          33.2004
 15  9 17  2 20  0.0000000  0 11G22G14G04G16G11G08G03G27G31G01G19
 119159058.926 7  92851168.67645  22675218.182    22675209.0764
        45.400          31.3004
 114256092.317 7  89030726.21645  21742200.557    21742193.6774
        46.300          35.3004
 117807349.751 7  91797960.69144  22417972.623    22417967.5024
        44.600          29.2004
 125186309.685 6  97547710.02443  23822185.558    23822185.0094
        40.800          21.5004
 124263212.401 6  96828466.31843  23646498.761    23646493.5234
        39.500          22.8004
 111100610.778 8  86571916.73446  21141737.689    21141733.2714
        48.500          40.2004
 126947025.844 6  98919797.59343  24157210.373    24157215.2164
        40.500          21.1004
 106529644.461 8  83010100.33647  20271914.366    20271909.8904
        51.800          43.7004
 129571688.854 5                  24656649.064
        33.800
 128757655.388 6 100330643.44543  24501766.609    24501766.4704
        37.100          19.0004
 118144451.823 7  92060585.30345  22482136.552    22482127.8564
        46.000          34.5004
 15  9 17  2 20 30.0000000  0 11G22G14G04G16G11G08G03G27G31G01G19
 119228275.237 7  92905103.46245  22688388.505    22688380.9814
        45.000          31.4004
 114285908.855 7  89053959.90845  21747874.882    21747868.2964
        46.400          35.6004
 117753336.595 7  91755872.61844  22407694.382    22407689.4964
        44.200          29.6004
 125266111.409 7  97609892.85043  23837372.256    23837371.8244
        42.200          21.5004
 124176985.184 6  96761276.36543  23630090.354    23630084.9404
        38.800          23.5004
 111041989.759 8  86526238.05046  21130582.614    21130578.0204
        48.200          39.9004
 126883289.282 6  98870133.02243  24145080.460    24145085.9484
        38.600          21.1004
 106545649.085 8  83022571.45247  20274960.079    20274955.2524
        51.300          43.9004
 129524010.258 5                  24647578.665
        34.300
 128697565.159 6 100283819.97743  24490331.903    24490331.0614
        37.400          19.3004
 118063381.324 7  91997413.54945  22466708.554    22466700.6204
        46.400          33.7004
 15  9 17  2 21  0.0000000  0 11G22G14G04G16G11G08G03G27G31G01G19
 119297484.611 7  92959032.81345  22701559.754    22701551.3504
        45.300          32.1004
 114316239.181 7  89077593.95445  21753646.175    21753638.8864
        45.500          34.3004
 117699324.473 7  91713785.32544  22397415.437    22397410.4344
        44.100          29.7004
 125345854.136 6  97672029.71343  23852547.162    23852546.8474
        41.800          22.3004
 124090745.638 6  96694076.80943  23613679.378    23613673.7304
        39.900          22.9004
 110983802.683 8  86480897.50646  21119509.587    21119504.7594
        48.000          39.5004
 126819799.661 6  98820660.92743  24132998.927    24133004.7664
        39.000          20.6004
 106562205.997 8  83035472.92947  20278111.342    20278106.0454
        51.700          43.6004
 129476185.721 5                  24638477.701
        34.200
 128637378.570 6 100236921.44643  24478877.117    24478877.8574
        36.200          18.6004
 117982584.339 7  91934454.93045  22451333.821    22451325.5354
        46.600          33.1004
 15  9 17  2 21 30.0000000  0 11G22G14G04G16G11G08G03G27G31G01G19
 119366685.314 7  93012955.41045  22714728.302    22714720.0164
        45.200          32.3004
 114347082.191 7  89101627.50745  21759516.011    21759508.1364
        45.800          34.9004
 117645313.799 7  91671699.16444  22387137.791    22387132.3774
        43.400          29.4004
 125425534.990 6  97734118.36643  23867710.054    23867709.6224
        40.200          21.8004
 124004494.692 6  96626868.38643  23597265.872    23597260.8684
        39.500          23.0004
 110926051.820 8  86435896.87046  21108520.444    21108515.3824
        48.700          39.7004
 126756556.694 6  98771380.99543  24120964.428    24120969.2714
        38.500          21.5004
 106579314.750 8  83048804.41047  20281366.861    20281361.7404
        52.100          44.2004
 129428205.116 5                  24629346.717
        33.900
 128577095.042 6 100189947.36843  24467407.423    24467406.8744
        36.000          19.3004
 117902063.141 7  91871711.21445  22436010.657    22436002.4304
        46.700          33.8004
 15  9 17  2 22  0.0000000  0 11G22G14G04G16G11G08G03G27G31G01G19
 119435876.050 7  93066870.26445  22727894.369    22727886.2594
        45.500          31.5004
 114378437.458 7  89126060.21445  21765481.957    21765475.3134
        45.400          34.7004
 117591305.055 7  91629614.52145  22376860.197    22376855.0774
        43.300          30.2004
 125505151.451 6  97796156.83743  23882860.876    23882861.2064
        38.400          21.3004
 123918234.082 6  96559652.42243  23580850.790    23580846.4314
        39.200          23.9004
 110868739.136 7  86391237.65946  21097613.606    21097609.1304
        47.900          39.8004
 126693560.652 6  98722293.49943  24108975.912    24108980.6974
        39.500          21.7004
 106596975.381 8  83062565.91947  20284727.696    20284722.8684
        51.800          44.2004
 129380070.577 5                  24620186.137
        33.800
 128516714.573 6 100142897.80843  24455916.513    24455916.1404
        39.000          20.1004
 117821820.373 7  91809184.45245  22420741.858    22420733.2214
        46.000          33.9004
 15  9 17  2 22 30.0000000  0 11G22G14G04G16G11G08G03G27G31G01G19
 119505055.964 7  93120776.68345  22741059.243    22741051.0744
        44.900          32.7004
 114410304.506 7  89150891.70845  21771546.022    21771539.4954
        44.900          34.0004
 117537299.595 7  91587532.41045  22366582.917    22366578.2654
        43.700          30.0004
 125584700.903 6  97858143.08943  23897997.623    23897998.7734
        38.300          22.2004
 123831965.616 6  96492430.34844  23564434.652    23564429.6484
        39.300          26.2004
 110811867.732 7  86346922.30146  21086791.123    21086786.7054
        47.700          40.5004
 126630811.977 6  98673398.76343  24097035.012    24097040.2074
        40.000          22.2004
 106615188.194 8  83076757.70447  20288193.393    20288188.0384
        51.800          43.9004
 129331784.980 5                  24610998.300
        33.400
 128456237.494 6 100095773.04143  24444407.398    24444408.2554
        38.400          20.9004
 117741858.970 7  91746876.93245  22405524.973    22405516.9814
        45.600          34.7004
 15  9 17  2 23  0.0000000  0 11G22G14G04G16G11G08G03G27G31G01G19
 119574223.916 7  93174673.76545  22754221.175    22754213.0074
        44.100          32.8004
 114442682.711 7  89176121.49445  21777707.740    21777701.1544
        45.000          34.9004
 117483298.287 7  91545453.52345  22356307.494    22356301.6114
        45.300          31.2004
 125664181.237 6  97920075.49243  23913122.731    23913123.4124
        38.600          22.6004
 123745690.684 6  96425203.21143  23548017.698    23548011.6984
        39.200          22.9004
 110755439.638 8  86302952.38046  21076053.787    21076049.3704
        48.500          40.5004
 126568311.054 6  98624697.06543  24085141.587    24085146.6644
        40.700          22.3004
 106633953.263 8  83091379.81947  20291764.078    20291758.5474
        51.500          43.7004
 129283341.644 4                  24601779.401
        29.900
 128395664.119 6 100048573.09743  24432880.178    24432880.8014
        37.700          20.6004
 117662182.019 7  91684791.07345  22390362.751    22390354.8764
        45.400          33.4004
 15  9 17  2 23 30.0000000  0 11G22G14G04G16G11G08G03G27G31G01G19
 119643376.845 7  93228559.14945  22767380.927    22767372.3494
        45.300          32.7004
 114475569.634 7  89201747.69745  21783965.577    21783959.4014
        45.500          34.8004
 117429299.669 7  91503376.75445  22346032.190    22346026.2484
        45.100          31.3004
 125743588.152 6  97981950.70543  23928233.883    23928234.0374
        39.800          22.0004
 123659408.994 6  96357970.80044  23531598.985    23531592.5754
        39.400          24.1004
 110699455.871 7  86259328.69246  21065400.036    21065395.5014
        47.900          40.1004
 126506055.965 6  98576186.93443  24073294.515    24073299.5334
        40.700          22.8004
 106653268.561 8  83106430.67747  20295439.906    20295434.3174
        51.500          44.0004
 129234758.999 5                  24592537.029
        33.400
 128334992.527 6 100001296.58343  24421335.340    24421334.2044
        38.800          21.5004
 117582789.974 7  91622927.20445  22375255.016    22375246.7894
        45.600          33.7004
 15  9 17  2 24  0.0000000  0 11G22G14G04G16G11G08G03G27G31G01G19
 119712514.357 7  93282432.52045  22780538.261    22780528.4514
        46.300          32.5004
 114508965.295 7  89227770.30645  21790320.922    21790314.1014
        46.000          35.1004
 117375305.689 7  91461303.57845  22335757.330    22335751.3894
        45.300          30.9004
 125822920.164 6  98043767.51843  23943330.629    23943331.0764
        39.500          21.7004
 123573123.125 6  96290735.17143  23515178.398    23515172.5744
        38.200          22.3004
 110643919.562 8  86216053.67146  21054831.955    21054827.7724
        48.100          40.6004
 126444047.968 6  98527869.36843  24061494.147    24061499.4004
        38.900          22.6004
 106673135.028 8  83121911.01347  20299220.699    20299214.9334
        51.900          43.6004
 129186031.719 5                  24583263.434
        32.400
 128274223.660 6  99953944.40143  24409771.353    24409770.5704
        40.800          21.3004
 117503686.745 7  91561288.39245  22360201.841    22360194.5514
        46.100          34.4004
 15  9 17  2 24 30.0000000  0 11G22G14G04G16G11G08G03G27G31G01G19
 119781635.035 7  93336292.77945  22793691.429    22793681.9714
        45.800          32.1004
 114542868.810 7  89254188.66445  21796771.613    21796765.8484
        45.800          34.8004
 117321317.275 7  91419234.74045  22325483.497    22325477.6154
        45.200          31.2004
 125902174.396 6  98105523.75543  23958412.960    23958412.7634
        40.300          21.1004
 123486834.568 6  96223497.43343  23498758.159    23498752.3934
        38.100          21.8004
 110588833.126 8  86173129.19846  21044349.239    21044344.5874
        49.100          41.1004
 126382287.133 6  98479744.40443  24049741.943    24049746.0244
        40.900          22.3004
 106693552.503 8  83137820.72147  20303105.634    20303100.6894
        52.200          43.6004
 129137162.063 5                  24573963.662
        32.000
 128213357.600 6  99906516.41243  24398189.237    24398188.1024
        41.700          21.1004
 117424874.894 7  91499876.63145  22345204.062    22345197.3004
        46.000          34.7004
 15  9 17  2 25  0.0000000  0 11G22G14G04G16G11G08G03G27G31G01G19
 119850738.531 7  93390139.63145  22806841.297    22806832.4254
        44.500          33.1004
 114577280.067 7  89281002.65445  21803320.621    21803313.8594
        45.600          35.1004
 117267335.787 7  91377171.30644  22315210.393    22315205.5064
        45.300          29.9004
 125981348.953 6  98167217.87443  23973478.559    23973479.1234
        39.400          19.9004
 123400544.827 6  96156258.75643  23482339.341    23482331.7004
        37.900          21.8004
 110534199.295 8  86130557.40646  21033953.081    21033948.5464
        48.300          40.9004
 126320774.036 6  98431812.46243  24038035.888    24038039.7354
        39.900          22.9004
 106714521.487 8  83154160.18047  20307095.987    20307090.7494
        51.900          43.5004
 129088152.825 5                  24564637.145
        32.600
 128152394.978 6  99859013.24943  24386588.158    24386588.1954
        39.500          22.6004
 117346357.933 7  91438694.63545  22330263.715    22330255.9574
        47.000          34.7004
 15  9 17  2 25 30.0000000  0 11G22G14G04G16G11G08G03G27G31G01G19
 119919823.749 7  93443972.24445  22819987.318    22819979.5014
        44.300          32.1004
 114612198.724 7  89308212.02245  21809964.659    21809958.6014
        44.600          34.2004
 117213361.810 7  91335113.70045  22304939.579    22304934.6344
        44.600          31.4004
 126060441.542 6  98228848.12943  23988529.607    23988529.5854
        40.700          20.4004
 123314256.243 6  96089021.06043  23465919.145    23465911.6794
        38.000          21.1004
 110480020.517 8  86088340.20446  21023642.835    21023638.5344
        48.800          40.8004
 126259509.024 6  98384073.82143  24026377.679    24026381.2914
        39.800          22.5004
 106736041.843 8  83170929.27247  20311190.849    20311185.8454
        51.900          43.5004
 129039006.615 5                  24555283.543
        31.600
 128091336.024 6  99811434.88743  24374967.936    24374969.0864
        38.600          21.1004
 117268138.518 7  91377744.50545  22315378.693    22315370.9354
        47.000          35.0004
 15  9 17  2 26  0.0000000  0 11G22G14G04G16G11G08G03G27G31G01G19
 119988888.340 7  93497788.78645  22833130.150    22833122.2154
        43.900          31.1004
 114647621.981 7  89335814.59445  21816705.908    21816699.0874
        44.900          34.4004
 117159395.292 7  91293061.92545  22294670.776    22294664.6594
        45.800          31.1004
 126139448.488 6  98290411.68043  24003565.823    24003565.0984
        41.500          20.9004
 123227969.090 6  96021784.41243  23449498.775    23449491.4274
        39.200          19.9004
 110426298.115 8  86046478.61746  21013419.977    21013415.6774
        49.000          40.8004
 126198490.909 6  98336527.56944  24014765.200    24014769.8674
        38.900          24.4004
 106758112.115 8  83188126.86147  20315390.748    20315385.7444
        51.700          43.8004
 128989715.536 5                  24545906.087
        32.900
 128030179.534 6  99763780.64243  24363330.721    24363331.1684
        37.500          21.3004
 117190217.996 7  91317027.25645  22300550.931    22300542.5874
        47.600          35.1004
 15  9 17  2 26 30.0000000  0 11G22G14G04G16G11G08G03G27G31G01G19
 120057931.238 7  93551588.41945  22846268.931    22846260.3524
        44.500          32.4004
 114683549.829 7  89363810.34045  21823542.650    21823535.7124
        46.100          34.3004
 117105436.863 7  91251016.45345  22284403.004    22284396.8294
        44.700          30.9004
 126218367.577 6  98351906.73743  24018583.353    24018583.8594
        41.200          20.1004
 123141684.947 6  95954550.10343  23433077.542    23433071.7184
        37.600          19.9004
 110373034.407 8  86004974.45246  21003283.874    21003279.3974
        48.500          40.7004
 126137719.971 6  98289173.93543  24003202.034    24003204.5914
        40.500          22.8004
 106780732.381 8  83205753.00247  20319695.443    20319690.2634
        52.400          44.5004
 128940300.225 5                  24536501.272
        33.300
 127968925.862 6  99716050.67143  24351676.018    24351675.1764
        40.200          22.9004
 117112599.232 7  91256545.16445  22285780.539    22285772.3704
        47.500          35.0004
 15  9 17  2 27  0.0000000  0 11G22G14G04G16G11G08G03G27G31G01G19
 120126950.951 7  93605370.01045  22859402.604    22859394.0254
        44.300          32.4004
 114719981.099 7  89392198.38245  21830475.908    21830468.3844
        45.200          34.2004
 117051487.748 7  91208978.24645  22274136.440    22274130.7334
        43.700          30.2004
 126297196.099 6  98413331.22343  24033584.862    24033584.9574
        40.500          20.1004
 123055405.350 6  95887319.34143  23416659.777    23416654.0704
        39.700          21.3004
 110320231.527 7  85963829.36546  20993235.912    20993231.3184
        47.700          40.3004
 126077196.297 6  98242012.95743  23991684.219    23991686.3074
        41.600          22.8004
 106803902.331 8  83223807.48747  20324104.720    20324099.5994
        51.300          44.5004
 128890753.936 5                  24527070.982
        31.600
 127907575.094 6  99668244.94743  24340000.140    24340000.4694
        37.600          21.8004
 117035284.892 8  91196300.28445  22271068.518    22271059.3544
        48.300          34.9004
 15  9 17  2 27 30.0000000  0 11G22G14G04G16G11G08G03G27G31G01G19
 120195946.526 7  93659132.77545  22872531.780    22872523.4364
        44.200          32.6004
 114756915.056 7  89420978.10645  21837503.855    21837496.8594
        45.300          34.8004
 116997548.550 7  91166947.78145  22263871.530    22263866.6434
        43.600          31.6004
 126375931.518 6  98474683.17043  24048567.176    24048567.7994
        40.500          21.1004
 122969132.025 7  95820093.46143  23400242.755    23400236.4624
        42.000          21.7004
 110267891.881 8  85923045.25046  20983276.108    20983271.5144
        48.100          40.6004
 126016919.844 6  98195044.59144  23980213.263    23980216.9934
        40.700          24.0004
 106827621.631 8  83242290.02847  20328618.640    20328613.3444
        51.900          44.4004
 128841079.447 5                  24517621.431
        34.200
 127846127.163 6  99620363.62543  24328307.364    24328306.8154
        37.500          21.8004
 116958277.587 7  91136294.64445  22256413.997    22256405.7114
        47.200          34.4004
